location	lat	long
Mt Wilga Manor, Hornsby, Sydney, New South Wales, Australia	-33.69407779549788	151.08965444423262
Moderna museet, Stockholm, Sweden	59.32537001731137	18.084099970569664
Xinjiang, China	42.56917000000004	85.45611000000008
Titusville, Florida, USA	28.608030000000042	-80.80797999999999
Atlantic Video Studios, New York City, New York, USA	40.75631997778303	-73.94018995556594
W Atlanta Street, Wrightsville Beach, North Carolina, USA	34.210237500000005	-77.79469499999999
2102 E. 1st St., Los Angeles, California, USA	34.044781407879015	-118.21366394044259
Slov, Slovakia	49.21160000000003	18.751530011108553
Sun Bay Park Hotel, Civitavecchia, Rome, Italy	42.09681000000006	11.789960000000065
111 West Dyer Road, Santa Ana, California, USA	33.708895394973574	-117.86951698972821
Fort Cochin, Kerala, India	9.939880000000073	76.26022000000006
Les Preses, Girona, Catalonia, Spain	42.14405000000005	2.458470000000034
Door to Door Cleaners, Santa Monica, California, USA	34.01158000000004	-118.49226999999996
Rue Daguerre, Paris 14, Paris, France	48.83470567673268	2.327540303854298
Dodau bei Malente, Schleswig-Holstein, Germany	54.17023000000006	10.554310000000044
Hietasaari, Oulu, Finland	65.02173000000005	25.43241000000006
Launch Complex 39A, Kennedy Space Center, Titusville, Florida, USA	28.608030000000042	-80.80797999999999
Lores, Pontevedra, Galicia, Spain	42.42820000000006	-8.785739999999976
Millington, Michigan, USA	43.280590000000075	-83.52979999999997
Bubba 's Country Store-11606 FM 1826, Austin, Texas, USA	30.194030000576962	-97.92387004111573
Oracabessa, Jamaica	18.39820000000003	-76.93151999999998
Eagle Mountain Marine Corps Air Station, Texas, USA	32.86598002005269	-97.5045000483291
187 North Gower Street, Somers Town, London, England, UK	51.52620703873714	-0.1367311253646731
The Griffin, 93 Leonard Street, London, UK	51.52470000000005	-0.08159999999998035
Showcase Theater, 683 S Main St Corona, California, USA	33.87433090259098	-117.56662791554673
Colonia Heroes de Chapultepec, Mexico City, Distrito Federal, Mexico	19.238417999999996	-99.12450824999999
Pilisborosjen, Hungary	47.60585000000003	18.99216000000007
The Hellfire Club, Manhattan, New York City, New York, USA	40.71455000000003	-74.00713999999994
Buchenwald Concentration Camp, Weimar, Germany	51.01915000000008	11.248920000000055
Bridgewater Inn, Bridgewater, South Australia, Australia	-35.00925994445745	138.75630007386442
Townsend, Tennessee, USA	35.67631000000006	-83.75526999999994
1 Newburgh Street, Soho, London, England, UK	51.51335128408369	-0.13840003501868545
Spayse Studios, 1499 Regal Row, Suite 505, Dallas, Texas, USA	32.83444936972681	-96.87799255360927
Charlottesville, Virginia, USA	38.03213000000005	-78.47755999999998
Ness Ziona, israel	31.97771151200004	34.97921769200008
1431 Ocean Avenue, Santa Monica, California, USA	34.01312852293816	-118.49693239257898
Omiya, Saitama, Japan	35.982480459000044	139.0870531910001
Sonoran Desert, Arizona, USA	32.91671000000002	-112.66737999999998
Parliament House, New Delhi, Delhi, India	NaN	NaN
Holiday Road, Zionsville Indiana, USA	39.98132545344785	-86.27272996982963
Lindsay Studios - 25241 Avenue Stanford, Valencia, California, USA	34.4346732576026	-118.57821913145568
Museum Bijmans Van Beuningen, Rotterdam, Zuid-Holland, Netherlands	51.9139600011539	4.472910081077801
City O' City 206 E 13th Ave, Denver, CO 80203	39.7368264884588	-104.98446
Jaslo, Podkarpackie, Poland	49.74541992671258	21.460109944457567
Behrampore, West Bengal, India	24.100420000000042	88.24071000000004
Schadeleben, Saxony-Anhalt, Germany	51.91667000000007	11.500000000000057
North Piddle, Worcestershire, England, UK	52.189220000000034	-2.0499399999999355
Seoul Foreigners' Cemetery Park, Hapjeong-dong, Mapo-gu, Seoul, South Korea	37.568260000000066	126.97783000000004
Belk Theater - 130 N. Tryon Street, Charlotte, North Carolina, USA	35.22783413927556	-80.84210679664184
Fieldhead, Birstall, West Yorkshire, England, UK	53.743234500000014	-1.6631797499999998
Gateway Apartments, San Francisco, California, USA	37.796755450919974	-122.39827199999999
Pulawy, Lubelskie, Poland	51.41356601459955	21.999009979305875
Old Courtroom, Town Hall, Oxford, Oxfordshire, England, UK	51.705599783789154	-1.1027800837834645
Low Farm, Bridge Road, Bromeswell, Woodbridge, Suffolk, England, UK	52.11454225197374	1.3692618013887838
Garden City, Utah, USA	41.95025000000004	-111.39329999999995
Givat Shmuel, Israel	32.07621000000006	34.85173000000003
Flottstelle, Caputh, Schwielowsee, Brandenburg, Germany	52.347380000000044	12.989410000000078
Thapar University, Patiala,India	30.35618000000005	76.37279000000007
Martano, Lecce, Apulia, Italy	40.20291000000003	18.303450000000055
Kyffhuserdenkmal, Bad Frankenhausen, Thuringia, Germany	51.4124300239478	11.106450057993506
Shelton Community Center, Shelton, Connecticut, USA	41.32260000000008	-73.10909999999996
The Cooper Clinic, Cooper Aerobics Center - 12200 Preston Road, Dallas, Texas, USA	32.914854000000005	-96.803518768308
Kensington High Street, Kensington, London, England, UK	51.497115606002716	-0.20459094323590485
Sierra foothills, California, USA	34.10678004111585	-117.37864002553522
Koscil sw. Antoniego Padewskiego, Senatorska, Srdmiescie, Warsaw, Mazowieckie, Poland	52.24313998110126	21.005880073864397
Central Library, Middlesbrough, North Yorkshire, England, UK	54.00000000000006	-1.4999999999999432
Racetrack, Sonoma County Fair Grounds, Santa Rosa, California, USA	38.43272994503448	-122.70241993060763
Tagudin, Ilocos Sur, Philippines	16.937170000000037	120.44448000000011
Carries Flea Market, 8717 Geyer Springs, Little Rock, Arkansas, USA	34.67063986066712	-92.3442066876343
Sitio Patnubay, Purok I, San Luis, Antipolo City, Rizal, Philippines	14.591160000000059	121.18173000000002
Star Sedlo, Czech Republic	50.63238000000007	14.091260000000034
Tazewell County, Virginia, USA	37.124994041000036	-81.56061243899995
Tenterden station, Kent and East Sussex Railway, Tenterden, Kent, England, UK	51.069930000000056	0.6847000000000207
Mystery Fun House, Orlando, Florida, USA	28.424484	-81.21628799999999
Frank Ct, between 4th and 5th, Los Angeles, California, USA	33.925842	-118.0721835
Semarang, Indonesia	-6.98748999999998	110.37028000000004
Rugby Road, Midwood, Flatbush, Brooklyn, New York City, New York, USA	40.62931006217898	-73.94393995224775
201 Paseo de la Playa, Redondo Beach, California, USA	33.815122939516776	-118.3898247630284
Englewood, Florida, USA	26.950420000000065	-82.35315999999995
Kloster St. Wigberti, Werningshausen, Thuringia, Germany	51.140450000000044	10.998140000000035
Moyotepec, Morelos, Mexico	18.72261000000003	-98.99511999999999
Guinea Bissau	12.010130157000049	-14.984960920999981
Quitaque, Texas, USA	34.366130000000055	-101.05882999999994
Tropical Apiaries Inc. Davie, Florida, USA	26.102490992320718	-80.29622139269301
Meppen, Lower Saxony, Germany	52.68993000000006	7.291150000000073
Samedan airport, Samedan, Kanton Graubnden, Switzerland	46.53606000000008	9.873100000000022
Warren, Arkansas, USA	33.61416000000003	-92.06426999999996
Rocksprings, Texas, USA	30.015700000000038	-100.21003999999999
Fittsham, Massachusetts, USA	42.35867032400006	-71.71818499999995
nimo Jefferson Charter Middle School - 1655 E 27th St, Los Angeles, California, USA	34.012293618962204	-118.24355531574217
Burghley House, Cambridgeshire, England, UK	52.60941753656987	-0.4404553089777598
3662 Mountain View Avenue, Los Angeles, California, USA	34.008552944414866	-118.43231766240419
Dursley, Gloucestershire, England, UK	51.69329000000005	-2.365169999999978
WDR-Funkhaus, Cologne, North Rhine-Westphalia, Germany	50.94054997446483	6.956069981678192
Sunset Pawnbrokers - 1647 N La Brea Ave, Los Angeles, California, USA	34.10114133217892	-118.34512393494953
Queluz, Sintra, Lisbon, Portugal	38.757420000000025	-9.259049999999945
Maschinenhalle Zweckel, Gladbeck, North Rhine-Westphalia, Germany	51.59433998716077	6.967740020629609
Obilicev venac Str, Belgrade, Serbia	44.815600000000074	20.456950000000063
Kongens Nytorv, Copenhagen, Denmark	55.68092998441947	12.58499004616482
Temple Expiatori de la Sagrada Famlia, Eixample, Barcelona, Catalonia, Spain	41.40130004385712	2.173870011108574
Sequeros, Salamanca, Castilla y Len, Spain	40.511780000000044	-6.024769999999933
Rocky River, Cleveland, Ohio, USA	41.43115706399273	-81.82434658184235
Olbia, Sassari, Sardinia, Italy	40.91820000000007	9.496390000000076
Enrum Slot, Vedbk, Sjlland, Denmark	54.873120588195945	11.28729825722812
Aimak, Inner Mongolia, China	44.00000000000006	112.00000000000011
N. Amboy Road, Twentynine Palms, California, USA	34.39433150882058	-115.69853817192681
311 E 5th St, Los Angeles, California, USA	34.044836462695095	-118.24547328689128
Hengistbury Head, Dorset, England, UK	50.72012950894996	-1.766873802797902
Oasis Academy Theatre, Southampton, UK	50.909970000000044	-1.4070899999999256
Hamilton, Montana, USA	46.248710000000074	-114.15585999999996
Vosges Mountains, France	47.97694000000007	6.8063300000000595
St. Saviour's Dock, Southwark, London, England, UK	51.50541000000004	-0.08920999999998003
Amer, Girona, Catalunya, Spain	42.00926000000004	2.604430000000036
Biglerville, Pennsylvania, USA	39.93223000000006	-77.24832999999995
Northumberland Street, Newcastle upon Tyne, Tyne & Wear, UK	54.97607421111146	-1.6128788200338164
Phillips 66, 11899 Ventura Blvd., Los Angeles, California, USA	34.14269509915768	-118.39070006006703
Silao, Guanajuato, Mexico	20.943340000000035	-101.42693999999995
Chteau de Champs-sur-Marne, 31 rue de Paris, Champs-sur-Marne, Seine-et-Marne, France	NaN	NaN
Puhos, Kitee, Finland	62.08600000000007	29.90811000000008
Most, Czech Republic	50.51479000000006	13.637870000000078
Rosario, La Union, Philippines	16.22989000000007	120.48617000000002
Lorca, Murcia, Spain	37.68060000000003	-1.6905099999999607
Pacific Avenue, between Montgomery and Stockton Streets, San Francisco, California, USA	38.29439699999999	-122.2968915
Ex Hacienda Atotonilquillo, Manuel Doblado, Guanajuato, Mexico	20.727700000000027	-101.95336999999995
5 Oatlands Avenue, Weybridge, Surrey, England, UK	51.36709920202417	-0.4429453146427926
El Muyo, Segovia, Castilla y Len, Spain	41.292790000000025	-3.3179199999999582
River Soar, south of Ratcliffe-on-Soar, Nottinghamshire, England, UK	52.85523000000006	-1.2640199999999595
605 Paseo Del Mar, Palos Verdes Estates, California, USA	33.798302421345525	-118.40537568293016
The Monkey public house. Baggerwood Lane. Thurgoland. Barnsley. South Yorkshire. England, UK	53.55347000000006	-1.4833699999999794
Hawthorne Bridge, Portland, Oregon, USA	45.51247105221154	-122.66808887407963
Shodoshima, Kagawa, Japan	34.48168532700004	134.2337408290001
Nonsuch Park, Cheam, Sutton Surrey, England, UK	51.355180000000075	-0.2298299999999358
7990 2e Avenue, Montral, Qubec, Canada	45.56038960032321	-73.6117234514397
Wentwood Reservoir, Monmouthshire, Wales, UK	51.76473606700006	-2.870873521999954
Hauptmarkt, Trier, Rhineland-Palatinate, Germany	49.75651883661849	6.6414094038932445
Torvik, Norway	62.96667000000008	8.500000000000057
33 Dundas Street East, Toronto, Ontario, Canada	43.65605174545515	-79.37880336336984
Shkoder, Albania	42.067890000000034	19.512440000000026
Balat, Istanbul, Turkey	41.02950000000004	28.94763000000006
Creole Creamery - 4924 Prytania Street, New Orleans, Louisiana, USA	29.924560000000042	-90.10842999999994
Hunter Valley Station Otago, New Zealand	-44.23084165496489	170.87240662715735
Ruiki River, Democratic Republic Of Congo	-0.38676999999995587	25.409370000000024
Balsiges, Lozre, France	44.48128000000003	3.4566500000000246
Strzky, Slovakia	49.173650000000066	20.457370000000026
Queen Street, Sheffield, South Yorkshire, England, UK	53.384404681505124	-1.4691507620526492
Cinmatographe, Leicester Square, Soho, London, England, UK	51.51168000000007	-0.13276999999993677
Howitzvej 12-15, Frederiksberg, Denmark	55.67942641271851	12.53148262254023
Tom Bradley International Terminal- Los Angeles International Airport - 1 World Way, Los Angeles, California, USA	33.945610000000045	-118.39223999999996
Wierre-Effroy, France	50.77756000000005	1.739150000000052
Piber, Styria, Austria	47.07707000000005	15.10588000000007
Kuttanadu, Kerala, India	9.430780000000027	76.43889000000007
St Ermin's Hotel, Caxton Street, Westminster, London, England, UK	51.49864000000008	-0.1342899999999645
The Pabst Theatre - 144 E. Wells St., Milwaukee, Wisconsin, USA	43.04092004053889	-87.9102900805008
Paxton, New South Wales, Australia	-32.90467999999993	151.2863900000001
Runaway Creek Rainforest Preserve, Belize	17.350000000000023	-88.46666999999997
Plymouth Rock, Plymouth, Massachusetts, USA	41.95885000000004	-70.66283999999996
City Hall, Newcastle upon Tyne, England, UK	55.11769000000004	-1.9458499999999503
Ord Street, Chinatown, Los Angeles, California, USA	34.06031004057482	-118.23924815940566
Oban, Argyll and Bute, Scotland, UK	56.40820000000008	-5.469119999999975
Unspace Interactive, Toronto, Ontario, Canada	43.648690000000045	-79.38543999999996
Gelnhausen, Hessen, Germany	50.202960000000076	9.190510000000074
South Van Ness Avenue, San Francisco, California, USA	37.75663880720108	-122.41669807173874
Residencial Real de Tetelpa rumbo al Desierto de los Leones, Estado de Mxico, Mexico	18.019600000000025	-90.88069999999999
Sunset Park, Brooklyn New York, USA	40.64841000000007	-74.00665999999995
Manly, NSW, Australia	-33.794689999999946	151.28725000000009
Bergen-Belsen Concentration Camp, Lneburg, Lower Saxony, Germany	52.75741000000005	9.911610000000053
K Street Northwest & N Capitol Street Northwest, Washington, District of Columbia, USA	38.902518000000015	-77.009103
7164 Varna Ave., Los Angeles, California, USA	34.2005815653208	-118.4246695653208
Moores Memorial Library, Christiana, Pennsylvania, USA	39.95857993060777	-75.99751002279388
Pensecola, Florida, USA	30.420840000000055	-87.21722999999997
FX Center, Babelsburg, Potsdam, Brandenburg, Germany	52.38510004948304	13.108289926712624
Red Basket - 151 College Highway, Southampton, Massachusetts, USA	42.236845169542654	-72.72327375962274
Squaw Valley, California, USA	36.74040000000008	-119.24710999999996
Tamale, Ghana	9.412920000000042	-0.8420999999999594
Bergondo, A Corua, Galicia, Spain	43.313450000000046	-8.231109999999944
Packard Motor Car Company, Detroit, Michigan, USA	42.44456683636782	-83.02827139411781
Herat, Afghanistan	34.34817000000004	62.19967000000008
Gravesend, Kent, England, UK	51.43282000000005	0.364620000000059
Agger, Jylland, Denmark	55.959300779000046	10.053934054000024
Carterville, Illinois, USA	37.76104000000004	-89.07718999999997
6907 Lankershim Blvd., Los Angeles, California, USA	34.19634863324038	-118.38784022854294
Baha Blanca, Argentina	-34.61111999999997	-58.419569999999965
23832 Malibu Rd, Malibu, California, USA	34.03335961887623	-118.6948064501703
Crcel de Carabanchel, Madrid, Spain	40.39094000000006	-3.7241999999999393
Mountain Kopaonik, Serbia, Yugoslavia	44.02936463900005	20.804550522000056
Vivaldisingel, Nieuw-Vennep, Netherlands	52.26965298263349	4.614908734477641
The Dojo, Wolcott, Connecticut, USA	41.57869000000005	-72.98296999999997
Wellenstein, Luxembourg	49.524590000000046	6.341630000000066
Tepic, Nayarit, Mexico	21.51195000000007	-104.89163999999994
Arch Beach, Laguna Beach, California, USA	33.525285028875395	-117.7656209643304
Washington Duke Inn Durham, North Carolina, USA	35.99320001558063	-78.9478499516708
Punkasalmi, Finland	61.760710000000074	29.393120000000067
Pranang Bay, Ao Nang, Krabi, Thailand	8.032980000000066	98.79303000000004
306 West 54th Street, Manhattan, New York, USA	40.76506878628315	-73.98500454968546
Harwelden - 2210 S. Main Street, Tulsa, Oklahoma, USA	36.13193130391252	-95.98750649287261
Mers-les-Bains, Somme, France	50.066220000000044	1.3860800000000495
Brickfields, Kuala Lumpur, Malaysia	3.12916000000007	101.68406000000004
Cane Ridge, Antioch, Tennessee, USA	36.02562867036862	-86.64647992050067
Archologischer Park, Xanten, North Rhine-Westphalia, Germany	51.66840525786649	6.45066980193517
Drake House, Hope Cove, Devon, England, UK	50.242200000000025	-3.8591999999999302
Osborne Power Station, Corner Mormora Terrace & Mersey Road, Osborne, South Australia, Australia	-34.79705999999993	138.4917600000001
Centre de Conditionnement Physique Nautilus, Montral, Qubec, Canada	60.108670000000075	-113.64257999999995
Panama Rocks Scenic Park, Panama, New York, USA	42.073359923394385	-79.4888699760522
Spooner Lake, Lake Tahoe-Nevada State Park, Incline Village, Lake Tahoe, Nevada, USA	39.356482037000035	-116.65543640499999
8400 Balboa Blvd, Northridge, California, USA	34.22322798499637	-118.50260828703388
Goldcrest Way, Bushey, Hertfordshire, England, UK	51.63645962018134	-0.3520527138197649
Bamfield, British Columbia, Canada	48.819840000000056	-125.13473999999997
Clearwell Caves, Coleford, Forest of Dean, Gloucestershire, England, UK	51.772650000000056	-2.6119999999999663
Yagoona, New South Wales, Australia	-33.905239999999935	151.0100900000001
rsta Centrum, rsta, Stockholm, Stockholms ln, Sweden	59.35977997056969	18.00244993334904
Tomelilla, Skne ln, Sweden	55.544430000000034	13.95097000000004
1623 N. Ogden Dr., Los Angeles, California, USA	34.10054936081136	-118.35943414573818
Vauhini Studios, Chennai, Tamil Nadu, India	13.043070000000057	80.24789000000004
Rue Chvequeue, Walhain, Wallonia, Belgium	50.613436819677055	4.674064007859215
Merigomish, Nova Scotia, Canada	45.63122000000004	-62.42946999999998
Motomachi, Kobe, Hyogo, Japan	34.689512216000026	135.1899781620001
Big Ben & London Eye, London, England, UK	51.503659988314624	-0.11925004443394603
Gemini House, Mumbai, Maharashtra, India	19.122020000000077	72.87000000000006
Calimesa, California, USA	34.00356000000005	-117.05841999999996
Sacred Monkey Forest of Padangtegal, Jalan Monkey Forest, Padangtegal, Ubud, Gianyar, Bali, Indonesia	-8.519649999999956	115.25028000000009
El Cerrejn, La Guajira, Colombia	11.033330000000035	-72.64999999999998
Maple Leaf Club - 8316 Oak Street, New Orleans, Louisiana, USA	29.949069926712617	-90.13193004053882
Fairfield, North Carolina, USA	35.519330000000025	-78.31638999999996
Alfafar, Valencia, Comunidad Valenciana, Spain	39.423200000000065	-0.3892999999999347
San Jacinto Battleground, One Monument Circle, La Porte, Texas, USA	29.652490000000057	-95.02479999999997
St. Augustine, Florida, USA	29.894690000000026	-81.31451999999996
4809 Clairemont Dr, San Diego, California, USA	32.8313105323159	-117.2056062332508
Gara Brasov, Tractorul, Brasov County, Romania	45.66080000000005	25.61357000000004
Laurens, Iowa, USA	42.84764000000007	-94.85620999999998
U.S. Marine Base, San Diego, California, USA	32.71568000000008	-117.16170999999997
Shubert Alley, Manhattan, New York City, New York, USA	40.721457181487196	-74.01007843763367
Renaissance Fountain, Largo das Portas de Moura, vora, Alentejo, Portugal	40.31344000000007	-7.801889999999958
Kirksville, Missouri, USA	40.196690000000046	-92.57201999999995
Trinity hill, Combpyne, Devon, England, UK	50.72586000000007	-3.007039999999961
Bouquet Plaza Liquor - 28200 Bouquet Canyon Rd., Santa Clarita, California, USA	34.45312101024313	-118.49591503271992
Stage 15, Warner Brothers Burbank Studios - 4000 Warner Boulevard, Burbank, California, USA	34.15064933086139	-118.338743461019
Linden, New Jersey, USA	40.63199000000003	-74.25519999999995
Wighton, Wells-next-the-Sea, Norfolk, England, UK	52.91778000000005	0.8900100000000748
Lake Toya, Hokkaido, Japan	42.603890000000035	140.8702800000001
Waterfall, New South Wales, Australia	-34.135269999999934	150.99423000000002
Brajchino, Macedonia	40.906390000000044	21.159170000000074
Riad Monceau, Rue Riad Zitoun el Kdim, Marrakech, Morocco	31.62444000000005	-7.987129999999979
Rohru, India	31.200590000000034	77.74925000000007
Place d'Italie, Paris 13, Paris, France	48.83206303501583	2.356261481226776
Mari El, Russia	56.58330880800003	47.961348411000074
Tiffinanny's Delicatessen, San Diego, California, USA	32.71568000000008	-117.16170999999997
Plage de Pampelonne, Var, France	43.22720000000004	6.661720000000059
Powell St & California St, San Francisco, California, USA	37.792044000000004	-122.409171
Castle Clinton, Battery Park, Manhattan, New York City, New York, USA	40.70285000000007	-74.01433999999995
Asturias, Spain	43.36269000000004	-5.8476799999999685
PortAventura, Salou, Tarragona, Catalonia, Spain	41.086430025535265	1.1535899961048932
Yokote, Akita, Japan	39.31376909100004	140.56666034800003
Pangsha, Rajbari, Bangladesh	23.779240000000073	89.41747000000004
Myrtle Avenue & Wyckoff Avenue, Bushwick, Brooklyn, New York City, New York, USA	40.69954800000001	-73.911078
Boonville, Indiana, USA	38.05001000000004	-87.27490999999998
Central Park South Restaurant, Manhattan, New York City, New York, USA	40.76732000000004	-73.98010999999997
Narita International Airport - 1-1, Furugome, Narita City, Chiba Prefecture, Japan	35.77347900000001	140.388462
Teac Ruari, Gortahork, County Donegal, Ireland	54.75684000000007	-7.744209999999953
Corbera de Ebro, Tarragona, Catalonia, Spain	41.11692000000005	1.2540600000000381
Sankt Josef, Styria, Austria	47.13333000000006	15.483330000000024
Dubrava, Zagreb, Croatia	45.83793000000003	16.538190000000043
Hoxton, London, England, UK	51.53791000000007	-0.09983999999997195
Tres Pinos, California, USA	36.790230000000065	-121.32168999999999
Cines Atelier, Italy	38.139849964943814	13.335130018898832
Teatro Sistina, Rome, Italy	41.904130000000066	12.486900000000048
Hjer, Jylland, Denmark	55.959300779000046	10.053934054000024
Medenine, Tunisia	33.346010000000035	10.48299000000003
Hsselby IP, Vsterort, Stockholm, Sweden	59.33257000000003	18.06683000000004
Hanuman Dhoka, Durbar Square, Kathmandu, Nepal	27.673490000000072	85.32519000000008
Zanskar River, India	34.16519000000005	77.33204000000006
Big Chino Wash, Arizona, USA	34.88196000000005	-112.47988999999995
Lorsica, Liguria, Italia	44.433890000000076	9.277480000000025
Byblos Cafe - Orange, California, USA	33.78791000000007	-117.85392999999999
Lake Tahoe, Nevada, USA	38.968335664796506	-119.93588924363134
Trevlez, Granada, Andaluca, Spain	36.998890000000074	-3.264039999999966
Twin Valleys, Ontario, Canada	45.259718781142446	-79.95104291519704
The Waldorf Hotel, Aldwych, Strand, London, England, UK	51.51264000000003	-0.11857999999995172
Malay, Aklan, Philippines	11.899970000000053	121.90973000000008
520-522A Green Street, San Francisco, California, USA	37.79974092389662	-122.40761580194615
Tuba, Benguet, Philippines	16.43449000000004	120.50770000000011
Bir Hadaj, Israel	31.020580000000052	34.704120000000046
Camp Eden, Iraq	45.805660000000046	10.10477000000003
Avenel, New Jersy, USA	40.57829000000004	-74.28017999999997
Minardschouwburg, Gent, Oost-Vlaanderen, Belgium	51.04884007660575	3.7270600261122135
Khuzestan Province, Iran	31.500000000000057	49.00000000000006
Tianmo, Hebei Province, China	39.00000000000006	116.00000000000011
Ninth Circuit Court of Appeals - San Francisco, California, USA	34.143140069392345	-118.16196006780481
Basse-Normandie, France	49.00000000000006	-0.9999999999999432
Chteau de Groussay, Montfort-l'Amaury, Yvelines, France	48.7808628060912	1.8232297583798354
Corner of Christopher Street and Gay Street, Greenwich Village, Manhattan, New York City, New York, USA	40.733954999999995	-74.000367
Tilisos, Crete, Greece	35.29607000000004	25.015870000000064
Ully-Saint-Georges, Oise, Picardie, France	49.27603000000005	2.281020000000069
Black Rock, California, USA	36.92910000000006	-118.23342999999994
Pizza Palace - 3132 E. Magnolia Avenue, Knoxville, Tennessee, USA	35.99495994835269	-83.88612998110119
Santee Alley, Los Angeles, California, USA	34.02974744091706	-118.26271674856226
Stawiguda, Warminsko-Mazurskie, Poland	53.65827000000007	20.399090000000058
Fertighauswelt, Danhaus, Langenhagen, Niedersachsen, Germany	52.44065000000006	9.739570000000072
Discoteca Seven Apples, Marina Di Pietrasanta, Tuscany, Italy	43.9344400766057	10.192420011108522
Katsura Rikyu, Kyoto, Japan	35.35661399300005	135.2981714560001
Edale, Derbyshire, England, UK	53.37012000000004	-1.8164299999999685
Norden, Lower Saxony, Germany	53.595660000000066	7.201850000000036
Bus Station - 410 S. Walnut Street, South Bend, Indiana, USA	41.67181898579914	-86.27034288862981
Le Grand Hotel, Rome, Lazio, Italy	41.90424000000007	12.494470000000035
Reinbek, Schleswig-Holstein, Germany	53.511870000000044	10.251490000000047
Naucalpan de Jurez, Estado de Mxico, Mexico	19.446210000000065	-99.24541999999997
Julia Miles Theatre, Manhattan, New York City, New York, USA	40.76704998889154	-73.98774004385704
George Mason University - 4400 University Drive, Fairfax, Virginia, USA	38.83505006665105	-77.3112399293105
Hallshuk, Sweden	57.93333000000007	18.733330000000024
Eastbourne Pier, Eastbourne, East Sussex, England, UK	50.7673399487863	0.2923500657837959
Club Calabria, Bratislava, Slovakia	48.12800993392595	17.11442994892963
Czechowice-Dziedzice, Slaskie, Poland	49.90900000000005	18.99759000000006
Matsumoto's Shave Ice, 66-087 Kamehameha Hwy, Haleiwa, Hawaii, USA	21.59120000000007	-158.10278999999997
1608 Duncan Dr NW, Atlanta, Georgia, USA	33.80667554812759	-84.4475371028334
Cheongdam Bridge, Seoul, South Korea	37.66170000000005	127.08490000000006
University of West Florida, Pensacola, Florida, USA	30.54278000000005	-87.21819999999997
Gut Hungenbach, Krten, North Rhine-Westphalia, Germany	51.03361000000007	7.264260000000036
Zelzate, Belgium	51.197520000000054	3.8147200000000225
Canisteo, New York, USA	42.26998000000003	-77.60498999999999
Saddletree Drive & Foxfield Drive, Westlake Village, California, USA	34.138485	-118.815201
Jmj, Blekinge, Sweden	56.27965380300003	15.198742055000025
Altamira, Puerto Plata, Dominican Republic	19.673910000000035	-70.83300999999994
Vars, Ontario, Canada	45.35516000000007	-75.35248999999999
Hubbard, Ohio, USA	41.156400000000076	-80.57336999999995
Granollers, Barcelona, Catalonia, Spain	41.607800000000054	2.2906000000000404
Phu My Hung, District 7, Ho Chi Minh City, Vietnam	10.733290000000068	106.70713000000006
Taylor Manor - 951 Boundary Rd, Vancouver, British Columbia, Canada	49.2765310646735	-123.02375046984737
Rio Colorado, Costa Rica	10.018510000000049	-84.36032999999998
1807 Gould St, Dallas, Texas, USA	32.76811060392991	-96.7894245251312
Birchen Coppice Cutting and Tunnel Mouth, Kidderminster, Worcestershire, England, UK	52.38832000000008	-2.2500099999999748
Windraak, Netherlands	50.97251000000006	5.888730000000066
La candelaria, Bogot, Columbia	4.594370000000026	-74.07688999999993
Meldorf, Schleswig-Holstein, Germany	54.09018000000003	9.068770000000029
2201 Dundas Street West, Toronto, Ontario, Canada	43.65355815430788	-79.45130346309647
Peavey Park, Minneapolis, Minnesota, USA	44.935730297683136	-93.26502482032745
Portland Building - 1120 SW 5th Avenue, Portland, Oregon, USA	45.51578994503447	-122.67916997331093
Rubiera, Reggio Emilia, Italy	44.69559000000004	10.64125000000007
Frouville, Val-d'Oise, France	49.147650000000056	2.1505800000000477
Trout Inn - 195 Godstow Road, Lower Wolvercote, Oxford, Oxfordshire, England, UK	51.780260000000055	-1.2993099999999345
Beppu, Kyushu, Japan	31.59167000000008	31.032500000000027
Fort Myers, Florida, USA - Briarcliff Road	26.517485195668055	-81.8443463738127
Harold Hill, Romford, Essex, England, UK	51.60490000000004	0.22946000000007416
Abbotsford House, Melrose, Scottish Borders, Scotland, UK	55.598620499999996	-2.740562999999998
3084 Franklin Canyon Dr., Los Angeles, California, USA	34.128754105170664	-118.40741840339903
Chiddingfold Golf Club, Petworth Road, Chiddingfold, Surrey, England, UK	51.09993994388062	-0.6343299777829301
Old Raduis Specialty Hospital, 59 Townsend Street, Roxbury, Massachusetts, USA	42.318557162906195	-71.09166140994856
Ralphs Supermarket, South Pasadena, California, USA	34.10532997446484	-118.13524001832182
Redmond, Oregon, USA	44.27257000000003	-121.17588999999998
Gas Street, Birmingham, West Midlands, England, UK	52.47576660527524	-1.9086281388710236
Mashantucket, Connecticut, USA	41.461460000000045	-71.97540999999995
Jrpeland, Norway	62.00000000000006	10.000000000000057
Earth Night Club, Cleveland, Ohio, USA	41.51771550000001	-81.51312825
Gare SNCF, Place du Marchal Leclerc, Le Puy en Velay, Haute-Loire, France	45.04417155459248	3.893934528397167
20th Century Fox Ranch, Malibu Creek State Park - 1925 Las Virgenes Road, Calabasas, California, USA	NaN	NaN
Snowy River, New South Wales, Australia	-36.30273999999997	148.68576000000007
Greenhow Hill, Hebden Moor, North Yorkshire, England, UK	54.26329000000004	-0.5452599999999279
Santa Fe Avenue, Downtown, Los Angeles, California, USA	34.018716777088144	-118.23039235491912
Viseu, Viseu, Portugal	40.65695000000005	-7.914629999999931
Rotterdam-Centrum, Rotterdam, Zuid-Holland, Netherlands	51.91525993060772	4.443809952247796
Spring Lake, New Jersey, USA	40.151140000000055	-74.03295999999995
Hatchling Studios, Portsmouth, New Hampshire, USA	43.07066000000003	-70.77216999999996
Former Pabst Brewery, Milwaukee, Wisconsin, USA	43.04200000000003	-87.90686999999997
Habitation Cron, Le Prcheur, Martinique, Dpartements d'Outre-Mer, France	47.70347000000004	1.5086000000000581
The Whitney, David Whitney House, 4421 Woodward Avenue, Detroit, Michigan, USA	42.352949992209794	-83.06168002668903
Centre ville, Beaumont-sur-Oise, Val d'Oise, France	49.14169000000004	2.285600000000045
Brook Drive, Kennington, London, England, UK	51.487010000000055	-0.11317999999994299
Athira Palli, Kerala, India	9.922867251382389	76.26914948231958
Rue Paul Czanne, Chalon-sur-Sane, Sane-et-Loire, France	45.72801184300005	4.164529562000041
Davis Point, Lolo National Forest, Missoula, Montana, USA	46.96607000000006	-114.01309999999995
Ernest Giles Road, Watarrka National Park, Northern Territory, Australia	-19.41254509299995	133.36704992900002
The Atoll of Tetiaroa, French Polynesia	-17.024999999999977	-149.55832999999998
Darling River, Queensland, Australia	-19.239810242668238	146.64596543609085
Sayler's Creek, Virginia, USA	37.34265000000005	-78.26026999999993
Katpanah Lake, Pakistan	30.314282999000056	70.21010363900007
Tony Roma's, Main Street Station, Las Vegas, Nevada, USA	36.14405000000005	-115.14552999999995
College of the Canyons - 26455 Rockwell Canyon Road, Santa Clarita, California, USA	34.40279000000004	-118.56645999999995
La main de Massiges, Massiges, Marne, France	49.18750000000006	4.749680000000069
Joo Caetano Theater, Rio de Janeiro, Rio de Janeiro, Brazil	-22.931301833589366	-43.66941499923188
Irvine Ranch, Tustin, California, USA	33.73909851164539	-117.79622505133247
5634 Cartwright Ave., Los Angeles, California, USA	34.17319017346645	-118.36377077765614
Quicena, Huesca, Aragn, Spain	42.14694000000003	-0.35937999999993053
Marine Corps Air Station Miramar, San Diego, California, USA	32.87476000000004	-117.13928999999996
Bugarach, France	42.87606000000005	2.3505000000000678
Osterende, Oldenswort, Schleswig-Holstein, Germany	54.38251000000008	8.963170000000048
Narrabeen Beach, Narrabeen, Sydney, New South Wales, Australia	-33.705919999999935	151.3049400000001
Toulouse, Haute-Garonne, Midi-Pyrnes, France	43.58288033236476	1.4580336332080208
N Bedford Drive & S Santa Monica Blvd Beverly Hills, California, USA	NaN	NaN
Hansville, Washington, USA	47.91765000000004	-122.54702999999995
Sutherland, NSW, Australia	-34.031519999999944	151.05762000000004
National Chung Hsing University, Taichung, Taiwan	24.124199945468078	120.67546005251096
Clapham Junction Station, Clapham, London, England, UK	51.47087000000005	-0.12411999999994805
Geiselhring, Bavaria, Germany	48.826100000000054	12.393670000000043
Clichy, Hauts-de-Seine, France	48.90247000000005	2.304230000000075
Bitzron Neighborhood, Tel Aviv, Israel	32.085560000000044	34.78953000000007
European Parliament, Strasbourg, Bas-Rhin, France	48.59828992945388	7.767490060591528
Brenley Gardens, Eltham, London, England, UK	51.460613559425035	0.04325599299793563
So Loureno da Mata, Pernambuco, Brazil	-8.066669999999931	-37.24999999999994
Hartfield, Sussex, England, UK	51.10396000000003	0.1116800000000353
Opra Garnier, Place de l'Opra, Paris 9, Paris, France	48.870940000000076	2.334070000000054
Young Harris, Georgia, USA	34.933110000000056	-83.84868999999998
Ukrainian Village, West Town, Chicago, Illinois, USA	41.90004000000005	-87.68689999999998
Vianden, Luxembourg	49.92943334300003	6.160945806000029
Barrington, Rhode Island, USA	41.740320000000054	-71.30849999999998
Long Island City, New York, USA	40.75072000000006	-73.94102999999996
Reeth, North Yorkshire, England, UK	54.38920000000007	-1.942549999999926
Riverside Drive, Toluca Lake, Los Angeles, California, USA	34.15238691776871	-118.37020202031749
S Spring St & W 3rd St, Los Angeles, California, USA	34.050276	-118.2469815
Penn Central Freight Yards, Near West Side, Chicago, Illinois, USA	41.87301000000008	-87.67612999999994
Rua Sacop 499, Lagoa, Rio de Janeiro, Rio de Janeiro, Brazil	NaN	NaN
Nuevo Baztan, Madrid, Madrid, Spain	40.36576000000008	-3.243889999999965
Sheddy's Bar And Grill - 407 US-18, Montfort, Wisconsin, USA	42.96610000000004	-90.46047999999996
Westminster Bridge Road, London, England, UK	51.49869576325863	-0.10518821022409702
Hoedspruitt, South Africa	-24.353879999999947	30.95043000000004
Central Bar, New York City, New York, USA	40.73037006939238	-73.98998995614285
Krankenhaus Kalk, Cologne, North Rhine-Westphalia, Germany	50.93933000000004	7.010900000000049
National Gallery of Art - 6th Street & Constitution Avenue, Washington, District of Columbia, USA	38.89207000000005	-77.02014999999994
West Point, New York, USA	41.395230000000026	-73.95455999999996
North Head Lighthouse, Ilwaco Washington, USA	46.29855376231074	-124.06804051870486
Kingston Road, Staines, England, UK	51.42685050000001	-0.4830524999999908
Long Prairie, Minnesota, USA	45.97195000000005	-94.86678999999998
Hudson, North Carolina, USA	35.847150000000056	-81.49474999999995
Lewistown, Pennsylvania, USA	40.597150000000056	-77.57418999999999
Miller, Missouri, USA	37.21257000000003	-93.84168999999997
Bjar, Salamanca, Castilla y Len, Spain	40.964710000000025	-5.6637099999999805
Devant la droguerie Meunier, 10 rue du Gnral Leclerc, Le Pouliguen, Loire-Atlantique, France	47.27852000000007	-2.4306099999999446
Yirrkala, Arnhem Land, Northern Territory, Australia	-12.244159999999965	136.8823000000001
Monuriki, Fiji	-17.616669999999942	177.0333300000001
Echo Mountain, Altadena, California, USA	34.20084990633428	-118.12643202972568
Del Rey Colony, 690 Harbor St, Venice, California, USA	33.98631051807898	-118.45602740961422
11125 Hwy 17 N. Wilmington, North Carolina, USA	34.330336530699775	-77.75445795700828
Knyaz-Borisova Gradina, Sofia, Bulgaria	42.68372000000005	23.33421000000004
Yamaguchi Station, Yamaguchi, Japan	34.17287748000007	131.46555053200007
Park Extension, Montral, Qubec, Canada	45.52185442783801	-73.60146546263552
Saracens Head Pub, Glasgow, Scotland, UK	55.856025	-4.237764749999986
Solva, Pembrokeshire, Wales, UK	51.87028000000004	-5.195829999999944
Siloam, Uxbridge, Ontario, Canada	44.081980000000044	-79.22949999999997
Ridgeland, South Carolina, USA	32.481790000000046	-80.98365999999999
Niagara Falls, New York, USA	43.095480000000066	-79.05581999999998
Ex Hacienda de Chautla, Puebla, Mexico	19.308010499999998	-98.46654075
Venice Boulevard, Venice, Los Angeles, California, USA	33.99708810091873	-118.44686074367277
Motion Picture Institute - 2040 Crooks Rd, Troy, Michigan, USA	42.54894000000007	-83.16659999999996
Mampujan, Bolvar, Colombia	9.992420000000038	-75.23443999999995
Hennebont, Brittany, France	47.80482000000006	-3.273649999999975
Corrubedo, Riveira, A Corua, Galicia, Spain	42.57573000000008	-9.07013999999998
Townsend House, 28 King George Avenue, Hove, South Australia, Australia	-35.012178	138.51723600000003
Hyatt Regency, Tokyo, Japan	35.69088630600004	139.69099854400008
Little Sahara, Kangaroo Island, South Australia, Australia	-35.82389999999998	137.33392000000003
S Pacific Avenue & 9th Street, Los Angeles, California, USA	NaN	NaN
Palm Beach, Florida, USA	26.70288000000005	-80.03660999999994
Sheri's Ranch - 10551 Homestead Road, Pahrump, Nye County, Nevada, USA	36.07069494754458	-115.95706851275328
Yucca Valley, California, USA	34.123230000000035	-116.41483999999997
Lyari, Pakistan	24.868400000000065	66.98980000000006
Golden Touch Diner - 275 Route 10 East, East Hanover, New Jersey, USA	40.80612355199409	-74.3702601138263
Graylyn Conference Center - 1900 Reynolda Rd, Winston-Salem, North Carolina, USA	36.119782591727514	-80.28019241224912
Ridge Meadows Hospital, Maple Ridge, British Columbia, Canada	49.21540993940856	-122.62931005683961
Bad Grund, Lower Saxony, Germany	51.810280000000034	10.237400000000036
cement factory, Solin, Split, Croatia	43.51299000000006	16.434290000000033
Columbus Circle @ 8th Ave., New York City, New York, USA	40.767678000000004	-73.98217349999999
Plaquemine, Louisiana, USA	30.289030000000025	-91.23502999999994
Golden Beach, Maryland, USA	38.486770000000035	-76.67987999999997
Hanceville, Alabama, USA	34.06171000000006	-86.76950999999997
Springer, New Mexico, USA	36.36104000000006	-104.59610999999995
Trafford General Hospital, Davyhulme, Greater Manchester, England, UK	53.47959000000003	-2.248739999999941
Spissk Vlachy, Slovakia	48.94873000000007	20.793860000000052
Stage 10, CBS Studio Center - 4024 Radford Avenue, Studio City, Los Angeles, California, USA	34.14468851731226	-118.39260207750159
House of Blues Myrtle Beach - 4640 Highway 17 South, North Myrtle Beach, South Carolina	NaN	NaN
Bad Neuenahr, Rhineland-Palatinate, Germany	50.54659000000004	7.120070000000055
Rhyd-y-Groes Wind Farm, Werthyr, Amlwch, Anglesey, Wales, UK	53.28391495800008	-4.372390708999944
197 North 500 West, Provo, Utah, USA	40.23619977407813	-111.66751650337554
St. Johns Community Center, 8427 N Central St, Portland, Oregon, USA	NaN	NaN
Pidrabuena, Ciudad Real, Castilla-La Mancha, Spain	39.03335000000004	-4.171619999999962
Ancienne salle de spectacle du palais Cardinal, Paris 1, Paris, France	48.857210000000066	2.341440000000034
Tuolumne City, California, USA	37.963310000000035	-120.24088999999998
Dwingeloo Lheebroekerzand, Netherlands	52.8309121648243	6.427287134201436
Thorpeness, Suffolk, England, UK	52.180900000000065	1.6133500000000254
Hacienda Xaxcopoil, Yucatn, Mexico	20.928620000000024	-89.60424999999998
Kufsteiner Platz 2, 81679 Mnchen, Germany	NaN	NaN
Fitness Factory, West Hollywood, California, USA	34.081980000000044	-118.38662
Neuburg an der Donau, Bavaria, Germany	48.73726000000005	11.178480000000036
Bloor St, Toronto, Ontario, Canada	43.64825303806447	-79.4913310281972
141 N Grand Ave, Pasadena, California, USA	34.14829515901107	-118.16301023319255
Karlshamn, Blekinge ln, Sweden	56.16972000000004	14.860570000000052
Digomi, Tbilisi, Georgia	41.70908000000003	44.79612000000003
Parkbhne Wuhlheide, Berlin, Germany	52.46254000000005	13.55090000000007
Parco Lambro, Milan, Lombardia, Italy	45.50070000000005	9.247540000000072
3300 Riverside dr., Burbank, California, USA	34.15224713347584	-118.33541016126142
Klondike Inn - 5191 Las Vegas Blvd. South, Las Vegas, Nevada, USA	36.08305899861502	-115.17258802097719
Zwevezele, Belgium	51.03597000000008	3.211050000000057
Sudak, Crimea, Ukraine	44.860520000000065	34.97032000000007
Nicole Sleeth Studio - 2061 Yukon Street, Vancouver, British Columbia, Canada	49.26697448317706	-123.11283028548716
Puna Geothermal Power Plant, Puna District, Hawaii, USA	19.500000000000057	-154.99999999999997
Hillarys Marina, Hilarys, Perth, Western Australia, Australia	-31.820059999999955	115.74052000000006
Chokhatauri, Georgia	42.019850000000076	42.24225000000007
Lunds Domkyrka, Lund, Skne ln, Sweden	55.70398006939239	13.19268004948302
Pensacola, Florida, USA	30.420840000000055	-87.21722999999997
Kloster Reute, Reute, Bad Waldsee, Baden-Wrttemberg, Germany	47.90243000000004	9.703460000000064
Himchhori Beach, Cox's Bazar, Bangladesh	21.44175000000007	91.98958000000005
21628 48 Ave, Langley, British Columbia, Canada	49.08937652394869	-122.62410352553522
Rancho Sierra Motel - 411 W. 4th Street, Reno, Nevada, USA	39.528820044434035	-119.82002000389511
Uptown Racquet Club, Park Avenue, Manhattan, New York City, New York, USA	40.75879994445753	-73.97263992945382
Dreetzsee, Mecklenburg-Western Pomerania, Germany	54.25000000000006	18.000000000000057
Stafford, New York, USA	42.98294000000004	-78.07345999999995
St Peter Caversham, Caversham, Reading, Berkshire, UK	51.47438000000005	-0.9675099999999475
Roslin Road, Acton, London, England, UK	51.500195486605875	-0.2767406872827137
Denali, Alaska, USA	63.17861000000005	-147.46610999999996
Inn Stadyumu, Besiktas, Istanbul, Turkey	41.041900000000055	29.005750000000035
Meremere, Waikato, New Zealand	-37.2936915	175.05963225
Mansell & University Sts., Visitacion Valley, San Francisco, California, USA	37.72002832912171	-122.40641396241409
Gulf of Spezia, Italy	44.10202000000004	9.82024000000007
A True Love, 1-6 Denmark Place, Westminster, London, England, UK	51.51541492546179	-0.13004968785057938
Trinity Cemetery, 155th and Broadway, Manhattan, New York City, New York, USA	40.832792999999995	-73.94591249999999
Himmelbjerget, Ry, Jylland, Denmark	56.103219959461214	9.68752004501095
Merchant Exchange Building - 465 California Street, San Francisco, California, USA	37.79294566720537	-122.402207341797
Lincoln Drive, Philadelphia, Pennsylvania, USA	40.02582405334312	-75.19432959434805
Ningaloo Marine Park, Western Australia, Australia	-23.13859999999994	113.77845000000002
Jimbo's Place - 3701 Rickenbacker Causeway, Virginia Key, Florida, USA	25.740121004136036	-80.16933447199544
53 Pearl Street, DUMBO, Brooklyn, New York City, New York, USA	40.70338920843673	-73.98757393559936
Praa do Comrcio, Lisbon, Portugal	39.17899225805558	-9.31995182256946
Vsterhaninge, Stockholms ln, Sweden	59.11783000000008	18.066020000000037
King's Lynn, Norfolk, England, UK	52.75730000000004	0.4157300000000532
Filtergewoelbe Wasserwerk Friedrichshagen, Berlin, Germany	52.45100000000008	13.624730000000056
Oderzo, Veneto, Italy	45.783250000000066	12.488120000000038
The Daisy - 326 N Rodeo Dr, Beverly Hills, California, USA	34.068337206791945	-118.40207280763477
The Book Nook, Decatur, Georgia, USA	33.812739999423115	-84.30749002553517
40 Falcon St, Boston Massachusetts, USA	42.38202653318128	-71.03798091618097
Port Fourchon, Louisiana, USA	29.11420000000004	-90.19194999999996
Pollen Studio, Bishop Wilton, York, England	53.986470000000054	-0.7857899999999631
Horvath & Associates Studio, New York City, New York, USA	40.71455000000003	-74.00713999999994
Maimara, Argentina	-23.62451999999996	-65.40797999999995
Film House, Wardour Street, Soho, London, England, UK	51.51466000000005	-0.13485999999994647
Steinsee, Bavaria, Germany	48.024289937821116	11.859410080500849
Pallas Theatre, Athens, Greece	37.97715000000005	23.735330000000033
Circuito del Jarama, Madrid, Spain	40.62079998124828	-3.585889960905279
Andrew W. Mellon Auditorium - 1301 Constitution Avenue NW, Washington, District of Columbia, USA	38.8921174754744	-77.0300325
21 Tranmere Grove, Ipswich, Suffolk, England, UK	52.076776704882604	1.1321610315228678
Dory Wilson's Ranch, Lucerne Valley, California, USA	34.427065849717295	-117.01297030814993
Louvain-La-Neuve, Belgium	50.66766000000007	4.61385000000007
Nizhni Novgorod, Russia	56.321510000000046	44.03276000000005
Steinway Hall, 109-113 West 57th Street, Manhattan, New York City, New York, USA	NaN	NaN
Smith Rock, Oregon, USA	42.54013000000003	-122.29113999999998
Craigmillar Castle, Craigmillar, Edinburgh, Scotland, UK	55.92191000000008	-3.1416999999999575
Dieulefit, Drme, France	44.52583000000004	5.065870000000075
Banaue Rice Terraces, Ifugao, Philippines	16.852325386000075	121.19942629200011
Garrett Coffee House - 923 N. Fairfax Avenue, West Hollywood, California, USA	34.08790474854291	-118.36157419680863
Antigua Recreation Ground, St. Johns, Antigua and Barbuda	17.116360000000043	-61.841579999999965
Universit libanaise, Beyrouth, Lebanon	33.88072000000005	35.48511000000008
Sotterley Estate, Beccles, Suffolk, England, UK	52.40902269153083	1.5898948569588143
Mantung, South Australia, Australia	-34.58809999999994	140.07832000000008
2846 Mountain Road, Moncton, New Brunswick, Canada	46.135581623896556	-64.89007771236054
Cementerio de la Almudena, Madrid, Spain	40.42571000000004	-3.6458299999999326
The Justice Institute of British Columbia, 715 McBride Boulevard, New Westminster, British Columbia, Canada	49.221730005049025	-122.91110999379715
Otago Peninsulta, New Zealand	-45.86666999999994	170.66667000000007
Passerelle Simone de Beauvoir, Paris, France	48.835520306272834	2.378359117321055
Gibraltar Rock, Santa Barbara, California, USA	34.41938000000005	-119.69904999999994
Main Beach, Queensland, Australia	-27.982339999999965	153.42911000000004
Robe Jetty, Robe, South Australia, Australia	-37.18615999999997	139.99003000000005
Valle de Langreo, Oviedo, Asturias, Spain	43.29961760827841	-5.675605036593933
Vitra Design Museum, Weil am Rhein, Baden-Wrttemberg, Germany	47.60209998167819	7.618480069392362
Odenthal, North Rhine-Westphalia, Germany	51.03259000000003	7.116910000000075
Mussoorie, Uttarakhand, India	30.455840000000023	78.07337000000007
Olympisches Dorf, Elstal, Wustermark, Brandenburg, Germany	52.53564362547092	13.00337425953329
Bodenschneid, Bavaria, Germany	47.6811904648442	11.842099373045283
Raywood, Texas, USA	30.041720000000055	-94.67028999999997
Biograph/Griffith Movie Ranch, San Fernando, California, USA	34.281264124518096	-118.44798175094716
Shotton Colliery, County Durham, England, UK	54.75980000000004	-1.3941999999999553
614 N. 35th Street, Philadelphia, Pennsylvania, USA	39.96430105744709	-75.19314569444269
Talisman Studios, Florida, USA	28.48222000000004	-82.17257999999998
Kit Carson Correctional Facility, Burlington, Colorado, USA	39.30166000000003	-102.27199999999999
Riverside Dr & Ledge Ave, North Hollywood, Los Angeles, California, USA	NaN	NaN
Los Tapatios - 1141 Old Bayshore Highway, San Jose, California, USA	37.36367053203563	-121.8950225834947
Longford, Victoria, Australia	NaN	NaN
Lielahti, Tampere, Finland	61.517750000000035	23.667860000000076
Vaudreuil, Qubec, Canada	46.855870649142695	-71.23827617987835
Dragon International Studios, Wales, UK	35.83122000000003	-90.70196996999269
Dundas Square, Toronto, Ontario, Canada	43.655770000000075	-79.38034999999996
Kachora Bazar, Agra, Uttar Pradesh, India	26.7903493544916	78.98970614506004
Cardston, Alberta, Canada	49.198480000000075	-113.30176999999998
254 Broome Street, Lower East Side, Manhattan, New York City, New York, USA	40.71807174937964	-73.98999476741304
Afula, Israel	32.619440000000054	35.310200000000066
Mausoleum of the Golden West, Inglewood Park Cemetery - 720 Florence Avenue, Inglewood, California, USA	NaN	NaN
Zenica, Bosnia-Herzegovina	44.197730000000035	17.912310000000048
Viipurin mlk., Finland	60.156480000000045	23.079320000000052
Logan Airport - 1 Harborside Drive, East Boston, Massachusetts, USA	42.37193995311883	-71.02839997865021
E Dewey Ave, Sapulpa, Oklahoma, USA	35.99902893694211	-96.09990648271994
Braselton, Georgia, USA	34.10892000000007	-83.76275999999996
Bad Berleburg, North Rhine-Westphalia, Germany	51.04834000000005	8.390570000000025
Roseville, Minnesota, USA	45.02173000000005	-93.14926999999994
Cruz del Eje, Crdoba, Argentina	-31.48559992921895	-64.2109217668109
Ostia, Rome, Lazio, Italy	41.75968000000006	12.300710000000038
School of Architecture, Marne-la-Valle, France	48.855890000000045	2.623450000000048
Saint-Gingolph, Valais, Switzerland	46.39307000000008	6.804890000000057
Montclair State College - 1 Normal Avenue, Montclair, New Jersey, USA	40.859390000000076	-74.19965999999994
Dubrivka, Ukraine	49.88360000000006	28.157650000000046
Linden, Johannesburg, Gauteng, South Africa	-26.13513999999998	27.992490000000032
Surry Hills, NSW, Australia	-33.87905999999998	151.21298000000002
Green Turtle Inn, Islamorada, Florida, USA	24.91254999220978	-80.64161994113925
2000 E 7th St, Los Angeles, California, USA	34.034566528420754	-118.23209002553523
Marina Del Rey, California, USA	33.985280000000046	-118.45241999999996
Storey County, Nevada, USA	39.44640071200007	-119.52937020499996
Vancouver. British Columbia, Canada	49.260380000000055	-123.11335999999994
Golden Ears Provincial Park, British Columbia, Canada	49.24378000000007	-122.54497999999995
Hoboken, New Jersey, USA	40.737160000000074	-74.03096999999997
Granville Towers - 1424 North Crescent Heights Boulevard, Hollywood, Los Angeles, California, USA	34.09688719900167	-118.36594687200676
Cathedral Spires, Yosemite National Park, California, USA	37.748950000000036	-119.58848999999998
Plaza del Humor, A Corua, Galicia, Spain	43.371432092560745	-8.397773999999998
Cuba Street, Wellington Central Business District, Wellington, New Zealand	-41.29385661769569	174.77538415874565
Administration Building, Malibu Creek State Park - 1925 Las Virgenes Road, Calabasas, California, USA	34.09982000000008	-118.71112999999997
G18, Helsinki, Finland	60.17116000000004	24.932650000000024
Carretera 687 Vega Baja, Puerto Rico	18.46884744649034	-66.4287862649919
Pyrenees Mountains, Hautes-Pyrnes, France	46.55941704400004	2.5505399530000545
Tiger Balm Gardens, Singapore City, Singapore	1.295220000000029	103.85877000000005
Pima Community College, Tucson, Arizona, USA	32.225010000000054	-111.01453999999995
San Donato Milanese, Milan, Lombardia, Italy	45.42318000000006	9.263190000000066
Ionia, Missouri, USA	38.50134000000003	-93.32338999999996
Restart Studios, Belm, Lisbon, Portugal	38.70102000000003	-9.192569999999932
Seeschloss Orth, Gmunden, Upper Austria, Austria	47.91050000000007	13.790430000000072
Nivala, Finland	63.92961000000008	24.959870000000024
Teltow-Seehof, Teltow, Brandenburg, Germany	52.39521000000008	13.281860000000052
Chardon, Ohio, USA	41.583390000000065	-81.20287999999994
Palcio da Regaleira, Sintra, Lisbon, Portugal	38.795800019475735	-9.395520048906036
Blessington Lakes, County Wicklow, Ireland	53.17252000000008	-6.530249999999967
Wieloglowy, Malopolskie, Poland	49.67106000000007	20.686000000000035
11 Magnolia Ave., St. Augustine, Florida, USA	29.906748754371293	-81.3163082690874
Watchung, New Jersey, USA	40.636420000000044	-74.45272999999997
Gainsborough Studios, 222 Central Park South, Manhattan, New York City, New York, USA	40.76739779681474	-73.98032346976157
Murdash, Kyrgyzstan	40.15628000000004	73.46206000000006
South Georgia Island, Antarctica	-54.10527999999994	-37.00277999999997
Wilson College, Chowpatty, Mumbai, Maharashtra, India	18.95613000000003	72.81086000000005
Sierra Madre Occidental, Sonora, Mexico	27.92904899813303	-110.87380506814465
US-33, Nelsonville, Ohio, USA	NaN	NaN
625 Haven Street, Evanston, Illinois, USA	42.05733050432783	-87.6783915
Abtei St. Hildegard, Eibingen, Rdesheim am Rhein, Hessen, Germany	49.97909000000004	7.923090000000059
Bury St Edmunds, Suffolk, England, UK	52.24992000000003	0.7092900000000668
Town Hall, Thame, Oxfordshire, England, UK	51.748560000000055	-0.9799899999999298
Fultonville, New York, USA	42.94801000000007	-74.37025999999997
Bada Bagh, Jaisalmer, Rajasthan, India	26.991660000000024	70.85937000000007
Lindt Chocolat Cafe, Martin Place, Sydney, New South Wales, Australia	-33.86782006607406	151.2111899300308
Hollywood Bowl Overlook - 7036 Mulholland Drive, Hollywood, Los Angeles, California, USA	34.117486972939545	-118.34277034437143
Albatross Hotel Restaurant - 21202 West Pacific Coast Highway, Malibu, California, USA	34.03652000000005	-118.68795999999998
901 North Maclay Avenue, San Fernando, California, USA	34.29263359368678	-118.42860063962134
Allendale Eats!, 101 West Allendale Avenue, Allendale, New Jersey, USA	41.03067993003084	-74.12952008050078
Htel Eden Magenta, 52 bis rue des Vinaigriers, Paris 10, Paris, France	48.873215503750906	2.360070869553935
Los Angeles Zoo & Botanical Gardens, Griffith Park - 5333 Zoo Dr, Los Angeles, California, USA	NaN	NaN
Nikita, Crimea, Ukraine	44.51654000000008	34.23846000000003
Freiburg im Breisgau, Baden-Wrttemberg, Germany	47.99853000000007	7.849650000000054
Pantanal, Brazil	-27.60815999999994	-48.52058999999997
Fort Benton, Montana, USA	47.818970000000036	-110.67437999999999
National Studios, Pagewood, New South Wales, Australia	-33.940249999999935	151.21609000000012
Shelter Island, Long Island, New York, USA	41.06212000000005	-72.32512999999994
15 Park Street, Windsor, Berkshire, England, UK	51.480873397256886	-0.6055086356461737
South Point, Ohio, USA	38.421170000000075	-82.57555999999994
3400 Brookridge Road, Duarte, California, USA	34.152640597813075	-117.9340827588147
6012 Vineland Ave., North Hollywood, California, USA	34.179624000000004	-118.37026674490757
Bowden House, Seaford, Sussex ,England, UK	50.78593529082455	0.10500225463887747
Mal Strana, Prague, Czech Republic	50.06876261746174	14.448903528622896
Shamoly, Gazipur, Bangladesh	23.99709000000007	90.41771000000006
Nishi Building, Canberra, Australian Capital Territory, Australia	-35.284940999999996	149.1225435
Chteau de Falaise, Falaise, Calvados, France	48.89262000000008	-0.20274999999998045
Knigstein Fortress, Knigstein, Saxony, Germany	51.05211482500005	13.348267881000027
Collge Henri Sellier - 9 Boulevard Aristide Briand, Suresnes, Hauts-de-Seine, France	48.86273993060776	2.2047899816781844
Paringa, South Australia, Australia	-34.18040999999994	140.78312000000005
Quorn, South Australia, Australia	-32.34435999999994	138.04339000000004
Sorbolongo, Pesaro, Marche, Italy	43.90551899999999	12.926337749999998
Four Seasons Resort The Biltmore Santa Barbara - 1260 Channel Drive, Santa Barbara, California, USA	34.41706007054619	-119.64197994892953
Scottish Rite Dormitory - 210 W. 27th Street, Austin, Texas, USA	30.29187745888329	-97.73938889009749
Diana Downtown - 141 Wyndham St N, Guelph, Ontario, Canada	43.54743002943039	-80.25054994113924
Nafplion, Greece	37.56828000000007	22.80528000000004
10 Rue de Dunkerque, Castelnaudary, Aude, France	43.317270773134254	1.9552355107368216
Alto Jos do Pinho, Recife, Brazil	-8.008750557099617	-34.95427289523924
Children's Theatre - 2400 3rd Avenue S, Minneapolis, Minnesota, USA	44.958210025535266	-93.27277003231494
Sllerd Kirke, Sllerdvej 13, Holte, Sjlland, Denmark	55.813000000000045	11.602750000000071
Rio Vista Elementary School, 4261 Satsuma Ave., Los Angeles, California, USA	34.14707000000004	-118.36738006001453
Wandin Victoria	-37.799999999999955	145.45000000000005
Teatro Lirico di Cagliari, Cagliari, Sardinia, Italy	39.22594000000004	9.123650000000055
Neuglobsow, Stechlin, Brandenburg, Germany	53.14778000000007	13.053330000000074
Longstreet Inn, Casino & RV Resort - 4400 Nevada 373, Amargosa Valley, Nevada, USA	36.41262000000006	-116.42226999999997
St. George's School - 372 Purgatory Road, Middletown, Rhode Island, USA	41.48859005683968	-71.27404999163274
King Street, Kingston, Jamaica	17.967276751992742	-76.79308943163701
Yetminster, Dorset, England, UK	50.89482000000004	-2.581429999999955
Parminter's Butchers, Station Road, Haddenham, Buckinghamshire, England, UK	51.76675868430646	-0.9360559170527897
Quedlinburg, Saxony-Anhalt, Germany	51.91667000000007	11.500000000000057
Blackhawk, California, USA	37.800290000000075	-121.91781999999995
Marathon, Texas, USA	30.206650000000025	-103.24646999999999
Harpur's Downs, St Breward, Cornwall, England, UK	50.566670000000045	-4.683329999999955
Duncan, Oklahoma, USA	34.50186000000008	-97.95753999999994
Embassies of Cinema Studios, Los Angeles, California, USA	34.05349000000007	-118.24531999999999
Highland Drive & W Desert Inn & Western Ave, Las Vegas, Nevada, USA	36.127764	-115.178814
Spanische Hofreitschule, Vienna, Austria	48.202540000000056	16.36880000000002
Cape Town Film Studios, Cape Town, Western Cape, South Africa	-33.91770999999994	18.42250000000007
Gallegos, New Mexico, USA	35.035330000000044	-106.15613999999994
Dave's Pizza, Homewood, Alabama, USA	33.479579981101274	-86.79077002553521
A. Warner Butchers, Chalfont St. Giles high street, Buckinghamshire, England, UK	51.63132000000007	-0.5706299999999374
Gotland, Gotlands ln, Sweden	57.50000000000006	18.550000000000068
Warland Reserve, Victor Harbour, South Australia, Australia	-35.55657999999994	138.62485000000004
Engholms Castle, Mrk, Stockholms ln, Sweden	64.71258554700006	17.260487956000077
Michelada Coco Loco, Los Angeles, California, USA	33.83337997446483	-118.07205007718255
Rue Godot-de-Mauroy, Paris 75009	48.871358697688215	2.327084747209236
The Viaduct, Fermoy, County Cork, Ireland	52.13780000000003	-8.275409999999965
Rose, Montenegro	42.42634000000004	18.554980000000057
Vor Frelser Kirke, Christianshavn, Copenhagen, Denmark	55.67266008050089	12.593780077182654
Boundary, 2-4 Boundary Street, Shoreditch, London, England, UK	51.5246973713821	-0.0769326583745611
Topol nad Medvodami, Slovenia	46.119554805000064	14.821760495000035
The Butts, Brentford, Middlesex, England, UK	51.484456810735324	-0.30939880454476026
Strandbad Wannsee, Zehlendorf, Berlin, Germany	52.43797002221705	13.179679977783028
Codigoro, Ferrara, Ferrara, Emilia-Romagna, Italy	44.835108917266304	12.071181956116428
7038 Sunset Boulevard, Los Angeles, California, USA	34.09792750288554	-118.3427120111085
Esparto, California, USA	38.69368000000003	-122.01651999999996
The Green Elephant, Dallas, Texas, USA	32.75390099858089	-96.84192430487126
Abbatoir Wharf, Corradino, Malta	43.117740000000026	13.471780000000024
Morro D'Oro, Teramo, Abruzzo, Italy	42.664960000000065	13.91787000000005
325 West End Avenue, Manhattan, New York City, New York, USA	40.78196410020765	-73.98294011604801
Hall, Technical College, Doncaster, Yorkshire West Riding, England, UK	53.91667000000007	-1.9166699999999537
Jerusalem Church, Bruges, West-Vlaanderen, Belgium	51.212755305446606	3.231964671532345
Mardalsfossen, Norway	62.46667000000008	8.100000000000023
British Film Institute Southbank London, England, UK	51.50642000000005	-0.1272099999999341
Mersea Island, England, UK	51.783330000000035	0.9500000000000455
Yvonand, Switzerland	46.79973000000007	6.745010000000036
Ideal Studios, Hudson Heights, New York City, New York, USA	40.722582545197056	-74.00819082408428
Qualicum Beach, British Columbia, Canada	49.34773000000007	-124.44433999999995
Lockeford, California, USA	38.16309000000007	-121.15053999999998
Midsland, Terschelling, Friesland, Netherlands	53.38273000000004	5.284250000000043
Rancho la Presa, Mexico City, Distrito Federal, Mexico	19.502981999999996	-99.20892599999999
Centre de Tri, 44 Rue Henri Gautier, Bobigny, Seine-Saint-Denis, France	48.904553807663426	2.42785801540767
Cafe Med - 8615 Sunset Blvd, West Hollywood, California, USA	34.09243618391687	-118.37956506321663
Strandvejen, sterbro, Copenhagen, Denmark	55.724697769997	12.577094759375953
59th Street Bridge, New York City, New York, USA	40.693780794340235	-73.89525196206415
City Kart Racing Circuit Makati, Carmona, Makati City, Metro Manila, Philippies	14.575490000000059	121.01853000000006
Bridgehampton, Long Island, New York, USA	40.636069930607746	-73.64030996609755
Faskally Wayside Centre, Pitlochry, Perthshire, Scotland, UK	56.71986000000004	-3.7668299999999704
Itakuracho, Niigata, Japan	37.91619695900005	139.0363514400001
Palvelutalo, Pori, Finland	61.485960000000034	21.795370000000048
5400 Cazadero Hwy, Cazadero, California, USA	38.5246580491372	-123.08891612937916
Lindale, Texas, USA	32.51651000000004	-95.40986999999996
Knings-Platz, Mnchen, Germany	48.13797101807814	11.580135139771903
Brunel Estate, London, England, UK	51.519351709055954	-0.19647370905593028
South Bay House of Correction - 20 Bradston Street, Boston, Massachusetts, USA	42.332755798228376	-71.0713352714524
Diplomatstaden, stermalm, Stockholm, Stockholms ln, Sweden	59.349679919499266	18.081110026112185
Santa Comba Do, Portugal	40.671380000000056	-8.153769999999952
N Toluca & 1st St, Los Angeles, California, USA	34.061346	-118.258731
Gooseberry Mesa, Utah, USA	37.14165000000003	-113.16743999999994
Ft. Calhoun, Nebraska, USA	41.456720000000075	-96.02634999999998
Cruise The View, Florence, South Carolina, USA	34.19366000000008	-79.76829999999995
Grand Cayman, Cayman Islands	19.31842715700003	-81.24322289399998
Onchan, Isle of Man	54.17405000000008	-4.455929999999967
Greenfield Lake, Wilmington, North Carolina, USA	34.21711888015112	-77.93762671217222
Amir's Restaurant, New York City, New York, USA	NaN	NaN
Santa Fe Institute - 1399 Hyde Park Road, Santa Fe, New Mexico, USA	35.69980163587043	-105.90770269975147
Salt Lake City International Airport, 776 N Terminal Drive, Salt Lake City, Utah, USA	40.784880000000044	-111.98043999999999
Zook's Mill Covered Bridge, Pennsylvania, USA	40.725075415273	-75.49150971997085
Ohm Nightclub - 6801 Hollywood Blvd., 4th Level, Hollywood, Los Angeles, California, USA	34.101577458883284	-118.33912057386436
News Seafood IIC - 1731 N Spring St, Los Angeles, California, USA	34.07011333063014	-118.22599782396715
On board the "Jeanne d'Arc", Brest, Finistre, France	48.39532260111424	-4.466219445912015
Bari Studio, Dhaka, Bangladesh	23.776830000000075	90.42668000000003
Medienzentrum, Vienna, Austria	48.202540000000056	16.36880000000002
Perico, Matanzas, Cuba	22.771420000000035	-81.02092999999996
The Steamboat Inn, Trent Lock, Lock Lane, Long Eaton, Derbyshire, England, UK	53.132400336000046	-1.6147864469999718
50 Cavill Ave, Surfers Paradise, Queensland, Australia	-28.002051	153.42672600000003
Library Square, Vancouver, British Columbia, Canada	49.28027000000003	-123.11469999999997
A412 Denham Road, Denham, Buckinghamshire, England, UK	51.87660000000005	-0.9050199999999791
Dirker Bank Road, Marsden, West Yorkshire, England, UK	53.605325213631346	-1.9269741552188528
Keighley, West Yorkshire, England, UK	53.86634000000004	-1.9096499999999423
Wejsuny, Poland	53.68523000000005	21.61761000000007
Laguna & Sacramento Streets, Pacific Heights, San Francisco, California, USA	37.790451000000004	-122.42908349999999
Factory Place, Los Angeles, California, USA	34.039134000000004	-118.23631875
Restaurante Mesn Los Ancares, Villafranca del Bierzo, Len, Spain	42.60660000000007	-6.80962999999997
King's Castle Casino, Lake Tahoe, Nevada, USA	39.356482037000035	-116.65543640499999
Woodhouse Cemetery, Woodhouse Lane, Leeds, West Yorkshire, England, UK	53.69121000000007	-1.7763599999999542
Jesmond Dene House, Newcastle Upon Tyne, England, UK	54.998590000000036	-1.6041399999999726
Pulse Night Club - 1138 Davie St, Vancouver, British Columbia, Canada	49.2809158999456	-123.13216676666846
Rue d'Amsterdam, Tourcoing, Nord, France	50.71851318496376	3.1337484063339622
Fort Richardson, Alaska, USA	61.254620000000045	-149.68866999999997
Ilza, Mazowieckie, Poland	51.16335000000004	21.238690000000076
Alter Wartesaal, Cologne, North Rhine-Westphalia, Germany	50.93790264219902	6.9595877469812955
Grove Park Inn - 290 Macon Avenue, Asheville, North Carolina, USA	35.61919250646168	-82.54137565410537
Visalia, California, USA	36.33377000000007	-119.29290999999995
Tequisquipn, Quertaro, Mexico	20.57857780496566	-100.25629944854744
Takamiya, Hiroshima, Japan	34.763967896000054	132.70863342100006
Val's Restaurant, 10130 Riverside Drive, Toluca Lake, California, USA	34.15217852842076	-118.35189352553522
Catharpin, Virginia, USA	38.853950000000054	-77.56887999999998
Horn Kaln, Czech Republic	49.738854038000056	15.331770280000057
George Bush Intercontinental Airport, Houston, Texas, USA	29.97859002697197	-95.34240005784642
Mytholmes Tunnel, near Haworth, West Yorkshire, England, UK	53.836101	-1.955126250000001
Tsim Sha Tsui Ferry Pier, Tsim Sha Tsui, Kowloon, Hong Kong, China	22.300000000000068	114.16667000000007
676 Avenue of the Americas, New York City, New York, USA	NaN	NaN
Savudrija, Croatia	45.50003000000004	13.505520000000047
KLRU Studio 6A, Austin, Texas, USA	30.8467457824455	-95.39712416383665
Bulla, Victoria, Australia	-37.63778999999994	144.80596000000003
Carribean Club, Key Largo, Florida, USA	25.094938709090062	-80.43636598702653
Concord, Georgia, USA	33.090580000000045	-84.44022999999999
Alibi, Odense, Fyn, Denmark	55.39618000000007	10.390780000000063
San Giovanni Valdarno, Italy	43.56833000000006	11.532800000000066
Rancho El Chato, Puerto Ayora, Ecuador	-0.7395599999999263	-90.32275999999996
Parque Natural Metropolitano, Panama City, Panama	8.985030000000052	-79.54657999999995
Barona Casino and Resort - 1932 Wildcat Canyon Rd, Lakeside, California, USA	32.93340000000006	-116.86936999999995
Cave Creek Canyon, Chiricahua Mountains, Arizona, USA	31.929810000000032	-109.38227999999998
Silver Bay, Minnesota, USA	47.29349000000008	-91.26895999999994
Western Street, Paramount Studios - 5555 Melrose Avenue, Hollywood, Los Angeles, California, USA	34.08354602916837	-118.32179050489285
Hendaye, Pyrnes-Atlantiques, France	43.358490000000074	-1.776079999999979
Seal Island, False Bay, South Africa	-33.83400999999998	26.276550000000043
Albi, Tarn, France	43.92620000000005	2.1483700000000567
Noble Street @ South Brookville Road, Brookville, Kansas, USA	38.77324200000001	-97.873263
Lumiar, Rio de Janeiro, Brazil	-22.348149999999976	-42.323939999999936
Tanana, Alaska, USA	65.17146000000008	-152.07628999999997
Requena de Campos, Palencia, Castilla y Len, Spain	42.308020000000056	-4.343019999999967
Port de Montebello, Paris 5, Paris, France	48.85188000000005	2.349680000000035
Xochicalco, Morelos, Mexico	18.78604000000007	-99.29879999999997
Ramsay Road, South Acton, London, England, UK	51.50189433616028	-0.2678484328258408
355 Greenwich St., New York City, New York, USA	40.7189106880374	-74.01033517164876
Memorial Park, Sudbury, Ontario, Canada	46.490710000000036	-80.99185999999997
Upright Citizens Brigade Theater - 5919 Franklin Ave., Los Angeles, California, USA	34.10530804683651	-118.31875353030598
Keflavk, Reykjanes, Iceland	64.00298000000004	-22.56535999999994
The Standard, West Hollywood, California, USA	34.096169930030854	-118.3711399339259
Meatpacking District, West Street, New York City, New York, USA	40.74065000000007	-74.00679999999994
Panghulo, Malabon City, Metro Manila, Philippines	14.688690000000065	120.95389000000011
Trbabu, Brittany, France	48.37006000000008	-4.7350099999999316
Wallaroo, South Australia, Australia	-33.94055999999995	137.63709000000006
Gerri's Palm Tavern - 446 E. 47th Street, Grand Boulevard, Chicago, Illinois, USA	41.80944450043269	-87.61439291909515
South Acton Estate, Acton, London, England, UK	51.50166300000001	-0.27759600000000095
Moorgate Underground Station, London, England, UK	51.51842000000005	-0.08813999999995303
Mestay Bar, Nzulezo, Ghana	40.425760000000025	-6.145919999999933
Donsol, Sorsogon City, Sorsogon, Philippines	12.97389000000004	123.99333000000001
Beni Street, El TAO Condominio, Santa Cruz, Bolivia	-17.776628177174473	-63.1038276503276
Bagshaw Cavern, Hope Valley, Derbyshire, England, UK	53.348190000000045	-1.7448499999999285
Grosvenor Crescent, Belgrave Square, Belgravia, London, England, UK	51.50162328298369	-0.15301559573758322
Mayagez, Puerto Rico	18.203680000000077	-67.14689999999996
Bom Futuro, Rondnia, Brazil	-9.766669999999976	-66.09999999999997
Ashmore, Illinois, USA	39.53345000000007	-88.02322999999996
Entabeni Nature Reserve, South Africa	-26.006659999999954	27.994000000000028
Rydultowy, Slaskie, Poland	50.07251000000008	18.406540000000064
Jackie Gleason Theater of the Performing Arts - 1700 Washington Avenue, Miami Beach, Florida, USA	25.792340000000024	-80.13203999999996
Lake Moeraki, West Coast, New Zealand	-43.73332999999997	169.2833300000001
500 East Seaside Way, Long Beach, California, USA	33.76563015133873	-118.18630919117518
Chrysler Building, Lexington Avenue, New York City, New York, USA	40.75195995614298	-73.97564994503435
Hutton Hotel - 1808 West End Avenue, Nashville, Tennessee, USA	36.15249000000006	-86.79706999999996
Farnham Royal, Buckinghamshire, England, UK	51.76435004031554	-0.7827366446829288
Park Gate, Glasgow, Scotland, UK	55.86984117709911	-4.2803526044100675
Waterville, Kansas, USA	39.68986000000007	-96.75021999999996
Ormonde Cinema, Greystones, County Wicklow, Ireland	53.14474000000007	-6.062919999999963
High Street, Tring, Hertfordshire, England, UK	51.79328622898731	-0.6639587935514057
Haccourt, Belgique	50.73748000000006	5.668520000000058
Jindalee, Queensland, Brisbane, Australia	-27.53818999999993	152.94254000000012
Black Point, Kahala, Honolulu, O'ahu, Hawaii, USA	21.25596121172934	-157.79203661145294
900 W. Delaware Street & 700 N. Third Avenue, Evansville, Indiana, USA	NaN	NaN
Litchfield, California, USA	40.381800000000055	-120.38478999999995
Virgin Brides, Northumberland Avenue, Charing Cross, London, England, UK	51.506906845507196	-0.1246300023126792
Eglise Saint-Augustin, 8 avenue Csar Caire, Paris 8, Paris, France	48.87623003722068	2.31884007112313
New Mills, Wotton-under-Edge, Gloucestershire, England, UK	51.63353238097597	-2.3829254881719457
Zepp Tokyo - 1-3-11, Aomi, Koto, Tokyo, Japan	35.62594200000001	139.782222
Yoncalla, Oregon, USA	43.599420000000066	-123.28213
9641 Bellefontaine Rd., St. Louis, Missouri, USA	38.741517242684935	-90.22576610710296
Ross Store in Kaneohe, Hawaii, USA	21.42181000000005	-157.80408999999997
Orange Grove Fruit Bowl - 57 Lick Place, San Francisco, California, USA	37.75065198859802	-122.41996146237497
Silverlake Aqueduct, California, USA	34.082730000000026	-118.27306999999996
Plaza de San Ildefonso, Madrid, Spain	40.42435557220231	-3.702070872593971
Steve's Burgers, 2320 W. Victory Blvd Burbank, California, USA	34.184539988314626	-118.3369300510704
Oakland Cemetery, Atlanta, Georgia, USA	33.74729000000008	-84.37513999999999
Herman Flim	49.78757000000007	15.641300000000058
White Cloud, Michigan, USA	43.550020000000075	-85.77161999999998
Solo, Indonesia	-7.5573799999999665	110.82217000000009
A ct d'un monument, colline de Sion, Meurthe-et-Moselle, France	48.43034000000006	6.084200000000067
Henry Jaglom Estate - 609 E. Channel Road, Los Angeles, California, USA	34.0371099955566	-118.51063555196448
Upstairs Circus 1500 Wynkoop St #100	50.73630500000013	4.22073609703574
Garie Beach, Royal National Park, Sydney, New South Wales, Australia	-34.169717282410325	151.05362395678623
6th Street, Manhattan, New York City, New York, USA	NaN	NaN
Chelsea Bridge, Battersea, London, England, UK	51.4842345	-0.1497239999999862
Na Prkope Street, New Town, Prague, Czech Republic	50.08582905834903	14.42604149919336
St Mary Peak, South Australia, Australia	-31.50378999999998	138.5520600000001
Mariovo, Macedonia	41.13333000000006	21.850000000000023
Sandisfield, Massachusetts, USA	42.10770000000008	-73.10788999999994
San Marcos, Sinaloa, Mexico	23.538270000000068	-106.22662999999994
Intu Watford, Watford, Hertfordshire, England, UK	51.65600000000006	-0.39331999999996015
Broad Street, Richmond, Virginia, USA	37.584116538183764	-77.4965133079904
Bruno Ceria Studios, Trieste, Friuli-Venezia Giulia, Italy	45.65077000000008	13.767240000000072
Emelka-Atelier, Geiselgasteig, Bavaria, Germany	48.06270000000006	11.545070000000067
Sambuca di Sicilia, Agrigento, Sicily, Italy	37.64752000000004	13.106370000000027
620 Floerence Ave Los Angeles , CA 90037	33.97462750288554	-118.28453302553523
HJ. Maimunah Restaurant, Singapore	1.3155299888915286	103.89798992671261
Bodie State Historic Park, California, USA	38.20798000000008	-119.01472999999999
Leo's BBQ - 3631 N. Kelley Avenue, Oklahoma City, Oklahoma, USA	35.57985216340391	-97.49597193996934
Corinth, Peloponnese, Greece	37.94068000000004	22.957340000000045
Flateyri, Iceland	66.05108000000007	-23.512399999999957
Seven Sisters, London, England, UK	51.58194000000003	-0.07492999999993799
Bouli, Bara Imambara, Lucknow, Uttar Pradesh, India	26.870750000000044	80.91380000000004
Silverdale, Staffordshire, England, UK	53.01708000000008	-2.269999999999925
Laser Tag of Baton Rouge - 5871 S Sherwood Forest Blvd, Baton Rouge, Louisiana, USA	NaN	NaN
Schlterstrae, Rotherbaum, Hamburg, Germany	53.567478609706335	9.986498800751855
Sinclair Road, Hammersmith, London, England, UK	51.49615000000006	-0.22941999999994778
Hall of Records, Annapolis, Maryland, USA	38.976780000000076	-76.49013999999994
Travelers Rest, South Carolina, USA	34.965400000000045	-82.43737999999996
Marshall Square Theater - 2875 W Cermak Rd, Chicago, Illinois, USA	41.85178278713784	-87.69813124371919
Christ Church Cathedral, New Orleans, Louisiana, USA	29.929890037220716	-90.08807998167812
BBC Lighthouse Building, White City, London, England, UK	51.50642000000005	-0.1272099999999341
Attitude Studios, Luxembourg, Luxembourg	49.609590000000026	6.129690000000039
Donegan Farm, Charlotte, Chittenden County, Vermont, USA	44.31123000000008	-73.24812999999995
Don the Beachcomber - 13534 Bali Way, Marina del Rey, California, USA	33.981400113125005	-118.44339290151765
Oulujrvi, Kajaani, Finland	64.22565000000003	27.72882000000004
Andaman Sea, Thailand	10.000000000000057	95.00000000000006
Poland, New York, USA	42.158840000000055	-79.10134999999997
Burn Brae Mansion - 573 High Road, Glen Spey, New York, USA	41.47677603551855	-74.81386860698645
Vernon Valley Great Gorge Ski Resort, New Jersey, USA	41.23706000000004	-74.48755999999997
Santa Cruz Meyehualco, Mexico City, Distrito Federal, Mexico	19.339630000000056	-99.03961999999996
59 Rue Geoffroy Saint-Hilaire, Paris 5, Paris, France	48.843544096860775	2.3550667446477807
Belasco Theater - 111 West 44th Street, Manhattan, New York City, New York, USA	40.75653001110855	-73.98403993060766
Gerald, Missouri, USA	38.40425000000005	-91.32919999999996
2401 Seaboard Road, Virginia Beach, Virginia, USA	36.75342219623171	-76.03381407337343
Lakeview Terrace, Los Angeles, California, USA	34.238181095367224	-118.63502974273942
Restaurante Taberna Antonio Sanchez, Madrid, Spain	40.41106000000008	-3.704829948929505
Schloss Seulitz, Diesbar-Seulitz, Saxony, Germany	51.05211482500005	13.348267881000027
Academy of Fine Arts, Prague, Czech Republic	50.07913000000008	14.433020000000056
Narrow Neck, New South Wales, Australia	-33.71553608639599	150.2973554827208
Banff, Alberta, Canada	51.17578000000003	-115.57273999999995
Theatre Royal, Portsmouth, Hampshire, England, UK	50.79655000000008	-1.092929999999967
Gozlin, Mazowieckie, Poland	51.8931771167203	21.299832421968944
Sussex Countryside, Sussex, England, UK	50.93731771300003	0.25653057300002047
14400 W. Sunset Blvd., Pacific Palisades, Los Angeles, California, USA	34.047508140689196	-118.51286528844754
Blue Ribbon Grill, Tucker, Georgia, USA	33.84674000000007	-84.25464999999997
Great Bend, Kansas, USA	38.366010000000074	-98.76513999999997
Prinknash Abbey, Gloucestershire, England, UK	51.82265000000007	-2.1701099999999656
Lucoli, L'Aquila, Abruzzo, Italy	42.29090000000008	13.338510000000042
Tan-Zoumaitak, Algeria	28.144113769000057	2.6799659330000623
Downsview Park Studios, 40 Carl Hall Road, Toronto, Ontario, Canada	43.74710712577153	-79.47894015211482
Romanshorn, Kanton Thurgau, Switzerland	47.583330000000046	9.250000000000057
Champs de bl, Auvers-sur-Oise, Val-d'Oise, France	49.070580000000064	2.1717200000000503
Hungary, Germany	48.316670000000045	21.583330000000046
Stellenbosch, South Africa	-33.93134999999995	18.866430000000037
Pilar Hidalgo Lim Street, Malate, Manila, Metro Manila, Philippines	14.572230000000047	120.9968100000001
Viladrau, Girona, Catalonia, Spain	41.84700000000004	2.3917800000000398
Upper Moutere, Nelson, New Zealand	-41.3118962658102	173.11581376912468
Calvary Evangelical Lutheran Church - 107 N Wood Dale Rd, Wood Dale, Illinois, USA	41.957035320520504	-87.978776641041
Utin jkrirykmentti, Valkeala, Kouvola, Finland	60.92366000000004	26.792290000000037
Rande Regueiras, Redondela, Pontevedra, Spain	42.28186000000005	-8.608949999999936
Rue Dieulafoy, Paris 13, Paris, France	48.82364720631456	2.3544808455122817
Gandhi Sagar Dam, Kota, Rajasthan, India	24.58784000000003	75.59928000000008
Harrison, New York, USA	40.97007000000008	-73.71222999999998
AT&T Center - One AT&T Center, San Antonio, Texas, USA	29.426660033325568	-98.4359399394085
Penitentiaire Inrichting Amsterdam locatie Havenstraat, Amsterdam, Noord-Holland, Netherlands	52.349607283875265	4.856501244420214
Silver Bay, Lake George, New York, USA	43.42823000000004	-73.71166999999997
Tien Kong Than, Jalan Bukit Bendera, Air Itam, Penang, Malaysia	5.366975266000054	100.39956442000005
Arrens Marsous, France	42.95644000000004	-0.2150999999999499
Hyatt Valencia - 24500 Town Center Drive, Valencia, California, USA	34.417739943303694	-118.56247004385703
Bembridge, England, UK	50.68962000000005	-1.0879599999999527
7714 Fountain Ave., Los Angeles, California, USA	34.094385546742615	-118.35720085359797
Ballground, Georgia, USA	34.67511766562481	-84.75117754853834
Canadian Forces Base Valcartier, Saint-Gabriel-de-Valcartier, Qubec, Canada	46.94383033944141	-71.47916525231958
Cicada Restaurant, former Rex Il Restorante - 617 Olive St, Los Angeles, California, USA	34.0476500405389	-118.25460004443396
Lihue Airport - 3901 Mokulele Loop, Lihue, Kaua'i, Hawaii, USA	21.97819000000004	-159.35079999999996
Lubiec, Mazowieckie, Poland	52.292320000000075	20.607150000000047
Crystal Cove, New Jersey, USA	40.58594699027754	-74.29071725405103
17 State Street, Financial District, Manhattan, New York City, New York, USA	40.70285347238731	-74.01428142532757
Rue Esquermoise, Lille, Nord, France	50.6381592344813	3.0610018125903515
Hard Rock Cafe, Beverly Center - 8500 Beverly Blvd., Los Angeles, California, USA	34.074470000000076	-118.37655999999998
Black Hawk, Colorado, USA	39.80217000000005	-105.49349999999998
Bannam Pl, San Francisco, California, USA	37.8001215	-122.40780749999999
Skrblacka, stergtland, Sweden	64.71258554700006	17.260487956000077
Viaduc du Garabit, Cantal, France	44.973970000000065	3.171700000000044
Aubiat, Puy-de-Dme, France	45.97831000000008	3.1687400000000707
Decatur Street, New Orleans, Louisiana, USA	29.954337637522062	-90.06498063527336
Caf de la Poste, 243 chausse de Huy, Chaumont-Gistoux, Wallonia, Belgium	50.68383178434993	4.694782771452394
The Embarcadero & Mission St, San Francisco, California, USA	37.79370900000001	-122.39263349999999
Barn, McGrath Ranch, Ventura, California, USA	34.2548955	-119.22097275
Missisippi River, Louisiana, USA	32.87535337838208	-93.98242428507008
Taharaa point of view, Tahiti, French Polynesia	41.26222000000007	-74.41360999999995
Saint-tienne, France	45.827189948929636	1.2627600510704677
Kanan Dume Rd, Malibu, California, USA	34.041827269637466	-118.79720224807203
6 Sierpnia, Ldz, Ldzkie, Poland	51.869117855877946	19.642679037048687
Bled, Slovenia	46.36881000000005	14.113090000000057
Brnehuset, Copenhagen, Denmark	55.67567000000008	12.567560000000071
Tlnlahti, Helsinki, Finland	60.17116000000004	24.932650000000024
Museo de Antropologa, Madrid, Spain	40.439530054965616	-3.7277500693922865
Serra da Capivara e Sete Cidades, Piau, Brazil	-4.0499999999999545	-41.099999999999966
Wind Tunnel, The Historic Quarter, Farnborough Business Park, Farnborough, Hampshire, England, UK	51.284170000000074	-0.7729399999999487
3 Newkree Road, Evanston Park, South Australia, Australia	-34.626447	138.73837050000003
Eurochow Restaurant - 1099 Westwood Boulevard, Westwood, Los Angeles, California, USA	34.06084630595726	-118.44552855677854
Praga Poludnie, Warsaw, Mazowieckie, Poland	52.236330000000066	21.098400000000026
Esles, Cantabria, Spain	43.282610000000034	-3.8038199999999733
Brignoles, Var, France	43.406120000000044	6.065510000000074
75 Avenue Foch, Paris 16, Paris, France	48.87151557285475	2.27898195920133
Foreign Correspondents' Club, 41A Conduit Road, Mid-Levels, Hong Kong Island, Hong Kong	22.281461336488768	114.14426139268417
Hasenbergl, Munich, Bavaria, Germany	48.21320000000003	11.556890000000067
Granville Street Bridge, Vancouver, British Columbia, Canada	49.2574107949392	-123.1388109520393
Beveren, Belgium	51.21325000000007	4.2578300000000695
Merkaz HaCarmel, Haifa, Israel	32.73317000000003	35.04720000000003
Glenfeshie Estate, Kincraig, Highland, Scotland, UK	57.50000000000006	-4.999999999999943
Virginia State Capital, Richmond, Virginia, USA	37.5385899655207	-77.43395000057689
Natolin, Ursynw, Warsaw, Mazowieckie, Poland	52.13916000000006	21.055330000000026
Kawane, Shizuoka, Japan	34.95001592600005	139.13473608300012
Jalpaiguri, West Bengal, India	26.524180000000058	88.71981000000005
Alice in Wonderland, Tokyo, Japan	36.22887922500007	136.17728336800008
Sverepec, Slovakia	49.07933000000003	18.40677000000005
Ladugrdsgrdet, Stockholm, Sweden	59.33361000000008	18.113360000000057
Pyramid Date Gardens, Palm Springs, California, USA	33.852879	-116.53767675
Gustavus, Alaska, USA	58.41264000000007	-135.73298999999997
All Saints Church, Hillesden, Buckinghamshire, England, UK	51.9538468573529	-1.003410295950559
Old Silverton Railway Station, Silverton, New South Wales, Australia	-31.961528866391028	141.45058414845442
Oka beach, Oka, Qubec, Canada	45.46464000000003	-74.04325999999998
Hospital Universitario San Ignacio, Bogot, Colombia	4.630990000000054	-74.06432999999998
Koepelkerk, Amsterdam, Noord-Holland, Netherlands	52.373140000000035	4.893320000000074
Western Costume Company Building - 900 Block S. Broadway, Downtown, Los Angeles, California, USA	34.03707144100209	-118.26117639414404
4606 Lankershim Boulevard, North Hollywood, California, USA	34.15356948017758	-118.36773692431795
Volare, New York City, New York, USA	40.71455000000003	-74.00713999999994
Seaton Carew, County Durham, England, UK	54.65793000000008	-1.186679999999967
Fort Bravo Cinema Studios, Tabernas, Almera, Andaluca, Spain	37.46309521300003	-4.576205551999976
Berwick-Upon-Tweed, England, UK	55.77161000000007	-2.0074899999999616
Buggenhout, Belgium	51.01391000000007	4.201820000000055
Paramos, Portugal	40.97661000000005	-8.630329999999958
Lambert Castle, Paterson, New Jersey, USA	40.899830000000065	-74.17287999999996
St. Paul the Apostle's Church, Kurseong, West Bengal, India	26.879140000000064	88.27831000000003
St. Catherines, Ontario, Canada	43.166810000000055	-79.24957999999998
Church of St Mary & St Michael, Stoke Charity, Hampshire, England, UK	51.15137000000004	-1.3086199999999621
Bertem, Belgium	50.86561000000006	4.629660000000058
Los Angeles Police Department Headquarters - 100 W 1st St, Los Angeles, California, USA	34.05225000000007	-118.24346999999995
Hattheatre Inc. Henrico, Virginia, USA	37.5993600766057	-77.62294003000724
2544 Siebenhaus, Austria	47.93527500000005	16.22850500000004
Red Wing, Minnesota, USA	44.566580000000044	-92.53434999999996
Little Bay, Sydney, New South Wales, Australia	-33.98293999999993	151.2423500000001
Sevenhill, South Australia, Australia	-33.88986999999997	138.62875000000008
Malojapass, Kanton Graubnden, Switzerland	46.396060000000034	9.694860000000062
Pultney Bridge and Weir, Bath, Somerset, UK	40.498590000000036	-74.52248999999995
Ward, Arkansas, USA	35.030020000000036	-91.95100999999994
Bindi, Victoria, Australia	-37.11029999999994	147.81735000000003
Maring, Brazil	-23.42572999999993	-51.93689999999998
Iver Heath, Buckinghamshire, England, UK	51.536560000000065	-0.5206399999999576
Suoyarvi, Karelia, Russia	62.08128000000005	32.35628000000003
3708 Dover St., Glendale, California, USA	34.146330000000034	-118.24863999999997
West 2nd Street, Pomona, California, USA	34.05740038344458	-117.76647356459364
Royal Military Academy, Sandhurst, Berkshire, England, UK	51.340419843406	-0.7812484661127134
Gug skole, Aalborg, Jylland, Denmark	57.00547997056967	9.93049001168548
Riad Catalina - 21, Derb Abdellah Ben Hssaine, Bab Laksour, Marrakech, Morocco	31.63382000000007	-8.00222999999994
Viaduc de Barajol, Cantal, France	45.30306600000001	2.7003223589023655
Ann Arbor Farmers Market, Ann Arbor, Michigan, USA	42.28389005496567	-83.74622004443397
Stiftskirche St. Cyriakus, Gernrode, Saxony-Anhalt, Germany	51.63967000000008	8.512540000000058
Pannier Market - Butchers Row, Barnstaple, Devon, England, UK	51.08052600000001	-4.059339750000003
Lumsden, Saskatchewan, Canada	50.64512000000008	-104.86806999999999
Williamstown Cemetery, Williamstown, Melbourne, Victoria, Australia	-37.85077999999993	144.8773500000001
Grivita Station, Bucharest Metro, Bucharest, Romania	44.44772000000006	26.075410000000034
Muscat, Masqat, Oman	23.615230000000054	58.591260000000034
Morgan County, Indiana, USA	39.48150997500005	-86.44614767399997
Deadhorse, Alaska, USA	70.20118000000008	-148.46302999999997
Camelot, Camden, New South Wales, Australia	-34.037541	150.7062555
Aviation High School - 2025 Manhattan Beach Boulevard, Redondo Beach, California, USA	33.88752587087793	-118.37482374200897
Wolf Run Road, Industry, Pennsylvania, USA	40.651222725194344	-80.43571116846287
Fairfax County Courthouse - 4000 Chain Bridge Road, Fairfax, Virginia, USA	38.84569008050087	-77.30682007386432
Damai Beach, Santubong, Kuching, Sarawak, Malaysia	1.6995809584682395	110.37039555362924
Kaiser Permanente Medical Center/Hospital, Baldwin Park, California, USA	34.064620071123095	-117.98539007775946
Egaa, Sibalom, Antique, Philippines	10.787210000000073	122.02123000000006
San Antonio Palopo, Guatemala	14.691547828000068	-91.11668961799995
Buffalo Bill's Hotel and Casino, Primm Valley Resort, Primm, Nevada, USA	35.61146999379725	-115.3870999871607
Mull of Kintyre, Kintyre, Argyll and Bute, Scotland, UK	56.22909000000004	-5.074549999999931
Beautique Hairdressers - 15 Lister Avenue, Balby, Doncaster, South Yorkshire, England, UK	53.509877937062654	-1.1436683591846404
Bolton Priory, Bolton Abbey, North Yorkshire, England, UK	53.98206000000005	-1.8912299999999505
4555 Sylmar Ave., Los Angeles, California, USA	34.154568335276124	-118.44656617185032
Kiruna, Norrbottens Ln, Swedish Lapland, Sweden	68.00000000000006	25.000000000000057
sperd, Skne ln, Sweden	57.045720000000074	13.681160000000034
Centro Joaqun Roncal, Zaragoza, Aragn, Spain	41.64822000000004	-0.8790899999999624
Centro de Arte Contemporaneo, Quito, Ecuador	-0.1816899999999464	-78.48059999999998
Hospital de Santa Cruz, Lisbon, Portugal	38.72674000000006	-9.23437999999993
Messinia, Greece	37.08431009700007	21.929390968000064
Rue de la Huchette, Paris 5, Paris, France	48.85306213198008	2.3453772478833623
Villa Stresovice, Prague, Czech Republic	50.09504000000004	14.379790000000071
Churchill, Manitoba, Canada	58.76774000000006	-94.16915999999998
Malon, Guinea	9.033330000000035	-10.416669999999954
Kisatchie, Louisiana, USA	31.414150000000063	-93.17370999999997
Dobbiaco, Bolzano, Trentino - Alto Adige, Italy	46.73514000000006	12.224110000000053
Stagnelius High School, Kalmar, Kalmar ln, Sweden	56.667381063920985	16.34658916792137
Lohtaja, Finland	64.02277000000004	23.504350000000045
El Floridita, Old Havana, Havana, Cuba	23.05666892917779	-82.37444788904003
Aruan, Goias, SP	-23.961029999999937	-46.32800999999995
Logan International Airport, Boston, Massachusetts, USA	42.36514000000005	-71.01776999999998
Railway line between Basel SBB and Delmont, Switzerland	47.350610449000044	7.332570072000067
Mason City, Illinois, USA	40.20235000000008	-89.69710999999995
Ciociaria, Lazio, Italy	41.797480076605716	13.221599930607752
Aura, Finland	60.60000000000008	22.566670000000045
510 W 7th St., Los Angeles, California, USA	34.04671774297432	-118.25577918194922
Landgericht Regensburg, Kumpfmhler Strae, Regensburg, Bavaria, Germany	49.01363008165473	12.088459928877004
Thorbeckeplein, Centrum, Amsterdam, Noord-Holland, Netherlands	52.365725999999995	4.8957573303304995
Marple, Stockport, England, UK	53.39560000000006	-2.0698299999999676
Lovango Cay, Central, St. John, U.S. Virgin Islands	18.343420000000037	-64.75527999999997
Pavell Municipal d'Esports, Sabadell, Barcelona, Catalonia, Spain	41.54798000000005	2.114090000000033
Winstar Casino, Oklahoma City, Oklahoma, USA	35.472030000000075	-97.52106999999995
Warner Roadshow Studios, Gold Coast, Queensland, Australia	-27.911336244508053	153.31520146561706
Cody Tunnel, Cody, Wyoming, USA	44.52276599999999	-109.06809968219409
Calle de la Morera, Madrid, Spain	40.697001493327264	-3.9311856935092164
Montvrain, Seine-et-Marne, France	48.87802000000005	2.748100000000022
Muse des Annes 30, Boulogne-Billancourt, France	48.83525000000003	2.240730000000042
Liljevalchs Konsthall, Stockholm, Sweden	59.325939959461195	18.09628999220978
Vidiots, Santa Monica, California, USA	34.01158000000004	-118.49226999999996
Los Jardines de Monforte, Valencia, Comunidad Valenciana, Spain	39.47709000000003	-0.36495999999993955
Pithiviers, Loiret, France	48.17232000000007	2.251480000000072
Brunszvik Castle, Martonvsr, Hungary	47.31671317331647	18.786287533354425
1805-1807 Topanga Canyon Blvd., Topanga, California, USA	34.119866365831676	-118.59195163428298
Omoljica, Serbia	44.77103000000005	20.72789000000006
Grote Markt, Lier, Belgium	51.130785382019766	4.570020456551784
Looks Bar and Grill, Tucson , Arizona, USA	32.34269991690494	-110.96534004400033
Big Mama's & Papa's Pizza, Northridge California, USA	34.221310000000074	-118.5360900227939
Level Crossing, Marshbrook, Shropshire, England, UK	52.504000000000076	-2.823129999999935
Bannack, Montana, USA	45.16755000000006	-113.00850999999994
Calahorra, Logroo, La Rioja, Spain	42.45846152914063	-2.36734373096262
Hillsville, Virginia, USA	36.76941000000005	-80.73875999999996
East Perth, Australia	-31.95542999999998	115.87697000000003
18 South Main Street, Cedar City, Utah, USA	37.676888580904844	-113.06178672387307
99 River Street, Hoboken, New Jersey, USA	40.74306971176374	-74.02703981789921
Quartier de la Goutte d'Or, Paris 18, Paris, France	48.8849826639816	2.3523282977563147
Beebe, Qubec, Canada	45.010890000000074	-72.14408999999995
Broughton Hall, Broughton, Skipton, North Yorkshire, England, UK	53.95477000000005	-2.09254999999996
Greaterville, Arizona, USA	31.78168000000005	-110.74188999999996
Halifax Playhouse, King Cross Street, Halifax, West Yorkshire, England, UK	53.720710000000054	-1.8668299999999363
Rue Clment, Paris 6, Paris, France	48.85247585800628	2.3360875468337685
Clinton Theater, 526 N. Western, Los Angeles, California, USA	34.08062056419561	-118.30909606419561
Colorado Plateau, Colorado, USA	38.99855056200005	-105.54781637299999
Orestiada, Greece	41.50306000000006	26.529720000000054
KTTV Television Station, Los Angeles, California, USA	38.58752700000001	-121.49182125
Poachers Cottage Inn, Ffrith, North Wales, Wales, UK	40.212870000000066	-75.27881999999994
Tecumseth Pines, Ontario, Canada	43.9904205569158	-79.78779101043067
ResortQuest Torian Plum - 1855 Ski Time Square Drive, Steamboat Springs, Colorado, USA	40.46015997937052	-106.8037699922097
Les Cdres, Qubec, Canada	45.30501000000004	-74.05437999999998
Guillotire, Lyon, Rhne, Rhne-Alpes, France	45.75072000000006	4.846480000000042
Longview, Washington, USA	46.14681000000007	-122.95053999999999
Forodhani Ferry Terminal, Sokoine Drive, Dar es Salaam, Tanzania	-6.820709889552069	39.287112017811125
Siyob Dehqon Bozori, Samarkand, Uzbekistan	39.649730000000034	66.96385000000004
1025 Fillmore Street, Philadelphia, Pennsylvania, USA	40.022998270067426	-75.0903882285476
Medicine Hat, Utah, USA	37.06101799696941	-110.77041849951786
Schurenbachhalde, Essen, North Rhine-Westphalia, Germany	51.45183000000003	7.011060000000043
Cerknisko Lake, Slovenia	45.74694000000005	14.370560000000069
Wagah Village, Pakistan	27.405290000000036	67.81067000000007
9 Channel Nine Court, Agincourt, Ontario, Canada	43.78277906685349	-79.25664593418477
Wounded Knee Cemetery, Wounded Knee, South Dakota, USA	43.14916000000005	-102.34780999999998
Hatfield, Massachusetts, USA	42.37364000000008	-72.59981999999997
157 Bridge Street, Las Vegas, New Mexico, USA	35.593121902850775	-105.22549336940969
Missen-Wilhams, Germany	47.598550000000046	10.122120000000052
The Crowbar, Las Vegas, Nevada, USA	36.15801994892963	-115.24378006722789
19841 Hamilton Ave., Torrance, California, USA	33.851229211623554	-118.28609488673715
Playa del Algarrobico, Carboneras, Almera, Andaluca, Spain	37.03379026180655	-1.8783152162385524
Marston Vale, Bedfordshire, England, UK	52.04478257842941	-0.5506269843141278
Parliament Ultra Club, Ottawa, Ontario, Canada	45.424942375119805	-75.69704214044843
Stockholm, archipelago, Sweden	59.333330000000046	18.666670000000067
Three Lynx, Oregon, USA	45.12914000000006	-122.07840999999996
Kilkenny, Co. Kilkenny, Ireland	52.57385067700005	-7.233421993999968
Dunn's River Falls, Ocho Rios, St. Ann, Jamaica	18.417710000000056	-77.13893999999993
Kgalagadi Transfronteir Park, South Africa	-25.766669999999976	20.383330000000058
Long Lane, Southwark, London, England, UK	51.50541000000004	-0.08920999999998003
Qubec, Qubec, Canada	46.812730000000045	-71.21929999999998
Bournemouth, Dorset, England, UK	50.720390000000066	-1.8809199999999464
Glen Moriston, Highland, Scotland, UK	57.16667000000007	-4.666669999999954
Eve & Ranshaw, 1 Market Place, Louth, Lincolnshire, England, UK	53.36705000000006	-0.0040399999999749525
RR Blacker House - 1177 Hillcrest Avenue, Oak Knoll, Pasadena, California, USA	34.127327601131284	-118.13357969302906
Chelukudi Water Falls, Kerala, India	10.037510000000054	77.15205000000003
Serpong, Banten, Indonesia	-6.311369999999954	106.68077000000005
Boulder, Utah, USA	37.90784000000008	-111.42426999999998
St. John the Baptist Catholic School - 2340 Omilo Lane, Honolulu, Hawaii, USA	21.33769006275592	-157.88150993003075
Chteau de La Hulpe - 111 Chausse de Bruxelles, La Hulpe, Wallonia, Belgium	50.730910063909775	4.450990022070005
The Good Nite bar, North Holywood, California, USA	34.16982000000007	-118.37898999999999
Draper Laboratory - 68 Albany Street, Cambridge, Massachusetts, USA	42.36135770578234	-71.09477153023842
Digital Film Academy, Manhattan, New York, USA	40.865068790721345	-73.92419944741766
Ironstone Vineyards, 1894 6 Mile Road, Murphys, California, USA	38.12068000000005	-120.46931999999998
Port of Manila, Manila, Metro Manila, Philippines	14.58865000000003	120.98453000000006
Gare de Lyon, Paris 12, Paris, France	48.84120000000007	2.3876000000000204
The Loretto, 387 Brunswick Avenue, Toronto, Ontario, Canada	43.66890600305841	-79.40857005173427
Colonia Dubln and Colonia Juarez, Chihuahua, Mexico	31.732210000000066	-106.49738999999994
Voergaard Slot, Dronninglund, Jylland, Denmark	57.242529974464844	10.335669999423143
Bayou Teche, Louisiana, USA	29.721600000000024	-91.29926999999998
Windsor 1-02, Windsor Building, Royal Holloway College, Egham Hill, Egham, Surrey, England, UK	NaN	NaN
Gare Saint-Charles, Marseille, Bouches-du-Rhne, France	43.304170000000056	5.387960000000021
Harold Henry Park - 9th & Windsor, Los Angeles, California, USA	34.057600000000036	-118.32637999999997
Merry Hill Shopping Centre, Dudley, West Midlands, England, UK	52.48132003116119	-2.113499932051797
Girifalco, Italy	38.82766000000004	16.429140000000075
Kmmenniemi, Finland	61.62847000000005	23.839450000000056
Yaxha, Maya ruins, Guatemala	17.083330000000046	-89.41666999999995
431 Crocker St, Los Angeles, California, USA	34.04416414989312	-118.24221417946771
Toy Safari - 1410 Park Street, Alameda, California, USA	37.76450995224784	-122.24254995556596
Rogla, Slovenia	46.45388000000003	15.335320000000024
Izu Peninsula, Shizuoka, Japan	34.832831706000036	138.7960899090001
St. Johannis-Kirche, Gttingen, Lower Saxony, Germany	51.60102002553526	9.858150062178971
Schwanthalerhh, Munich, Bavaria, Germany	48.130180063332816	11.545010067227983
131 Avenue de Paris, 94800 Villejuif	48.80121469747247	2.3652464614230504
Sierakowskiego, Praga Plnoc, Warsaw, Mazowieckie, Poland	52.25132226617466	21.030421623701415
Hovs, Gotenburg, Vstra Gtalands ln, Sweden	57.70067000000006	11.96822000000003
El Cholo,1121 S Western, Los Angeles, California, USA	34.05019000000004	-118.30908006275585
Honor Oak Park, Dartford, Kent, England, UK	51.455321999999995	0.17937000000000522
Pretoria Academic Hospital - Dr Savage Road, Pretoria, South Africa	-25.734959999999944	28.199130000000025
Lieu-dit des Buttes Noires, Saint Hilarion, Yvelines, France	48.62080000000003	1.7333700000000363
Priene, Turkey	37.659910000000025	27.29800000000006
Caf La Mthode, 2 rue Descartes, Paris 5, Paris, France	48.857210000000066	2.341440000000034
Codelco - Paseo Hurfanos 1270, Santiago, Chile	-33.44006013213955	-70.6544631511877
Phillips County, Arkansas, USA	34.43065817400003	-90.85304476799996
Castillo de Manzanares El Real, Madrid, Spain	40.72716031234239	-3.8614174353185136
Leonard, Texas, USA	33.37965000000003	-96.24552999999997
Pelican Rapids, Manitoba, Canada	52.745160000000055	-100.69415999999995
Wemmel, Belgium	50.90671000000003	4.306990000000042
Galata Tower, Istanbul, Turkey	41.02560006939238	28.974110036643804
Everd, Skne ln, Sweden	55.89917000000003	14.088370000000054
Rgion Prevence-Alpes-Cote D'Azur, France	44.00000000000006	6.000000000000057
Vaslui, Romania	46.63851000000005	27.733070000000055
The Swan pub, Lower Tockington Road, Tockington, Gloucestershire, England, UK	51.77991413900003	-2.182278806999932
Marjorie Barrick Museum, Las Vegas, Nevada, USA	36.10732006015792	-115.1413600561194
The Romsey Community School, Romsey, Hampshire, England, UK	50.992440000000045	-1.4930599999999572
Budapest University of Technology and Economics - Budafoki street 6-8, Budapest, Hungary	47.4796426588955	19.05383057620164
Hotel Hamdorff, Laren, The Netherlands	52.256339951670924	5.225199984419512
Eastern, Pennsylvania, USA	40.319720000000075	-77.16524999999996
Norrbottens ln, Sweden	66.95099160000007	20.10283411200004
Andrews Air Force Base, Camp Springs, Maryland, USA	38.81331002611222	-76.89502004616475
Battery Spencer - Conzelman Rd, Sausalito, California, USA	37.82895000000008	-122.48228999999998
Collinsville, Alabama, USA	34.26445000000007	-85.86279999999994
Raja-Jooseppi, Inari, Finland	68.47128000000004	28.321890000000053
Olyphant, Pennsylvania, USA	41.466950000000054	-75.60377999999997
Fundao Rockefeller, Manguinhos, Rio de Janeiro, Rio de Janeiro, Brazil	-22.875089999999943	-43.24344999999994
Museo Storico Alfa Romeo, Arese, Milano, Italy	45.55705000000006	9.049660000000074
Habu Temple, Luxor, Egypt	25.703080000000057	32.643680000000074
Valle del Titar, vila, Castilla y Len, Spain	40.649547553374546	-4.701212098443436
Customs House, South Shields, Tyne & Wear, England, UK	54.99530000000004	-1.4409899999999425
Ontario Film Review Board - OFRB, 1075 Millwood Road, Leaside, Toronto, Ontario, Canada	43.702247908333376	-79.35940256113975
Tessinparken, Grdet, Stockholm, Stockholms ln, Sweden	59.341810000000066	18.094570000000033
Ryasan, Russia	54.62984000000006	39.74301000000003
Mhlenwarf, Weener, Lower Saxony, Germany	53.18074800219693	7.306412743649813
Arros, Pyrnes-Atlantiques, France	43.23517000000004	-1.072309999999959
James J. Walker Park, Manhattan, New York City, New York, USA	40.72950000000003	-74.00664999999998
Ripley Gardens, London, England, UK	51.468552	-0.26060175000000596
Four Seasons Hotel - 75 14th St NE, Atlanta, Georgia, USA	33.78660553895234	-84.38535143060768
Ral Alcazar, Seville, Spain	37.384480026689126	-5.992279988314535
Djakarta, Indonesia	-6.214619999999968	106.84513000000004
Stangass, Germany	47.63377000000003	12.978940000000023
Largo de Fonte Seca, Matosinhos, Norte, Portugal	41.187246797370534	-8.699959384788363
Los Cerrillos, New Mexico, USA	35.43751000000003	-106.12658999999996
Fort Wayne, Michigan, USA	42.30072000000007	-83.09838999999994
Afrikahaus, Altstadt, Hamburg-Mitte, Hamburg, Germany	53.547420043857116	10.027029956142952
Ecser, Hungary	47.44467000000003	19.31779000000006
Goreville, Illinois, USA	37.55560000000003	-88.97273999999999
The Chefs' House Restaurant, Toronto, Ontario, Canada	43.64614004385713	-79.44893992281737
Centrum Center - 50 Foster Street, Worcester, Massachusetts, USA	42.264368984245614	-71.79913415220173
White Horse pub, Broad Street, Oxford, Oxfordshire, England, UK	51.75465000000003	-1.2550599999999577
Beslan, North Ossetia, Russia	43.19563000000005	44.54738000000003
Iso-Syte, Finland	64.52251280100006	26.158834376000073
