location	lat	long
Raywood, South Australia, Australia	-30.10641604799997	135.78918508300012
294 Preston Road, Harrow, Middlesex, England, UK	51.573351098107864	-0.29440930184878583
Red Castle Games, Portland, Oregon, USA	45.511790000000076	-122.67562999999996
Lakehurst, New Jersey, USA	40.012410000000045	-74.30967999999996
Aloha Stadium - 99-500 Salt Lake Boulevard, Honolulu, O'ahu, Hawaii, USA	21.37089008107776	-157.92883000952102
Loro Ciuffenna, Italy	43.588100000000054	11.627680000000055
All Saints Church, Fulham, London, England, UK	51.46916622043506	-0.21090782300592806
Brooklyn Bridge, New York City, New York, USA	40.70765000000006	-73.99890999999997
Kelwood, Manitoba, Canada	50.624870000000044	-99.46165999999994
Limon, Costa Rica	9.990950000000055	-83.02907999999996
Flossenbrg, Bayern, Germany	49.73586000000006	12.348570000000052
Burlington Road, Chiswick, London, England, UK	51.4911412855447	-0.2724757952957393
Farmoor Reservoir, Oxfordshire, UK	51.76026000000007	-1.3476099999999747
Het Nutshuis, Den Haag, Zuid-Holland, Netherlands	52.042973884707514	4.255672076566102
Santa Monica Bay, California, USA	33.935010000000034	-118.46673999999996
Lutizh, Ukraine	51.90479000000005	31.426130000000057
Dassen Island, South Africa	-33.42458999999997	18.08755000000002
Stanage Park, Ludlow, Shropshire, England, UK	52.36392600000001	-2.6875935000000024
North Bergen, New Jersey, USA	40.79301000000004	-74.02037999999999
Grunern, Staufen im Breisgau, Baden-Wrttemberg, Germany	47.87163000000004	7.7218500000000745
Friars Club - 107 West 45th Street, Manhattan, New York City, New York, USA	40.75704027200065	-73.9832711179526
Camaret-sur-Mer, Finistre, France	48.27568000000008	-4.597629999999981
Oceanport, New Jersey, USA	40.321930000000066	-74.01619999999997
Terra Mtica, Benidorm, Alicante, Comunidad Valenciana, Spain	38.55791003289192	-0.156100016300754
30 Litchfield Crescent, Halifax, Nova Scotia, Canada	44.621973973916525	-63.59589121345705
Canadian Embassy - 35 Avenue Montaigne, Paris 8, Paris, France	48.86677211157595	2.3055137710197013
High Barnet, London, England, UK	51.47375385952935	-0.2494863963537252
McKinley Ave & Holly Ct, Venice, Los Angeles, California, USA	33.987195	-118.46262375
Le Chaffaut-Saint-Jurson, Alpes-de-Haute-Provence, France	44.03834000000006	6.150330000000054
Gonalston, Nottingham, England, UK	53.02009000000004	-0.9891599999999698
Svaneholm Castle, Skurup, Skne, Sweden	55.50048000000004	13.478300000000047
City Hall - 300 S. Main Street, Winston-Salem, North Carolina, USA	36.09195872078599	-80.24291712741632
Neubau, Vienna, Austria	48.20104977881697	16.34913162211831
Rocky Boy Indian Reservation, Montana, USA	45.379439525000066	-107.75104293599998
Gestt, Altefeld, Herleshausen, Hessen, Germany	51.05248000000006	10.119110000000035
Oldwick, New Jersey, USA	40.66610000000003	-74.74903999999998
Lrrach, Baden-Wrttemberg, Germany	47.61281000000008	7.664200000000051
Celkovice, Czech Republic	49.40949000000006	14.65787000000006
Slickrock Cafe - 5 N. Main Street, Moab, Utah, USA	38.57358000000005	-109.55081007718258
600 Anderson Street, Braddock, Pennsylvania, USA	40.40240293353133	-79.86142921739035
Rosslyn Chapel, Midlothian, Scotland, UK	55.855860000000064	-3.1612899999999513
Httenthaler Feld, Tittmoning, Bavaria, Germany	48.05866976047595	12.756415554553877
Goma, Democratic Republic Of Congo	-1.6791699999999423	29.222780000000057
Robert-Schumann-Haus, Zwickau, Saxony, Germany	50.71747994892963	12.496040073287494
San Sebastian, Puerto Rico	18.336830000000077	-66.99013999999994
Paris 13, Paris, France	48.83220000000006	2.3561000000000263
Bombo Headland Quarry, Princes Highway, Bombo, New South Wales, Australia	-34.694999675698384	150.84325608721431
Newport Workshops, Newport, Melbourne, Victoria, Australia	-37.84258999999997	144.8819400000001
Bayfield, Colorado, USA	37.22873000000004	-107.60046999999997
Alpine Canyon, Wyoming, USA	41.23146889182505	-110.98393556977392
Mersey Tunnel, Liverpool, Merseyside, England, UK	53.404450000000054	-2.9942099999999527
Heath High Schoo, West Paducah, Kentucky, USA	37.07247000000007	-88.76065999999997
Lasserre Building, University of British Columbia, Robson Square Campus - 800 Robson Street, Vancouver, British Columbia, Canada	49.35000000000008	-117.88698
Paramount Theatre - 713 Congress, Austin, Texas, USA	30.269379970569698	-97.74229998441943
L'Hospitalet, Barcelona, Spain	41.49158261460836	1.8036995794121844
Ponte Fabricio, Rome, Lazio, Italy	41.891104543972936	12.478254931269216
Wollzeile 28, Vienna, Austria	48.207915000000014	16.377556499999997
Roxyzaal Antwerpen, Antwerp, Flanders, Belgium	51.22209000000004	4.397680000000037
Kingdom of Swaziland	-26.564951763999943	31.497967655000025
Future Bistro, 483 Bloor St W, Toronto, Ontario, Canada	43.66586994503447	-79.40758992339431
Farnborough Hall, Warwickshire	52.13391316814313	-1.4532260052979675
Rue de la Flche, Moulins, Allier, France	46.56468501027764	3.333222321659772
UCL Observatory, Mill Hill, London, England, UK	51.615770000000055	-0.24505999999996675
Sycamore, Illinois, USA	41.98864000000003	-88.68558999999999
Lasalle, Ontario, Canada	42.24624000000006	-83.06088999999997
The Mercury Mall, Romford, Essex, England, UK	51.57909997446484	0.1850500750182686
McCormick Museum, Wheaton, Illinois, USA Cantigny Park -	41.85198000288467	-88.16310999697208
The Glendale Tap, 4227 San Fernando Rd, Glendale, California, USA	34.1303924576927	-118.2609557609289
Hacienda Tazn en El Valle, Caracas, Venezuela	10.461170000000038	-66.91871999999995
Haelen, Belgium	50.450000000000045	6.133330000000058
Merlion Park - 1 Fullerton Road, Singapore	1.285623000000001	103.85397899999998
Nordyene, Mre og Romsdal, Norway	62.00000000000006	10.000000000000057
Station Service du Val Notre-Dame, 5 Boulevard des martyrs de Chateaubriant, Val d'Oise, France	NaN	NaN
421 W Riverside Ave, Spokane, Washington, USA	47.657915488458826	-117.41881113918865
Summertown, Oxford, Oxfordshire, England, UK	51.776260000000036	-1.2635699999999588
Museo Ideale Leonardo Da Vinci - Via Montalbano 2, Vinci, Tuscany, Italy	43.78755862975359	10.926697919095176
Theodore Payne Foundation Sunland, California, USA	34.259690000000035	-118.31423999999998
Golden Pin Bowling Lanes, Tucson, Arizona, USA	32.221550000000036	-110.96975999999995
Amlie-les-Bains-Palalda, Pyrnes-Orientales, Languedoc-Roussillon, France	45.37326000000007	4.812200000000075
Be'er Ya'akov, Israel	31.944290000000024	34.84065000000004
Barth, Mecklenburg-Western Pomerania, Germany	54.25000000000006	18.000000000000057
Chichester Railway Station, Chichester, West Sussex, England, UK	50.839060000000075	-0.8143099999999777
Century Grill, Buffalo, New York, USA	42.88812001110857	-78.87483001168538
Troy East Apartments at USC Campus, Los Angeles, California, USA	34.061268815771726	-118.1710750991163
Leythe Road, South Acton, London, England, UK	51.50325599999999	-0.2677792499999858
Ikaria, Greece	37.612790000000075	26.291860000000042
Pedernales Falls State Park, Johnson City, Texas, USA	30.277960046146124	-98.2564200067797
Aldenham Wood Lodge, Watling Street, Elstree, Hertfordshire, England, UK	51.655798307404176	-0.30227229475172385
Cerro Apante, Matagalpa, Nicaragua	12.897220000000061	-85.89030999999994
Guarda, Portugal	40.54027000000008	-7.261739999999975
Otis House, Fairview Riverside State Park - 119 Fairview Drive, Madisonville, Louisiana, USA	30.408700000000067	-90.14036999999996
Taney County, Missouri, USA	36.657102501000054	-93.03868108299997
Nether Wallop, Hampshire, England, UK	51.12763000000007	-1.5731899999999541
2127 4th Street, Sarasota, Florida, USA	27.339663518754556	-82.52765099999999
Gainsborough's House, Sudbury, Suffolk, England, UK	52.038110000000074	0.7288400000000479
Bellaterra, Barcelona, Catalonia, Spain	41.50192000000004	2.0912000000000717
Ras Bajas, A Corua, Galicia, Spain	42.85449461268893	-8.762064761439113
Trinity River, Texas, USA	29.74306000000007	-94.70332999999994
Louhans, Sane-et-Loire, France	45.72801184300005	4.164529562000041
Route Transcanadienne, Canada	60.108670000000075	-113.64257999999995
Huambo, Angola	-12.773909999999944	15.733190000000036
Victoriahallen, lvsj, Stockholm, Stockholms ln, Sweden	59.30915998499641	18.075809966674562
City Hall of Rotterdam, Coolsingel, Rotterdam-Centrum, Rotterdam, Zuid-Holland, Netherlands	51.91525993060772	4.443809952247796
Quartier du Sentier, Paris 2, Paris, France	48.86933933780269	2.3459389234056536
Ichibataguchi Station - 379-3, Kozakaicho, Izumo, Shimane, Japan	35.464095	132.88248900000002
205 Columbus Avenue, New York City, New York, USA	40.77562505300369	-73.98014623853093
Best Capital Funding, Chatsworth California, USA	34.257250000000056	-118.59093999999999
12849 Harbor Rd, West Ocean City, Maryland, USA	38.326485518754545	-75.10482
Garderhjfortet, Gentofte, Sjlland, Denmark	55.74827000000005	12.540980000000047
7th Place Mall - St. Peter & Wabasha Streets, St. Paul, Minnesota, USA	NaN	NaN
Wright Park, Tacoma, Washington, USA	47.25750000000005	-122.45002999999997
Honolulu, Oahu, Hawaii, USA	21.30493000000007	-157.85787999999997
John Ferraro Building, 111 North Hope Street, Los Angeles, California, USA	34.05763955882912	-118.24865069817434
Centre Point, Bloomsbury, London, England, UK	51.51642996667453	-0.12987995614288392
Daland's Swim Stadium, Lyon Center, University of Southern California, 1026 W. 34 Street, Los Angeles, California, USA	NaN	NaN
Fircrest, Washington, USA	47.23200000000003	-122.50542999999999
Arild, Skne ln, Sweden	56.26982000000004	12.578500000000076
Apartment Building, 1041 Wilshire Boulevard, NW Corner of Wilshire and Beverly Glen, Los Angeles, California, USA	34.05349000000007	-118.24531999999999
1104 Mohawk St., Los Angeles, California, USA	34.07780279877664	-118.26524150608817
St. Georges Square, Glasgow, Strathclyde, Scotland, UK	55.860640000000046	-4.242029999999943
Somerset, Kentucky, USA	37.09340000000003	-84.60083999999995
John Hancock Tower - 200 Clarendon Street, Boston, Massachusetts, USA	42.349409952247846	-71.07463005222422
Baluarte de Santiago, Cartagena, Bolvar, Colombia	10.423490000000072	-75.55341999999996
Bill Frederick Park at Turkey Lake, Orlando, Florida, USA	NaN	NaN
Behovia's international bridge, Behovia, Guipzcoa, Pas Vasco, Spain	51.24664000000007	1.124840000000063
Felsham, Suffolk, England, UK	52.177500000000066	0.8429200000000492
Kungsholmen, Stockholm, Stockholms ln, Sweden	59.33206993392598	18.0321100255353
Elbow Cay, Bahamas	23.950000000000045	-80.48332999999997
Hillside School, Borehamwood, Hertfordshire, England, UK	51.653940000000034	-0.2689699999999675
Pimlico Race Course - 5201 Park Heights Avenue, Baltimore, Maryland, USA	39.34903001702106	-76.67585995917449
3845 W. 177th Street, Torrance, California, USA	33.86988951154119	-118.341531
Oakland Plantation, Natchitoches, Louisiana, USA	31.7099476334394	-93.02080054320763
Autlan, Jalisco, Mexico	19.772520000000043	-104.36646999999999
1049 Victoria Avenue, Los Angeles, California, USA	33.996351708032705	-118.45409938331682
Northfield, Illinois, USA	42.10112000000004	-87.77054999999996
Vila Autdromo, Rio de Janeiro, Rio de Janeiro, Brazil	-22.973627238321722	-43.38589176434208
Punta Ala, Castiglione della Pescaia, Grosseto, Tuscany, Italy	42.80713000000003	10.766190000000051
Dungarpur, Rajasthan, India	23.841620000000034	73.71442000000008
Milwaukie Academy of the Arts, Milwaukie, Oregon, USA	45.445160000000044	-122.64152999999999
Damen Silos, Chicago, Illinois, USA	41.921234093009225	-87.67774729069724
Arunoday, India	22.786440000000027	86.16338000000007
Tumby Bay, South Australia, Australia	-34.37514999999996	136.10133000000008
Rio Solimes, Amazonas, Brazil	-3.0380442586174357	-60.011977137122685
Woodspring Suites, San Antonio Texas, USA	29.347769958884253	-98.53995999610484
18 Macy Avenue, White Plains, New York, USA	41.013559938109516	-73.74768816815767
Shantou, China	23.36814000000004	116.71479000000011
Bengtsarvet, Grycksbo, Dalarnas ln, Sweden	60.67876106511972	15.506665358631407
Lucerne Hotel - 201 W. 79th Street, West Side, Manhattan, New York City, New York, USA	40.78326002943041	-73.97853998889146
Weingarten, Baden-Wrttemberg, Germany	47.808250000000044	9.640820000000076
Willmar, Minnesota, USA	45.12064000000004	-95.05446999999998
Bardenas Reales, Navarra, Spain	42.178038893000064	-1.4640007979999723
Murray River, Victoria, Australia	-35.99029492898027	147.8428482972342
Fairfield, Connecticut, USA	41.16615000000007	-73.22905999999995
Ibagu, Colombia	10.135550000000023	-75.26902999999999
Mt. Beacon, New York, USA	41.50051393123418	-73.94550177653986
Fabrik, Altona, Hamburg, Germany	53.55000000000007	9.933330000000069
Gettysburg College, Gettysburg, Pennsylvania, USA	39.835819979370505	-77.23341008179793
San Pedro de Ribas, Barcelona, Catalonia, Spain	41.356246441765755	2.1560665907639867
Superior, Wisconsin, USA	46.721310000000074	-92.10394999999994
Oa, Burgos, Castilla y Len, Spain	42.35060000000004	-3.6729799999999386
Secinaro, Abruzzo, Italy	42.151290000000074	13.682020000000023
University of Melbourne, Parkville, Victoria, Australia	-37.79917999999998	144.9641600000001
Gladstone, Queensland, Australia	-23.858019999999954	151.25413000000003
Ci B, Tien Giang Province, Vietnam	10.396900096000024	106.30925131400005
Coombe Hill, Buckinghamshire, England, UK	51.78843241241984	-0.7830796915626668
All Saints' Church, Honington, Suffolk, England, UK	52.33646642393287	0.8074697662763917
Settignano, Florence, Tuscany, Italy	43.78285000000005	11.320910000000026
Eastern Freeway, Doncaster, Melbourne, Victoria, Australia	-37.79976339156216	145.14863006809938
Terme di Santa Venera, Acireale, Catania, Sicily, Italy	37.60089287511543	15.166773141132774
Space Coast, Florida, USA	28.304532	-81.40361458578165
First Interstate World Center, Los Angeles, California, USA	33.85460744779193	-118.22129959948052
McCall, Idaho, USA	44.91100000000006	-116.09813999999994
Tulkarm, Palestine	32.31743000000006	35.030800000000056
Victory Angel Films Studios, Tempe, Arizona, USA	33.41842179491691	-111.88751398416393
Pankhurst Hall, Brill, Buckinghamshire, England, UK	52.015387546697035	-0.7247586488231045
Treblinka, Mazowieckie, Poland	52.66317000000004	22.02317000000005
Kaivopuisto, Helsinki, Finland	60.15831000000003	24.95569000000006
Provincia De Segovia, Spain	41.16667000000007	-3.999999999999943
Playa Tamarindo, Costa Rica	10.313150000000064	-85.83785999999998
8024 Sunset Boulevard, Los Angeles, California, USA	34.09791595905499	-118.36514301068623
The Sports Bar, 11 Stadon Road, Anstey, Leicestershire, England, UK	52.673265337232	-1.1883333638917573
Jersey Road Reserve, Artarmon, Australia	-33.81508290320907	151.18624964868954
Carnegie Hall, New York City, New York, USA	40.76494993060773	-73.9804299522477
Bone Mill Quarry, Stourport-On-Severn, Worcestershire, England, UK	52.34286760614869	-2.267372398581053
Karun River, Iran	32.178900000000056	49.25020000000006
Den Wood, Aberdeen, Scotland, UK	57.13263000000006	-2.181419999999946
Schleching, Bavaria, Germany	47.72078000000005	12.398710000000051
Locquirec, Finistre, France	48.69118000000003	-3.6559899999999743
Shippen House, Hope Cove, Devon, England, UK	50.242200000000025	-3.8591999999999302
Kapena Falls, Honolulu, Oahu, Hawaii, USA	21.306154537889764	-157.71119876963053
145 Wayne Street, Beaver, Pennsylvania, USA	40.693122776011386	-80.30112845172816
St Clement's Church, Hastings, East Sussex, England, UK	50.85709000000003	0.591160000000059
Fire And Ice, 3841 NE 2nd Ave., Miami, Florida, USA	25.812531565641404	-80.19130306921942
Sec, Czech Republic	49.84815000000003	15.661180000000058
Pach, Madrid, Spain	40.42028000000005	-3.7057699999999727
Westin Riverside Hotel, Chiang Mai, Thailand	18.789823595625307	99.00395681836062
Old Warden, Bedfordshire, England, UK	52.079030000000046	-0.3464599999999791
Lake Havasu, Arizona, USA	34.520148000000006	-114.3469935
Black Dawg Sealcoat, Goffstown, New Hampshire, USA	43.01911000000007	-71.59993999999995
Brooklet, Georgia, USA	32.37954000000008	-81.66334999999998
Wohngemeinschaft Gemeinsam Leben Lernen, Grohadern, Munich, Bavaria, Germany	48.13641000000007	11.577540000000056
Beverly Grove, Los Angeles, California, USA	34.09544039258806	-118.42609208677314
Cortegana, Huelva, Andalucia, Spain	37.915860000000066	-6.822699999999941
Hubei Provence, China	31.000000000000057	112.00000000000011
Crazy Horse Saloon - 3950 Jonesboro Road, Forest Park, Georgia, USA	33.64716281378028	-84.36502172768222
DeStefano's, Follansbee, West Virginia, USA	40.331900000000076	-80.59629999999999
Spencer, North Carolina, USA	35.68683000000004	-80.43730999999997
Hacienda El Paraso, El Cerrito, Valle del Cauca, Colombia	3.6867000000000303	-76.31398999999999
Windam Place, Westleigh, New South Wales, Australia	-33.72007470396417	151.06251080418807
DoubleTree by Hilton Hotel Golf Resort, Palm Springs, California, USA	33.823210000000074	-116.51195999999999
Nationwide Building Society - now demolished, King Street, Maidenhead, Berkshire, England, UK	51.52311000000003	-0.7199299999999766
Kennesaw, Georgia, USA	34.02344000000005	-84.61675999999994
Hacienda Resort Hotel and Casino - Las Vegas, Nevada, USA	36.16957000000008	-115.14331999999996
Real Academia de Bellas Artes de San Fernando, Madrid, Spain	40.417560036643785	-3.7005900438570505
Simba Special Campsite B, Ngorongoro Conservation Area, Ngorongoro, Arusha, Tanzania	-3.225909999999942	35.47636000000006
Svat Hora u Prbrami, Pribram District, Czech Republic	50.67032000000006	14.25347000000005
Blackmore Vale, Dorset, England, UK	50.958809833223555	-2.3738326165458736
Huntington Bay, Long Island, New York, USA	43.980620000000044	-75.86102999999997
Zwickau, Saxony, Germany	50.71474000000006	12.497550000000047
ICPE Technology Park, Bucharest, Romania	44.43429000000003	26.10298000000006
Lake Elizabeth, California, USA	37.54833000000008	-121.96171999999996
Vesivehmaa, Asikkala, Finland	61.13454000000007	25.632220000000075
Eichsfeld, Thuringia, Germany	51.38360065300003	10.253347414000075
Prinsenstichting, loactie Kadijkerkoog, Purmerend, Noord-Holland, Netherlands	52.51909857343221	4.980818774474041
Shamisen Workshop Tada Kobo - 112 Shigemori-machi, Hirosaki City, Aomori Prefecture, Japan	40.82222626500004	140.74741987000004
Awaji City, Hyogo, Japan	34.43977302700006	134.91499531600005
Jenny Lake, Grand Teton National Park, Wyoming, USA	43.65993000000003	-110.72142999999994
Abingdon, Oxfordshire, England, UK	51.67384000000004	-1.2858799999999633
Totorillas, Ecuador	-3.0499999999999545	-79.01666999999998
Piazza Antelminelli, Lucca, Tuscany, Italy	43.84129000000007	10.505900000000054
Frederic Rentabike, Brouwersgracht 78, 1013 GZ Amsterdam, Noord-Holland, Netherlands	52.379746469896624	4.890636060880675
Kera, Finland	60.4983555	25.534804500000007
Ordino, Andorra	42.55522000000008	1.5329000000000406
Langside, Glasgow, Scotland, UK	55.82532000000003	-4.283429999999953
Our Loady of the Mount Chapel, Panaji, Goa, India	15.503610000000037	73.92299000000008
Waterville, Maine, USA	44.55279000000007	-69.63134999999994
American River, Kangaroo Island, South Australia, Australia	-35.77852999999993	137.77258000000006
Mount Vernon Lane, Off Holly Hill, Hampstead, London, England, UK	51.55743741171464	-0.18035841214026446
Ashburton, Devon, England, UK	50.520020000000045	-3.7471199999999385
Frohburg, Sachsen, Germany	51.05638000000005	12.553410000000042
Magdalena Mixhuca, Mexico D.F., Mexico	19.410372441407013	-99.11966471114854
Hurleston, Cheshire, England, UK	53.09173000000004	-2.567429999999945
Courthouse Museum - 191 First Street, Genoa, Nevada, USA	39.00792226115197	-119.84560841133353
Piazza Pia, Rome, Lazio, Italy	41.902907394279175	12.464334234498697
Garage Lantheaume, Avenue du Gnral de Gaulle, Eyragues, Bouches-du-Rhne, France	46.55941704400004	2.5505399530000545
Atco New Jersey, USA	39.77040000000005	-74.89006999999998
611 W. 37th. Street, San Pedro, Los Angeles, California, USA	33.7105455212074	-118.29011408381902
Pennhurst Asylum, Spring City, Pennsylvania, USA	40.186134306971056	-75.56548169833219
Funicular Trport, Le Trport, Seine-Maritime, France	50.06013000000007	1.3748600000000692
Itaquera, So Paulo, So Paulo, Brazil	-0.3666699999999423	-52.14999999999998
Hvidovre Hospital, Hvidovre, Sjlland, Denmark	55.648370073864406	12.467270076892333
Parc du Clos-Layat, 260 rue de Vienne, Lyon, France	45.75939000000005	4.828980000000058
HMS President, Blackfriars, London, England, UK	51.51204000000007	-0.10356999999993377
Don Valley Stadium, Sheffield, South Yorkshire, England, UK	53.398930000000064	-1.4239899999999466
Bidwell Street , Manchester, Connecticut, USA	41.76155647416022	-72.55045419297953
H.C. rstedsvrket, Copenhagen, Denmark	55.672963948796955	12.63467658959316
Manoir Richelieu, Qubec, Canada	45.0151575228108	-73.20844569532994
Colton St & N Beaudry Ave, Los Angeles, California, USA	34.06412920433326	-118.25030497936118
Swierk, Otwock, Mazowieckie, Poland	52.119561556084406	21.244584228317024
Bull Creek District Park, Austin, Texas, USA	30.364750000000072	-97.78866999999997
Bath, England, UK	51.38503000000003	-2.361319999999978
Bellagio Casino & Hotel - 3600 Las Vegas Boulevard South, Las Vegas, Nevada, USA	36.112070000000074	-115.17523999999997
Stommeln, Pulheim, North Rhine-Westphalia, Germany	51.02308000000005	6.759690000000035
North Judson, Indiana, USA	41.214620000000025	-86.77586999999994
Havana, Florida, USA	30.623980000000074	-84.41269999999997
Brabant Wallon, Belgium	50.66928041300008	4.583688209000059
Tacuaremb, Uruguay	-32.608427417106036	-55.82662616651776
5 Patricia Lane, Little Rock, Arkansas, USA	34.7568875323159	-92.36107336372554
Galava fort, Ambleside, Cumbria, England, UK	54.43267000000003	-2.9631599999999594
BP Filling Station, Bucks Horn Oak, Hampshire, England, UK	51.06264441500008	-1.287510551999958
Circustheater Scheveningen, Den Haag, Netherlands	52.1103800044721	4.283019973887916
Carcere Le Vallette, Turin, Piedmont, Italy	45.10587000000004	7.629790000000071
Scarboro Golf and Country Club, Toronto, Ontario, Canada	43.7527699233944	-79.21101995224771
The Versailles Apartments, 5232 Corteen Pl., N. Hollywood, California, USA	34.165835748542904	-118.40194981704119
Salmovsky Palace, Prague, Czech Republic	50.08396992339437	14.427819937821106
Znojmo, Czech Republic	48.85569000000004	16.05442000000005
Tuuri, Tys, Finland	62.604460000000074	23.73944000000006
Roosevelt Park, Edison, New Jersey, USA	40.54467000000005	-74.33857999999998
Layton Castle - 1133 South Grand Street, Monroe, Louisiana, USA	32.49196531057763	-92.11415006728618
The Nethercutt Collection - 15200 Bledsoe Street, Sylmar, Los Angeles, California, USA	34.305636816233125	-118.46489330137369
Georgetown Steamplant	6.808590000000038	-58.16124999999994
California Club, 538 S Flower St, Los Angeles, California, USA	NaN	NaN
Daron Halle Chiropractic, Peoria, Arizona, USA	33.57731000000007	-112.24089999999995
Ako city, Hyogo, Japan	34.87355168000005	134.35612718400012
South Windsor Police Department, South Windsor, Connecticut, USA	41.836599991055934	-72.55255994445744
St. Olaf College, Northfield, Minnesota, USA	44.460410016300855	-93.18014006708084
Ventura Blvd & Balboa Blvd, Encino, California, USA	34.159248000000005	-118.50111
Grassington, North Yorkshire, England, UK	54.071390000000065	-1.9981899999999655
Legans, Madrid, Spain	40.328050000000076	-3.7652499999999804
Villa Giovannelli, Roma, Lazio, Italy	41.91605195158145	12.494746189476809
5620 Hollywood Blvd., Los Angeles, California, USA	34.10168749177703	-118.31216157328744
San Francisco Police Department, 850 Bryant Street, San Francisco, California, USA	37.77492007775959	-122.40398004832909
Pine Breeze Inn - W. Route 66, Bellemont, Arizona, USA	35.22623882960394	-111.80556098670989
Ashiocho, Tochigi, Japan	36.56568874800007	139.8835000460001
Petri Kirche, Soest, Germany	51.5717540774433	8.106566539687803
Beaverton, Ontario, Canada	44.43273000000005	-79.15524999999997
Kamikitamachi, Aomori, Japan	37.292225329000075	140.37612116800005
Locomotive Factory, Hennigsdorf, Brandenburg, Germany	52.63399000000004	13.206470000000024
Trem Carr Ranch - Placerita Canyon Road, Newhall, California, USA	34.378895251402376	-118.46738630531907
Real Escuela de Arte Dramtico, Madrid, Spain	40.427950062179015	-3.6993300477521633
Duebener Heide, Saxony-Anhalt, Germany	51.560221732247214	12.991013234350246
Radegast Hall & Biergarten, 113 North 3rd Street, Williamsburg, Brooklyn, New York City, New York, USA	40.71658006939235	-73.96171998889146
Tepla, Czech Republic	49.98213000000004	12.863420000000076
Dundee, Michigan, USA	41.95713000000006	-83.66010999999997
Desert Christian High School, Lancaster, California, USA	34.682159922240544	-118.17349999999999
Miyagam Dabka, Baroda, Gujarat, India	22.247120000000052	72.95410000000004
Castlemorton Common, Malvern, Worcestershire, England, UK	52.04794000000004	-2.3123899999999367
Maanp, Turku, Finland	60.45280000000008	22.251550000000066
Dolgopa, Russia	61.989526183000066	96.80537153400007
Arcones, Segovia, Castilla y Len, Spain	41.117000000000075	-3.7240999999999644
Burnaby, British Columbia, Canada	49.24455000000006	-122.97298999999998
Glenrothes, Fife, Scotland, UK	56.19718000000006	-3.1737399999999525
Velenice u Ceske Lipy, Czech Republic	50.13940000779031	14.097889952247819
Denham Springs, Louisiana, USA	30.48703000000006	-90.95544999999998
Vermilion Catholic High School - 425 Park Avenue, Abbeville, Louisiana, USA	29.97977000000003	-92.14014999999995
Dberitz/Havelland, Brandenburg, Germany	52.52216000000004	12.364750000000072
Selja Gorges, Gafsa, Tunisia	34.427940000000035	8.782940000000053
Flashlight Studio, Amsterdam, Noord-Holland, Netherlands	52.35355000000004	4.8918200000000525
Rue Belle Rade, Dunkerque, Nord, France	51.04639769381527	2.393817572744321
Richmond Centre, Richmond, British Columbia, Canada	49.170210000000054	-123.13005999999996
Denver Botanical Gardens - 1005 York Street, Denver, Colorado, USA	39.73279999942315	-104.95988005611937
Watson Lake, Prescott, Arizona, USA	34.59020000000004	-112.42084999999997
Aroport Mohammed V, Nouasseur, Casablanca, Morocco	33.367470000000026	-7.589969999999937
Ouarzazate, Ouarzazate Province, Morocco	30.927850000000035	-6.91256999999996
Val d'Or, Qubec, Canada	48.101620000000025	-77.78871999999996
Chnice, Czech Republic	49.21492000000006	14.028060000000039
Isle of Berneray, North Uist, Western Isles, Scotland, UK	58.16608436700005	-6.629440173999967
2019 E 7th St, Los Angeles, California, USA	34.03466698955373	-118.23154116550596
22 E 38th St, Manhattan, New York City, New York, USA	40.75007381181838	-73.98071154968547
T&P Building, Fort Worth, Texas, USA	32.750950000000046	-97.33085999999997
Margate Cemetry, Margate, Kent, England, UK	51.38691000000006	1.3791000000000508
284 Queen Street, Niagara-on-the-Lake, Ontario, Canada	43.25915320869653	-79.07957660909446
Gare de Libourne, Libourne, Gironde, France	44.91590000000008	-0.2370199999999727
Ye Old Fighting Cocks pub, Abbey Mill Lane, St Albans, Hertfordshire, England, UK	51.74896000000007	-0.34668999999996686
Helgleiren, H, Rogaland, Norway	58.54142375881042	6.269242316652351
Jon M. Huntsman Center, University of Utah, Salt Lake City, Utah, USA	40.76088000000004	-111.83862999999997
Mala Mala Game Reserve, Mpumalanga, South Africa	-24.859549999999956	31.435100000000034
Passo Sella, Trentino, Italy	44.238170000000025	10.820530000000076
Hoofddorp, Noord-Holland, Netherlands	52.305390000000045	4.692960000000028
Radville, Oceanside, California, USA	33.19715000000008	-117.38057999999995
Tureholm Castle, Stockholm, Stockholms ln, Sweden	59.28247568846	18.027821680779905
Houston St & Lafayette St, New York City, New York, USA	40.72508100000002	-73.9953225
Rock Creek Park, Maryland, USA	39.14594000000005	-76.49078999999995
Fair Hills State Park, Elkton, Maryland, USA	39.70699994113931	-75.85603998889145
Aroport de Lyon-Saint Exupry, Colombier Saugnieu, Rhne, Rhne-Alpes, France	45.7194600128393	5.072620006776053
Venice Canals, Venice, Los Angeles, California, USA	33.987540000000024	-118.47214999999994
Tacoma Narrows Bridge, Tacoma, Washington, USA	47.26370000000003	-122.54446999999999
Belmont, New Hampshire, USA	43.432930000000056	-71.47156999999999
Lovetsh, Bulgaria	42.88482000000005	24.710110000000043
Y, Tenerife, Spain	28.460780000000057	-16.26389999999998
Velika planina, Slovenia	46.300290000000075	14.640210000000025
Kelso Conservation Area, 5234 Kelso Rd, Milton, Ontario, Canada	43.508020000000045	-79.94267999999994
Chobham Road, Ottershaw, Surrey, England, UK	51.35848124817615	-0.5506701834264398
Palmela, Setbal, Portugal	38.56793000000005	-8.898999999999944
329 Melrose Ave, Monrovia, California, USA	34.15813263918865	-118.00681723677057
Morningside Heights, Manhattan, New York City, New York, USA	40.810395958176215	-73.95472550190019
Auditorium de Verdun - 4110 Boulevard Lasalle, Verdun, Qubec, Canada	45.46241006939236	-73.56253006722791
Coalbrookdale, Shropshire, England, UK	52.641290000000026	-2.493669999999952
Liberec, Czech Republic	50.77018000000004	15.058570000000032
Neues Rathaus, Marienplatz 8, Munich, Bavaria, Germany	48.13777001110854	11.575909918345383
Intraco, Stawki, Muranw, Srdmiescie, Warsaw, Mazowieckie, Poland	52.251594658151234	20.987519603048025
Petn, Guatemala	15.697237961000042	-90.36397945999994
Faculdade de Direito, Pelotas, Rio Grande do Sul, Brazil	-31.77479999999997	-52.342179999999985
Ilikai Hotel & Suites - 1777 Ala Moana Boulevard, Honolulu, O'ahu, Hawaii, USA	21.285009961625583	-157.83847001110846
New Market Battlefield, Virginia, USA	38.65428000000003	-78.67529999999994
Petro-Canada - 25 Trans Canada Highway, Cornwall, Prince Edward Island, Canada	46.25683000389521	-63.18744004385705
Barcelona, Catalonia	41.38561000000004	2.1687200000000644
Port Campbell, Victoria, Australia	-38.61805999999996	142.9979300000001
Schloss Tegel, Tegel, Berlin, Germany	52.59177450000001	13.283216999999997
Downhill Strand, County Londonderry, Northern Ireland, UK	54.99959000000007	-7.321959999999933
3, South Crescent, Hartlepool, County Durham, England, UK	54.694206287813714	-1.1789032778263069
Yablunytsa, Ukraine	48.31742000000003	24.484480000000076
Woodward Museum - 645 Main Street, Ramona, California, USA	33.045023931473075	-116.8631753817876
Uliveto Terme, Vicopisano, Pisa, Tuscany, Italy	43.698860000000025	10.516740000000027
Roxburgh, Otago, New Zealand	-45.475979999999936	169.32290000000012
7th Ave and Montclair St., Los Angeles, California, USA	34.02963	-118.324791
Zhorsk Ves, Slovakia	48.708702094000046	19.48774919600004
Santa Cruz Island, Channel Islands, California, USA	32.816700000000026	-118.45090999999996
Kirkkojrvi, Espoo, Finland	60.20843400000001	24.666693750000015
Mesa Grill, Caesars Palace - 3570 Las Vegas Boulevard South, Las Vegas, Nevada, USA	36.11611000000005	-115.17438999999996
Rex Film Atelier, Berlin, Germany	52.51604000000003	13.376910000000066
Ile d'Aix, Charente-Maritime, France	46.01129000000003	-1.174509999999941
Proof Bar & Patio - Houston, Texas, USA	29.67447150000001	-95.2318035
Santoa, Cantabria, Spain	43.411110000000065	-3.412369999999953
Church Road, Hendon, London, England, UK	51.58986572817369	-0.22267115549808442
Oshawa Centre - 419 King St W, Oshawa, Ontario, Canada	43.89007000000004	-78.88162999999997
Viba Film Studios, Ljubljana, Slovenia	46.05062000000004	14.502820000000042
Quai du Port au Bl, Fumay, Ardennes, France	49.99429379884789	4.704970244470028
Runyang Bridge, Jiangsu Province, China	32.21789000000007	119.35869000000002
Skirvin Hilton Hotel, Oklahoma City, Oklahoma, USA	35.446450005049016	-97.60110001731127
Target Center - 600 First Avenue N., Minneapolis, Minnesota, USA	44.97958995614296	-93.27488005785015
Izmir, Turkey	38.426180000000045	27.141910000000053
Perryville, Maryland, USA	39.55974000000003	-76.07218999999998
Meteora, Greece	40.65880000000004	22.954830000000072
Blanchardville, Wisconsin, USA	42.808430000000044	-89.86304999999999
1261 Angelo Drive, Beverly Hills, California, USA	34.091969681343635	-118.43614983449673
Confiserie Gmeiner, Baden-Baden, Baden-Wrttemberg, Germany	48.762680000000046	8.240980000000036
Wygielzw, Malopolskie, Poland	50.07424000000003	19.433250000000044
Myrtle Avenue & Knickerbocker Avenue, Bushwick, Brooklyn, New York City, New York, USA	40.70114866467436	-73.92249417722677
Greenfield Park, 1739 Burnett Blvd., Wilmington, North Carolina, USA	34.2122779159627	-77.94551099101167
Kunming Railway Station, Guandu District, Kunming, Yunnan, China	25.038890000000038	102.71833000000004
Mansfield Road, Oxford, Oxfordshire, England, UK	51.7568460873171	-1.2518557448947696
Volgograd, Russia	48.70408000000003	44.451730000000055
Rue Charles Beaudelaire, Paris 12, Paris, France	48.84963943682572	2.376912862565734
Tatransk Lomnica, Slovakia	49.1651399705697	20.27702995946116
Luther Williams Field, Macon, Georgia, USA	32.829990000000066	-83.61400999999995
366 West 127th Street, Harlem, Manhattan, New York City, New York, USA	40.81236264418031	-73.95241037913321
Perlora, Oviedo, Asturias, Spain	43.53894950671403	-5.670279008632333
Radley Station, Radley, Oxford, Oxfordshire, England, UK	51.686180000000036	-1.2404399999999782
Atlas Coal Mine, East Coulee, Drumheller, Alberta, Canada	51.355710000000045	-112.51505999999995
Busboys and Poets, 2021 14th Street Northwest, Washington D.C., USA	38.91787000000005	-77.0319199738878
Datteln, North Rhine-Westphalia, Germany	51.654220000000066	7.338670000000036
Heron Tower, Bishopsgate, London, England, UK	51.51632998167816	-0.08139998441939943
Studio Film d'Art, Neuilly-sur-Seine, Hauts-de-Seine, France	48.88437000000005	2.2693500000000313
Piscadera Bay, Curacao	12.132310000000075	-68.96860999999996
Blomstervnget, Kongens Lyngby, Denmark	55.763334000000015	12.502277327078145
Red Brick Bar, Norman, Oklahoma, USA	35.22076000000004	-97.44659999999999
All Saints Church - Hillesden, Buckinghamshire, England, UK	51.9538468573529	-1.003410295950559
Amol, Mazandaran, Iran	36.469610000000046	52.35072000000008
Village Home - 5150 SW Watson Ave, Beaverton, Oregon, USA	45.4827104635005	-122.80692328807217
Jabalpur, Madhya Pradesh, India	23.176210000000026	79.93148000000008
Dragomirna, Romania	47.757850000000076	26.225130000000036
Cream Ridge, New Jersey, USA	40.13545000000005	-74.52122999999995
Fair Oaks, California, USA	38.643110000000036	-121.27016999999995
Harbour, Osaka, Japan	34.650000000000034	135.43333000000007
420 Market Street, Wilmington, North Carolina, USA	34.235639550637764	-77.94367138190317
Kaposvr, Hungary	46.35528000000005	17.78526000000005
Bad Driburg, North Rhine-Westphalia, Germany	51.737610000000075	9.017780000000073
Elizabethan Market, Totnes, Devon, England, UK	50.42967300000001	-3.6680962499999916
Lacy Park, San Marino, California, USA	34.121290000000045	-118.12020999999999
Lankwitz, Berlin, Germany	52.438950000000034	13.353400000000022
Altyn-Kl, Altai Republic, Russia	51.90795000000003	87.10499000000004
Lake Valley, New Mexico, USA	36.08650000000006	-108.15344999999996
Skeppsbron, Gamla Stan, Stockholm, Stockholms ln, Sweden	59.326250402756656	18.075104027270417
Wapakoneta, Ohio, USA	40.56788000000006	-84.19452999999999
le Logoden, Morbihan, France	47.555190786666216	-2.9026291233340986
34 W Carrillo St, Santa Barbara, California, USA	34.42087376262521	-119.70263397410906
255 South Hope Street, Los Angeles, California, USA	34.05432664037331	-118.25175171488387
Douglas, Isle of Man	54.150280000000066	-4.480959999999925
Here Comes The Bridesmaid, 13 West 35 Street, Manhattan, New York City, New York, USA	40.74934528420311	-73.98449883551443
Southern Michigan State Prison - 4002 Cooper Street, Jackson, Michigan, USA	42.301507689437415	-84.39136611533527
Lily Rock, San Jacinto Mountains, California, USA	33.814460000000054	-116.67917999999997
Berat, Albania	40.712590000000034	19.938460000000077
Lure Woods, Lake Lure, North Carolina, USA	35.428149410739024	-82.18239474189762
Lake San Antonio, California, USA	35.85648000000003	-120.97637999999995
Bar Le Week-End - 91 Avenue de Wagram, Paris 17, Paris, France	48.881440043857125	2.300589959461191
River Walk, San Antonio, Texas, USA	30.516490764604523	-97.56100615288715
Treviso, Veneto, Italy	45.666360000000054	12.241890000000069
Black Park, Iver Heath, Buckinghamshire, England, UK	51.536560000000065	-0.5206399999999576
Hamuliakovo, Slovakia	48.03786000000008	17.252400000000023
Lanseria, Johannesburg, South Africa	-25.95088999999996	27.918120000000044
Ami, Babaraki, Japan	35.37117130400003	136.92911511400007
Gimbel's Department Store, Herald Square, Manhattan, New York City, New York, USA	40.74988667320531	-73.98791358313537
Studios RTBF Lige, Lige, Wallonia, Belgium	50.64550000000003	5.572500000000048
Herastuomarinkatu 4, Raisio, Finland	60.4889694676841	22.1650785313636
Launceston, Tasmania, Australia	-41.43599999999998	147.13783000000012
Castelfidardo, Macerata, Marche, Italy	43.43981466795324	13.538115158303862
Weeki Wachee Springs - 6131 Commercial Way, Weeki Wachee, Florida, USA	28.51664004616481	-82.57292004731859
Remy's Market, 599 Hoover Street, Los Angeles, California, USA	34.06371300000001	-118.28430793596132
Law School, Belgrade, Serbia	44.81310000000008	20.46329000000003
Villa Park, Illinois, USA	41.88955000000004	-87.97912999999994
Tilbury Fort, England, UK	51.45243000000005	0.3702500000000555
Square Pie Company, Spitalfields, London, England, UK	51.518380000000036	-0.0746799999999439
Formigal, Huesca, Aragn, Spain	42.775330000000054	-0.3718999999999255
Girard College - 2101 S. College Avenue, Philadelphia, Pennsylvania, USA	39.97297000000003	-75.17087999999995
Taveuni Island, Fiji	-16.849999999999966	-179.96666999999997
Bloomington/Normal, Illinois, USA	40.483760000000075	-88.91381999999999
Arna, Norway	60.42026000000004	5.4678800000000365
Jay Bee's Bar-B-Que - 15915 S. Avalon Boulevard, Gardena, California, USA	NaN	NaN
Oslo Central Station, Oslo, Norway	59.910660076605716	10.748989926712605
Changchun Film Studio, Changchun, China	43.884150000000034	125.3036800000001
rhus, Jylland, Denmark	55.959300779000046	10.053934054000024
Oxfam Bookshop - 15 Turl Street, Oxford, Oxfordshire, England, UK	51.75325000000004	-1.2562099999999532
Satakunnan lennosto, Pirkkala, Finland	61.46580000000006	23.64459000000005
Bontoc Public Market, Bontoc, Mountain Province, Philippines	17.089680000000044	120.97703000000001
Rockwell's Kitchen & Tap - 45 S. Division Ave., Grand Rapids, Michigan, USA	42.961815	-85.66787958482863
Hotel Steigenberger, Hamburg, Germany	53.6730000705462	10.091499993797253
Drymen, Scotland, UK	56.065630000000056	-4.452429999999936
6th Street & Newhall Avenue, Santa Clarita, California, USA	34.377048	-118.52776349999999
Liberty Park, New York, USA	40.70437000000004	-73.78539999999998
Mill Hill School, Surrey, England, UK	51.24220000000008	0.0012700000000336331
Valencia Cathedral, Valencia, Comunidad Valenciana, Spain	39.47513005222436	-0.3752899922096628
Kliczkw, Dolnoslaskie, Poland	51.33908208961643	15.433229397125103
Long Branch Racetrack, Toronto, Ontario, Canada	43.593530000000044	-79.53271999999998
Bridge of the Gods, Wanapa Street, Cascade Locks, Oregon, USA	45.66445998889152	-121.8963799594611
Kibungo, Rwanda	-2.1431099999999788	30.571330000000046
Tsuen Wan Chinese Permanent Cemetery, Tsuen Wan, New Territories, Hong Kong, China	22.373498914864854	114.11617202592481
Antigua, Antigua and Barbuda	17.077993681000066	-61.798304006999956
Balboa Peninsula Park - 100 Main Street, Newport Beach, California, USA	33.60143230668248	-117.89971165554861
Murrray Hill Ave, Pittsburgh, Pennsylvania, USA	40.44739514190904	-79.92622124581501
Inntal, Tirol, Austria	47.25927998889155	11.259739926712578
Caricuao, Caracas, Venezuela	10.430840000000046	-66.97568999999999
Friburgo, Rio de Janeiro, Brazil	-22.685085427407543	-43.444932474494536
Adams County, Nebraska, USA	40.52445544500006	-98.50119535699997
Pakington Street, St Kilda, Melbourne, Victoria, Australia	-37.86602725114026	144.9884929760192
Greenbrier, Arkansas, USA	35.23526000000004	-92.38784999999996
Casa Malibu - 22752 Pacific Coast Hwy, Malibu, California, USA	34.03930160834465	-118.6711590807606
Rua da Gal, Alfama, Lisbon, Portugal	38.71096000000006	-9.128019999999935
Kanyaka Station, South Australia, Australia	-30.48742296318927	136.88429942194904
San Martin, California, USA	37.08457000000004	-121.61135999999999
Jember, East Java, Indonesia	-7.6363999999999805	112.17890000000011
Bethnal Green Library, London, UK	51.52595000000008	-0.05518999999992502
University City, Missouri, USA	38.656490000000076	-90.31020999999998
Rua Prof. Abelardo Lobo, Lagoa, Rio de Janeiro, Rio de Janeiro, Brazil	-22.960855655621643	-43.204258158935154
Piazza Don Paolo Albera, Turin, Piedmont, Italy	45.077771496261185	7.685775887151189
Grupo Imagen, Mxico City, Mxico	19.40650000000005	-99.14101999999997
Bowersville, Georgia	34.37200000000007	-83.08326999999997
Crescent Grange, Leeds, West Yorkshire, England, UK	53.78165830121641	-1.5427280385403288
San Cassiano, Badia, South Tyrol, Italy	46.57126000000005	11.931770000000029
Emerald Coast, Sardinia, Italy	40.08780107200005	9.030487687000061
2440 S Las Vegas Blvd, Las Vegas, Nevada, USA	36.14425211604119	-115.15719788702938
Anerley, London, England, UK	51.412330000000054	-0.06538999999997941
Casa de los Clubes, Villa Juana, Santo Domingo, Dominican Republic	18.48735000000005	-69.90941999999995
Bloomsdale, Missouri, USA	38.00868000000003	-90.21779999999995
Circus Busch, Berlin, Germany	52.614171	13.412677500000006
St. Joseph's Hospital, Atlanta, Georgia, USA	33.90891998052433	-84.34979998889146
Turbinenhalle, Oberhausen, North Rhine-Westphalia, Germany	51.483580000000075	6.868630000000053
Massif des Maures, Var, France	43.25886000000003	6.323130000000049
Witmer St & W 7th St, Los Angeles, California, USA	34.052373	-118.267803
Ken's Bar, Madison, Wisconsin, USA	43.033282917990825	-89.37984427844725
Gamla Riksdagshuset, Riddarholmen, Gamla Stan, Stockholm, Stockholms ln, Sweden	59.32761000000005	18.067640015580615
619 South Runnymeade Avenue, Evansville, Indiana, USA	37.96896641909517	-87.53516737318925
Golden Gate Bridge, San Francisco, California, USA	37.81827000000004	-122.47841999999997
Htel de Ville, Paris 4, Paris, France	48.84467747821568	2.4378395656414074
Briesen/Mark, Brandenburg, Germany	52.34624000000008	14.279420000000073
Waterloo Underground Station, Waterloo, London, England, UK	51.50282000000004	-0.1110999999999649
Ldz Zabieniec Station, Baluty, Ldz, Ldzkie, Poland	52.12379015400006	19.39876898600005
Medano Beach, Cabo San Lucas, Baja California Sur, Mexico	22.88739000000004	-109.90516999999994
Soufrire, Dominica	15.233330000000024	-61.36666999999994
Northfield Mall, Denver, Colorado, USA	39.784980000000076	-104.89326999999997
Old Gravenand hospital, Genilac, Loire, France	45.53454000000005	4.584540000000061
James Joyce Tower, Sandycove, Dublin, County Dublin, Ireland	53.3517895308506	-6.253578675117943
Mount Kilimanjaro, Kenya	-1.2790199999999459	36.85069000000004
Prince George's County, Maryland, USA	38.82838600600007	-76.84587057999994
Paredes, Tmega, Portugal	41.20610000000005	-8.336589999999944
Almendralejo, Badajoz, Extremadura, Spain	38.68453000000005	-6.406949999999938
Windsor, Ontario, Canada	42.31785000000008	-83.03386999999998
Galata Kulesi, Bereketzade, Beyoglu, Istanbul, Turkey	41.02560006939238	28.974110036643804
Escondido. California, USA	33.12316000000004	-117.08216999999996
South Avenue, New Canaan, Connecticut, USA	41.130203609583035	-73.48690631241475
Atlanta, Georgia, USA	33.74831000000006	-84.39110999999997
1710 Del Paso Blvd, Sacramento, California, USA	38.60770929641071	-121.45567939050152
Brea Civic Center - 1 Civic Center Circle, Brea, California, USA	33.91768456267268	-117.88893556267269
Theater Die Tribne, Vienna, Austria	48.202540000000056	16.36880000000002
Micheldever Wood, Micheldever, Hampshire, England, UK	51.14858000000004	-1.2654199999999491
Kino, Sonora, Mexico	27.925220000000024	-110.88832999999994
Deddington Antiques Centre, Laurel House, Bull Ring, Deddington, Oxfordshire, England, UK	51.98207000000008	-1.321429999999964
La Foux, Alpes-de-Haute-Provence, France	44.27618000000007	6.579140000000052
Osdorf, Hamburg, Germany	53.57398000000006	9.846760000000074
It's About Time Antiques Market, Orange, California, USA	33.62136001889882	-117.92809007660566
XEX Morimoto, 7-21-19 Roppongi, Minato, Tokyo, Japan	35.663022	139.727394
Caledonian Market, Market Road, Islington, London, England, UK	51.53679898004868	-0.11658081357537121
Milstadt, Illinois, USA	38.45899000000003	-90.09320999999994
Mocln, Granada, Andaluca, Spain	37.318363530015546	-3.7347894861385407
Basilica di Santa Maria della Salute, Venice, Veneto, Italy	45.43811000000005	12.31815000000006
Dalkeith, Midlothian, Scotland, UK	55.89296000000007	-3.068869999999947
Lake Keystone, Sand Springs, Oklahoma, USA	36.13966000000005	-96.10823999999997
Tsukishima, Tokyo, Japan	35.665088541000046	139.7819218510001
Kaiser-Wilhelm-Gedchtniskirche, Berlin, Germany	52.504780054965664	13.336109989902104
Wilson Ave & N Broadway, Chicago, Illinois, USA	41.96540699999999	-87.65747999999999
Wilton Manors, Florida, USA	26.15488000000005	-80.13922999999994
Addington, Kent, England, UK	51.304790000000025	0.37892000000005055
Very Large Array, Socorro, New Mexico, USA	34.07337000000007	-107.62254999999999
Santa Anita Canyon, San Bernardino Mountains, California, USA	34.482487500000005	-117.269001
Sheraton Hotel, Ajman, United Arab Emirates	25.073349930607733	55.12823006722797
George & Dragon Pub, London, England, UK	51.52726000000007	-0.07698999999996659
Houghton Mansion - 172 Church St, North Adams, Massachusetts, USA	42.696068771048374	-73.1064948184548
Seabrook, New Hampshire, USA	42.875680000000045	-70.87190999999996
Korkeasaari, Helsinki, Finland	60.178201841022855	24.983073113485204
Orizabita, Hidalgo, Mexico	20.58155000000005	-99.20741999999996
Comino Island, Malta	36.01333000000005	14.335560000000044
5507 Hollywood Blvd., Hollywood, Los Angeles, California, USA	34.10176746047075	-118.30965333527612
Stein, Lower Austria, Austria	48.436420000000055	15.073190000000068
Tiburn Island, Sonora, Mexico	28.99219000000005	-112.34017999999998
Pine Crest Mountain Resort, San Bernardino Mountains, California, USA	34.12557000000004	-116.87641999999994
42 Harley Street, London, England, UK	51.51857747662124	-0.1467148280007967
Maison d'arrt du Bordiot, 1 rue Mdiane, Bourges, Cher, France	47.08600000000007	2.3931400000000735
Chiba, Chiba, Japan	35.60747426000006	140.10662849100004
Glorietta 4, Ayala Center, Makati City, Metro Manila, Philippines	14.549660000000074	121.02757000000008
Grisen, Zaragoza, Aragn, Spain	41.746590000000026	-1.1632699999999545
Ivankovo, Russia	58.63333000000006	31.68333000000007
Seaford, Long Island, New York, USA	40.71455000000003	-74.00713999999994
Belzec, Lubelskie, Poland	50.384600000000034	23.43817000000007
Solstice - 104 North Pine Street, Nevada City, California, USA	39.26272000000006	-121.01867999999996
St. Francis de Sales School for the Deaf - 260 Eastern Parkway, Brooklyn, New York City, New York, USA	NaN	NaN
213 W. Fern St., Tampa, Florida, USA	28.00504349321933	-82.46333233236193
Mnster Zwiefalten, Zwiefalten, Baden-Wrttemberg, Germany	48.23267995167092	9.461979922240516
Beyin, Ghana	4.986620000000073	-2.5860199999999622
Intersection of Motor Ave and Monte Mar Dr, Los Angeles, California, USA	34.04926253374487	-118.39226537692903
Pier 28, The Embarcadero, San Francisco, California, USA	37.787966999999995	-122.38733925
Saint-Eldwidge, Qubec, Canada	45.20231000000007	-71.67834999999997
Garage - 16 Church End, Haddenham, Buckinghamshire, England, UK	51.765971493692795	-0.9276819439637516
The Empress Diner, Long Island, New York, USA	40.71455000000003	-74.00713999999994
Albert St, Gumeracha, South Australia	-34.82260290903281	138.88599027808633
Minnetonka, Minnesota, USA	44.940060000000074	-93.46731999999997
Bergen im Chiemgau, Bavaria, Germany	47.96878920488969	12.605588191819777
Cesk kras, Czech Republic	49.738854038000056	15.331770280000057
Central Station, Oakland, California, USA	37.803357000000005	-122.29561125000001
Bancroft, Ontario, Canada	45.05659000000003	-77.85333999999995
Kampala, Uganda	0.31426000000004706	32.57557000000003
VT2 Studios - 2401 W. Bellfort Street, Houston, Texas, USA	29.67301748845881	-95.41510238773155
The Spread Eagle, Kingsland Road, Shoreditch, London, England, UK	51.52498000000003	-0.08143999999992957
Vianden Castle, Luxembourg	49.92943334300003	6.160945806000029
Rue des Brasseurs, Namur, Province de Namur, Belgium	50.461978530637126	4.864354966454081
Spanish Fork Canyon, Spanish Fork, Utah, USA	40.065210000000036	-111.57277999999997
Torvet, Silkeborg, Jylland, Denmark	56.16979275889871	9.550301015781828
Farsta, Stockholm, Stockholms ln, Sweden	59.24103000000008	18.09504000000004
Thtre Edouard VII, Paris 9, Paris, France	48.86837998167818	2.33326999220974
Jack's Cafe, 115 W 6th St, Los Angeles, California USA	34.29390111312652	-118.45386148614112
Glendale Diner, 7108 Myrtle Avenue, Glendale, Queens, New York City, New York, USA	40.7020199483527	-73.87966993060765
Sheridan, Wyoming, USA	44.79774000000003	-106.95586999999995
Maglaj, Bosnia-Herzegovina	44.54958000000005	18.095750000000066
Obersdorf, Bavaria, Germany	49.76416000000006	12.107870000000048
Hans-Otto-Theater, Potsdam, Brandenburg, Germany	52.403619948352684	13.075619925558756
Tribal Cinema, George St., Brisbane, Queensland, Australia	-27.4712645648213	153.0238433950679
Cathedral of San Pedro, Soria, Castilla y Len, Spain	41.5852785	-3.0705907499999903
Pahlevi, Iran	37.47258000000005	49.45930000000004
Newport, Michigan, USA	42.00252000000006	-83.30886999999996
Stazione di Locarno, Via della Stazione, Locarno, Cantone Ticino, Switzerland	46.14856000000003	8.926050000000032
Chillington, Staffordshire, England, UK	53.051056979927836	-2.160339795584117
UNIT BAR, 1198 Queen St. W., Toronto, Ontario, Canada	43.64267419790516	-79.42650851041601
Roman Fortlet, Durisdeer, Dumfries & Galloway, Scotland, UK	55.07582436200005	-3.9575650199999473
Glenorie Station, Queensland, Australia	-20.072222999999994	147.93503850000002
Museo Martimo de Barcelona, Catalonia, Spain	41.375410000000045	2.175920000000076
Stoney Street, Nottingham, England, UK	52.95214942169996	-1.1428715072999702
Sequoia National Forest, California, USA	NaN	NaN
The Ave at Tuscaloosa, 5621 Alabama 69, Tuscaloosa, Alabama, USA	33.23743388444404	-87.48814369023862
Bristol Old Vic, Theatre Royal, King Square, Bristol, Gloucestershire, England, UK	51.77991413900003	-2.182278806999932
Hacienda de Malpaso, Zacatecas, Mexico	22.757998499999996	-102.52429649999999
Washington Square Park, San Francisco, California, USA	37.80134000000004	-122.40940999999998
Tsitsernakaberd, Yerevan, Armenia	40.181242613337496	44.48718383465878
Filmcamp, Norway	62.00000000000006	10.000000000000057
105 Freeway, Los Angeles, California, USA	33.92859128529186	-118.2477514604644
Spruce Woods Provincial Park, Manitoba, Canada	49.708650000000034	-99.26715999999999
National Blvd & Rose Ave, Los Angeles, California, USA	34.028667	-118.411794
Prisin Modelo, Valencia, Comunidad Valenciana, Spain	39.46868000000006	-0.37690999999995256
Pan Am building, Downtown, Los Angeles, California, USA	34.04834000000005	-118.25563999999997
Meadowlands Farm, Washington, Pennsylvania, USA	40.217323153714915	-80.22448023314419
1721 North Western Avenue, Los Angeles, California, USA	34.10240400000001	-118.30931673345236
Hobbiton - 501 Buckland Road, Matamata, New Zealand	-37.87097309541594	175.67967838801715
Roquebrune Cap Martin, Alpes-Maritimes, France	43.75824000000006	7.473540000000071
Town Square, Nelsonville, Ohio, USA	39.45774000000006	-82.22926999999999
Elverum, Norway	60.88152000000008	11.56266000000005
San Salvador de Valdedis, Oviedo, Asturias, Spain	43.56305000000003	-6.639609999999948
Gordale Scar, Malham, North Yorkshire, England, UK	54.064287015084034	-2.141817990576807
Odds On Records & Studios - 14 Sunset Way, Henderson, Nevada, USA	36.07266447345518	-115.06609366763806
Stamford Brook Avenue, Chiswick, London, England, UK	51.49834535155198	-0.25621426907646705
Robinvale, Victoria, Australia	-34.58317999999997	142.77017000000012
MFA Bowl Preston, Greenbank Street, Preston, UK	53.96185000000003	-2.7292999999999665
Dindigul, India	10.362050000000067	77.96951000000007
Freedom Hall - 937 Phillips Lane, Louisville, Kentucky, USA	38.19389000000007	-85.73909999999995
MtrOpoliS, Rungis, Val-de-Marne, France	48.75771000000003	2.347590000000025
Easton, Massachusetts, USA	42.07472000000007	-71.08883999999995
Hemmingbough, Louisiana, USA	30.781090000000063	-91.34490999999997
MarketBar Restaurant, San Francisco, California, USA	37.79523000000006	-122.39383999999995
Tallahasssee, Florida, USA	26.090848860863126	-80.37362817935123
Plains Hotel, Cheyenne, Wyoming, USA	41.13339995224781	-104.81431004111575
Chippewa Street & South Kingshighway, Saint Louis, Missouri, USA	38.59146000000001	-90.2732805
Braimes Pressings, Leeds, West Yorkshire, England, UK	53.794800000000066	-1.5465299999999615
Kaistrae, Dsseldorf, Germany	51.214810379813926	6.753659950548256
Fukui, Japan	36.06407769800006	136.2196236740001
Callaway Vineyards, Temecula, California, USA	33.52518997158022	-117.08965992613557
Station-Service Le Relais du Cheval Noir, Route Nationale 16, Epinay-Champltreux, Val-d'Oise, France	49.09806603497029	2.46624954302038
East Rutherford, New Jersey, USA	40.834550000000036	-74.09834999999998
Saint-Jean-de-Monts, Vende, France	46.79165000000006	-2.0635899999999765
Salford, England, UK	53.489730000000066	-2.2842999999999734
Herreruela, Toledo, Castilla-La Mancha, Spain	39.89851658443419	-5.24397788393994
Alfred Santini Southern Boulevard, Bronx, New York City, New York, USA	40.81271458394806	-73.9020356418514
Vstergtland, Sweden	58.01667000000003	13.050000000000068
Davis, Illinois, USA	42.418840000000046	-89.41842999999994
Studio 1, Ealing Studios, Ealing, London, England, UK	51.508560000000045	-0.3052299999999377
La Vilella Baixa, Tarragona, Catalonia, Spain	41.22055000000006	0.7635500000000661
Mount Sinai Medical Center Hospital 4300 Alton Rd, Miami Beach, Florida, USA	25.813129974464804	-80.13929006217892
Brstel-Immer, Lower Saxony, Germany	53.03001408674614	9.84085401275406
National Shawmut Bank - 55 Congress Street, Boston, Massachusetts, USA	42.36009059131175	-71.05730656237101
Norwood Swimming Pool, Norwood, South Australia, Australia	-34.92382999999995	138.64177000000007
The Fairfield Optimus Club, Fairfield, Ohio, USA	39.332280000000026	-84.55885999999998
Hawaiian Tel Federal Credit Union Field at Aloha Stadium - Honolulu, Hawaii, USA	21.30943003664377	-157.8618000366437
Acton Vale, Qubec, Canada	45.64697000000007	-72.56584999999995
Livingston Parish Fairgrounds, Livingston, Louisiana, USA	30.50311000000005	-90.75287999999995
Elmwood, Oak Cliff, Dallas, Texas, USA	32.723739	-96.85703025
Shell Lake, Wisconsin, USA	45.74354000000005	-91.92305999999996
The Orange Ell, Chestnut Hill Community Association, Philadelphia, Pennsylvania, USA	NaN	NaN
Anderson Park, Tampa, Florida, USA	27.933740000000057	-82.47737999999998
South Hamilton, Massachusetts, USA	42.60704000000004	-70.87865999999997
Valladolid, Yucatan, Mexico	20.690210000000036	-88.20115999999996
Baie-Saint-Paul, Qubec, Canada	47.44777000000005	-70.51777999999996
226 W 6th St, Los Angeles, California, USA	33.77411152510253	-118.194471
Ilketshall St. Margaret, Suffolk, England, UK	52.41537000000005	1.4537200000000325
Las Paulonias, Quertaro, Mxico	20.541793500000004	-100.3962915
Morton Arboretum, Lisle, Illinois, USA	41.817750000000046	-88.07119999999998
Point Allerton, Massachusetts, USA	42.30954000000003	-70.88254999999998
Kootenays, British Columbia, Canada	49.503810000000044	-116.73521999999997
12815 Yellow Hill Drive, Malibu, California, USA	34.07817826740654	-118.9379781252502
Nagykovcsi, Hungary	47.57588000000004	18.88585000000006
Carballedo, Pontevedra, Galicia, Spain	42.437479500000016	-8.644554000000007
Littlecote House, Chilton Foliat, Wiltshire, England, UK	51.55659	-1.8190552457820037
Miraflores, Guaviare, Colombia	1.3356000000000563	-71.95045999999996
Emmen, Netherlands	52.78223000000003	6.896360000000072
151 N. Oak Park Ave., Chicago, Illinois, USA	41.8885778072366	-87.7945649932157
Lake Clark, Alaska, USA	60.20545000000004	-154.34976999999998
7th Ave and Ash Street, San Diego, California, USA	32.719896	-117.1583955
NYPD 9th Precinct - 321 E 5 St, Manhattan, New York City, New York, USA	40.72638618818162	-73.98795095031453
Nikolassee, Berlin, Germany	52.43411000000003	13.199760000000026
Madouri Island, Lefkada, Greece	38.71667000000008	20.633330000000058
Lipari, Lipari Island, Aeolian Islands, Messina, Sicily, Italy	38.46470000000005	14.953080000000057
Capestrano, L'Aquila, Abruzzo, Italy	42.26616000000007	13.771700000000067
Panasivka, Ukraine	49.888780000000054	25.42480000000006
Station Overveen, Overveen, Noord-Holland, Netherlands	52.391009963356304	4.607850036643792
Carmel Beach, Carmel, California, USA	36.55481000000003	-121.92940999999996
Kaliakra, Bulgaria	43.371390000000076	28.085000000000036
Senator Robert F. Wagner Junior High School, 220 East 76th St., New York City, New York, USA	NaN	NaN
Craig-y-Nos Castle, Pen-y-cae, Powys, Wales, UK	52.325490452000054	-3.4097522229999413
Leon, Kansas, USA	37.68725000000006	-96.78131999999994
Grand Trunk Railroad, Gilead, Maine, USA	44.39391440235131	-70.97472265854911
Poole Lighthouse Theatre, Dorset, England, UK	50.71815000000004	-1.976859999999931
Donslund, Hejnsvig, Jylland, Denmark	55.648997811277795	8.96161460526438
Palisade, Colorado, USA	39.110280000000046	-108.34972999999997
San Ildefonso, Bulacan, Philippines	15.076930000000061	120.94179000000008
Perth, Perthshire, Scotland, UK	56.39591000000007	-3.4323499999999285
Gangneung, South Korea	37.75556000000006	128.89611000000002
Pearson Island, Pearson Islands, South Australia, Australia	-33.96088999999995	134.2650000000001
N Franklin Street, Chicago, Illinois, USA	41.892815932497825	-87.6356061469602
Neon Museum, 520 Fremont Street, Las Vegas, Nevada, USA	36.168932981735466	-115.13988880373964
Girard College	39.97297000000003	-75.17087999999995
Greenfield, Indiana, USA	39.78499000000005	-85.76928999999996
Aubeterre, Charente, France	45.276471	0.177390000000001
Havelstudios, Charlottenburg, Berlin, Germany	52.51104005107049	13.216849959461157
419 Lorraine Blvd, Los Angeles, California, USA	34.06661936081136	-118.32002664963332
Nuestra Seora de los ngeles children residence, Villarcayo, Burgos, Castilla y Len, Spain	42.93906000000004	-3.5718899999999394
La Saglire, rue des Rayons, Butry-sur-Oise, Val-d'Oise, France	49.07934905068453	2.1985770763753405
Kensington Market, Toronto, Ontario, Canada	43.65432004385711	-79.40189993003072
Facultad de Comunicacin Universidad de Sevilla, Sevilla, Spain	37.381530043857126	-5.989810045587772
St. Stephen, New Brunswick, Canada	45.194570000000056	-67.27531999999997
Arkhangelskoe, Moscow, Russia	55.523443499999985	37.43134425000001
East Wittering, West Sussex, England, UK	50.76910000000004	-0.8714799999999627
Coast, San Pedro, Los Angeles, California, USA	33.79650371247899	-118.3986892137029
Vulcan, Alberta, Canada	50.39734000000004	-113.25817999999998
Morehead, Kentucky, USA	38.17804000000007	-83.43787999999995
Marble Arch Hotel - 518 Richards St, Vancouver, British Columbia, Canada	49.28293947847548	-123.1135043907613
Fenny Stratford, Northamptonshire, England, UK	52.203800668166664	-0.8904315981999886
Smchov, Prague, Czech Republic	50.076616500000014	14.377770000000009
Narbonne, Aude, France	43.18835000000007	3.004320000000064
Maiden Newton station, Dorset, England, UK	50.77973000000003	-2.569439999999929
Iceberg Skating Palace, Olympic park, Sochi, Krasnodarskiy kray, Russia	43.59292000000005	39.72440000000006
Hill Station, Baguio, Philippines	16.398150000000044	120.60851000000002
Osaka Sangyo University of Los Angeles - 2921 Laurel Canyon Boulevard, Laurel Canyon, Hollywood Hills, Los Angeles, California, USA	NaN	NaN
Cheste, Valncia, Comunidad Valenciana, Spain	39.49414000000007	-0.6870899999999551
Madawaska, Ontario, Canada	45.50170000000003	-77.99042999999995
Peter Lougheed Provincial Park, Alberta, Canada	50.73809000000006	-115.12286999999998
Millthrop, Cumbria, England, UK	54.31601000000006	-2.521349999999927
Novi Vinodolski, Croatia	45.12942000000004	14.780330000000049
Bois de Saint-Cloud, Hauts-de-Seine, France	48.83261360167738	2.2221559038984435
Met Center - 7901 Cedar Avenue, South Bloomington, Minnesota, USA	44.86123636629783	-93.24934847874478
Sanliurfa, Turkey	37.15668000000005	38.785270000000025
Troll A Gas Rig, North Sea	40.93082000000004	-72.41699999999997
1609 Gardena Ave., Glendale, California, USA	34.125399493277094	-118.25955693285279
Steinwald, Bavaria, Germany	49.80512157989781	12.157648766608272
Lismore, County Waterford, Ireland	52.13707000000005	-7.93315999999993
One Tree Hill, Auckland, New Zealand	-36.90461159599994	174.78918761900002
South Downs, West Sussex, England, UK	50.873028846975664	-0.850823325890383
Saint-Martin, Qubec, Canada	45.95920000000007	-70.65642999999994
Lasell College, Rosen Auditorium, 1844 Commonwealth Avenue, Newton, Massachusetts, USA	42.34320999610494	-71.24133000447203
Riverdale Presbyterian Church - 662 Pape Street, Toronto, Ontario, Canada	43.648690000000045	-79.38543999999996
Chathaburi, Thailand	12.610521090136615	102.10251008396767
London End, Beaconsfield, Buckinghamshire, England, UK	51.602073650443046	-0.6344341028710693
Red Road Flats, Glasgow, Scotland, UK	55.88097285351884	-4.210722274767547
Viens, Vaucluse, France	43.89536000000004	5.565250000000049
Hubbleton, Wisconsin, USA	43.195940000000064	-88.86501999999996
Ambergris Caye, Belize	17.939540000000022	-87.94701999999995
Melancal, Oieras do Par, Amazonas, Brazil	-4.1749582949999535	-64.67440225499996
Pointe du Petit Minou, Finistre, France	48.36268573598164	-4.600477047898953
Hambacher Forst, Buir, Germany	51.10000000000008	8.466670000000022
Travelstore, Collingwood, Melbourne, Victoria, Australia	-37.79927999999995	144.98756000000003
Egarsios, Arachova, Boeotia, Greece	38.48333000000008	22.583330000000046
Myrt's Hot Dogs, 7350 Melrose Ave., Los Angeles, California, USA	34.08353948845881	-118.34999158673321
Pioneertown, Yucca Valley, California, USA	34.13349914411391	-116.45486351661073
Leesburg, Alabama, USA	34.17942000000005	-85.76084999999995
Dingwalls, Camden, London, England, UK	51.53236000000004	-0.1279599999999732
Barbados	13.172221979000028	-59.55642447799994
Crown City Film Manufacturing Company, Pasadena, California, USA	34.14745000000005	-118.14426999999995
Ossiach, Carinthia, Austria	46.67497000000003	13.98449000000005
Luther Burbank Park, Mercer Island, Washington, USA	47.58901000000003	-122.22683999999998
Chalcot Road, Primrose Hill, London, England, UK	51.53669000000008	-0.15791999999993322
Rude, Croatia	45.76753000000008	15.674720000000036
Waterbeach, Cambridgeshire, England, UK	52.27206000000007	0.18516000000005306
Tickhill, South Yorkshire, England, UK	53.43479000000008	-1.1104699999999639
Leonardo da Vinci Airport, Fiumicino, Rome, Lazio, Italy	41.78607000000005	12.263230000000021
Brownstone Pizzeria - 2108 Colorado Boulevard, Eagle Rock, Los Angeles, California, USA	34.13904994835269	-118.2124399489295
Kettle Morraine, Wisconsin, USA	43.741013729548634	-88.10078170174678
431 Lake Street, Gravesend, Brooklyn, New York City, New York, USA	40.59331694532287	-73.9747153874431
Saechon, South Korea	37.40972000000005	127.11361000000011
Theater fr Kinder im Reichskabarett Berlin, Germany	52.51604000000003	13.376910000000066
University of Arkansas, Fayetteville, Arkansas, USA	36.070340000000044	-94.17756999999995
Fischbachau, Bavaria, Germany	47.72033000000005	11.951320000000067
Green Lake Park, Wuhua District, Kunming, Yunnan, China	25.038890000000038	102.71833000000004
Greythorn High School, North Balwyn, Victoria, Australia	-37.79691782048605	145.09845509578227
East Bloc 217 City Road London, England, UK	51.52823591366941	-0.09128834151751829
Praia de Esteiro, Xove, Galicia, Spain	43.706560000000025	-7.539809999999932
Seriny, Girona, Catalonia, Spain	42.16915000000006	2.7444600000000605
New Romney, Kent, England, UK	50.98676000000006	0.946480000000065
Hoxne, Suffolk, England, UK	52.35156000000006	1.2005100000000652
Town Hall, Burslem, Stoke-on-Trent, Staffordshire, England, UK	53.04594000000003	-2.196809999999971
Vinings, Georgia, USA	33.86635000000007	-84.46610999999996
Ziddi, Tajikistan	39.49297000000007	67.95527000000004
Dr. Pound Historical House Dripping Springs, Texas, USA	30.191620000000057	-98.07974999999999
Eastville Stadium, Stapleton Road, Eastville, Bristol, Gloucestershire, England, UK	51.77991413900003	-2.182278806999932
Sztutowo, Pomorskie, Poland	54.25000000000006	18.000000000000057
St. Jakobshalle, Basel, Kanton Basel Stadt, Switzerland	47.539180056119484	7.616120027409349
Laurier House, Ottawa, Ontario, Canada	45.42588235033568	-75.68154032671117
Place Victoria Apartments 3455 Victoria Street, Montreal	-26.232489999999927	28.378270000000043
Vernet-les-Bains, Pyrnes-Orientales, France	42.54908000000006	2.3853900000000294
Keifer, Oklahoma, USA	33.9328164330852	-96.64818920438263
Mission District, San Francisco, California, USA	37.759690000000035	-122.41805
Frauenchiemsee, Bavaria, Germany	47.87346000000008	12.42488000000003
El Segundo Beach, California, USA	38.549081197612146	-121.70644413747364
Queen's Park, New Westminster, British Columbia, Canada	49.212680000000034	-122.91201999999998
Menai Bridge, Anglesey, Wales, UK	53.22264000000007	-4.165829999999971
The Seventh Regiment Armory _ The Board of Officer's Room/ Mary Divver room, 643 Park Ave, New York City, New York, USA	NaN	NaN
LA Castle Studios in Burbank California, USA	34.18193000000008	-118.30764999999997
Calle del Corazn de Mara, Madrid, Spain	40.66601944989524	-3.774320928604055
Ardmore, Oklahoma, USA	34.17268000000007	-97.12876999999997
Chteau de Beaumanoir, Le Leslay, Ctes-d'Armor, France	44.85683000000006	-0.0022299999999404463
Herisau, Kanton Appenzell-Ausserrhoden, Switzerland	47.41667000000007	9.333330000000046
Department of Experimental Psychology, South Parks Road, Oxford, Oxfordshire, England, UK	51.758405507066165	-1.2534205123053532
Basisschool De vijf sterren, Amsterdam, The Netherlands	52.35593000000006	4.900390000000073
950 Skyway Road, San Carlos Airport, San Carlos, California, USA	37.507147296718564	-122.24794615174875
Canton, New York, USA	44.59994000000006	-75.16982999999993
Roy, New Mexico, USA	35.943580000000054	-104.19579999999996
Porte Maillot, Paris 17, Paris, France	48.87813290637463	2.2796377132186096
Kasnas City, Kansas, USA	39.33144000000004	-86.03248999999994
Universittsklinikum Leipzig, Leipzig, Saxony, Germany	51.33161998110126	12.385209951670877
New Elstree Studios, Elstree Road, Elstree, Hertfordshire, England, UK	51.64250690894839	-0.32227541090801176
Global School of Media Crafting, Kau Sarai, New Delhi, India	NaN	NaN
Porrera, Priorat, Catalonia, Spain	42.351230000000044	2.980600000000038
Vaasanpuistikko, Alppiharju, Helsinki, Finland	60.18807000000004	24.94497000000007
Pirgos, Greece	39.366670000000056	22.083330000000046
Mary's Cafe, 7169 US-89 Flagstaff, Arizona, USA	35.242260000000044	-111.56800999999996
Rothesay, New Brunswick, Canada	45.39428000000004	-65.98618999999997
Jockey Club, Rio de Janeiro, Rio de Janeiro, Brazil	-22.974229999999977	-43.225179999999966
Borden-Carleton, Prince Edward Island, Canada	46.25467000000003	-63.66506999999996
Monarch, Skalitzer Str. 134, Berlin, Germany	52.49918251485943	13.419459000000018
Roopmati Mahal, Indore, Madhya Pradesh, India	22.71792000000005	75.83330000000007
Trinity, Newfoundland, Newfoundland and Labrador, Canada	48.36907000000008	-53.35970999999995
Corsica, France	42.151390742000046	9.10603304500006
Morris Heights, Bronx, New York City, New York, USA	40.84971000000007	-73.91984999999994
Castelo Mendo, Portugal	40.59409000000005	-6.948939999999936
Turku-Helsinki, Finland	60.19144650000001	24.973487999999996
Piazza della Minerva, Rome, Lazio, Italy	41.897784535697745	12.47769029152785
Breganze, Vicenza, Italy	45.70590000000004	11.565120000000036
Foro Italico Stadium, Foro Italico, Monte Mario, Rome, Lazio, Italy	41.9302400128393	12.45852997763977
Katukurunda airfield, Sri Lanka	6.556390000000022	79.98220000000003
Luz de Gas, Barcelona, Catalonia, Spain	41.39451003664377	2.1489500366437637
Dublin Mountains, Ireland	53.285053939236256	-6.357582508286637
Abbey of Pontlevoy, Pontlevoy, France	47.390460000000076	1.2542600000000448
Dragoon Mountains, Arizona, USA	31.939530000000047	-109.98200999999995
Jugo Juice, Langley, British Columbia, Canada	49.082970000000046	-122.58588999999995
Roundhouse, Bodrifty Farm, Newmill, Penzance, England, UK	50.15176000000008	-5.56051999999994
Hans Raj College, University of Delhi, New Delhi, Delhi, India	NaN	NaN
14450 Sylvan Street, Van Nuys, Los Angeles, California, USA	34.1845750153836	-118.44816974184896
Gatumba, Burundi	-3.3333299999999326	29.250000000000057
Stadsteatern, Norrkping, stergtlands ln, Sweden	64.71258554700006	17.260487956000077
Bendigo Senior Secondary College, Bendigo, Victoria, Australia	-36.754479999999944	144.27917000000002
Palacio de Congresos y Exposiciones, Madrid, Spain	36.15763000504903	-5.352839959461092
394 N Watkins, Memphis, Tennessee, USA	35.149389642795335	-90.0131674891513
Walton Hall Park, Warrington, Cheshire, England, UK	53.36923000000007	-2.595519999999965
Lexington, Massachusetts, USA	42.44998000000004	-71.23116999999996
Metro Green Line, Marine/Redondo Station - 2406 Marine Avenue, Gardena, California, USA	33.89463249567218	-118.32024124854291
San Baudilio de Llobregat, Barcelona, Catalonia, Spain	41.40034000000003	2.0072900000000686
Broadstone, Dorset, England, UK	50.76252000000005	-1.996879999999976
Camp David Gonzales - 1301 North Las Virgenes Road, Calabasas, California, USA	34.172104618368735	-118.70293957898613
676 6th Street, Wells, Nevada, USA	41.10902547486882	-114.96176581199126
Orange County, New York, USA	41.402068059000044	-74.30559515099998
Espai Lliure, Barcelona, Catalonia, Spain	41.40253000000007	2.161350051070481
University of Alabama at Birmingham, Alabama, USA	33.505939950230456	-86.79956007890958
La Playa Apartments, Los Angeles, California, USA	33.99126623398584	-118.39020973749557
Placerville, California, USA	38.727900000000034	-120.80335999999994
Union 206 Studio, 350 Calvert Ave. Alexandria, Virginia, USA	38.83007649653756	-77.05317102844941
Queens Pier, Isle of Man, UK	54.31832000000003	-4.375229999999931
The Soap Kitchen - 25 North Fair Oaks Avenue, Pasadena, California, USA	34.14636000000007	-118.15049999999997
Lapel, Indiana, USA	40.06779000000006	-85.85090999999994
Wooten neighborhood, Austin, Texas, USA	30.360970000000066	-97.72367999999994
137 South Reeves Drive, Beverly Hills, California, USA	34.06574669608749	-118.39803462741631
Mike Thompson Mobile Mechanic, Chester, England, UK	53.18813000000006	-2.8943499999999744
Narbonne High School - 24300 Western Avenue, Harbor City, Los Angeles, California, USA	33.80473995542277	-118.30614993609028
Winter stadium, Lacinova 1720, Slan, Czech Republic	49.738854038000056	15.331770280000057
Commercial & Savings Bank, Los Angeles, California, USA	34.042096483221584	-117.80977695741358
Alfama, Lisbon, Portugal	38.71096000000006	-9.128019999999935
Jrnvirke, Hallands ln, Sweden	57.03812193327837	12.46967920581827
Soestdijk, Utrecht, Netherlands	52.192900000000066	5.283000000000072
Lyce Agricole et Horticole, 1285 avenue Jules Grec, Antibes, Alpes-Maritimes, France	43.59817000000004	7.113410000000044
Independence, California, USA	36.80358000000007	-118.20033999999998
Villawood Metro Station, Villawood, Sydney, New South Wales, Australia	-33.88108999999997	150.9855500000001
Turtle Island Preserve, Triplett, North Carolina, USA	36.19993000000005	-81.55023999999997
86th Street, New York City, New York, USA	NaN	NaN
25036 Malibu Road, Malibu, California, USA	34.03184657949121	-118.720727035807
Schloss Benrath, Benrath, Dsseldorf, North Rhine-Westphalia, Germany	51.161060062179025	6.8704600510704905
Zwettl, Lower Austria, Austria	48.55524332600004	15.153886930000056
Zagreb, Croatia	45.807240000000036	15.967570000000023
Hotel Cristallo, Udine, Friuli-Venezia Giulia, Italy	46.0572100732875	13.244569929453924
Najayo Abajo, Dominican Republic	18.300000000000068	-70.09999999999997
816 Royal Meadow, Denton, Texas, USA	33.221278676380635	-97.11012065831858
Stockton Country Club, Stockton, California, USA	37.959640000000036	-121.35854999999998
Le Chat Noir, 304 8th St, Augusta, Georgia, USA	33.474163728116764	-81.96586012623733
New Martinsville, West Virginia, USA	39.64287000000007	-80.85793999999999
Entroncamento, Portugal	39.464950000000044	-8.467929999999967
Arcadia Park - 405 South Santa Anita Avenue, Arcadia, California, USA	34.135573158954536	-118.03148750533244
Powder Springs, Georgia, USA	33.86013000000003	-84.68437999999998
Heimsheim, Enzkreis, Baden-Wrttemberg, Germany	48.80958000000004	8.861260000000073
Royal Roads, Colwood, British Columbia, Canada	48.43983999220978	-123.47745994503438
1500 Busch Pky., Buffalo Grove, Illinois, USA	42.17173341834442	-87.92511834955862
Deutschherren-Gymnasium, Aichach, Bavaria, Germany	48.42926467353839	11.154972773270925
Lynchburg, Tennessee, USA	35.283480000000054	-86.37383999999997
Li Qun Roast Duck Restaurant, 11 Beixiangfeng Hutong, Dongcheng, Beijing, China	39.90750000000003	116.39723000000004
Discovery Drive, Irvine, California, USA	33.66516043243229	-117.7564112040542
Rabyne, Czech Republic	49.81236000000007	14.428240000000073
John Player Factory, Dublin, County Dublin, Ireland	53.3432116300395	-6.2772967852380095
Mt. Hood, Oregon, USA	45.37345000000005	-121.69563
Montfort Castle, Upper Galilee, Israel	33.04473780100005	35.22617532500004
Dragr, Amager, Denmark	55.614040000000045	12.590330000000051
TWiT Eastside Studio, Petaluma, California, USA	38.234079758914945	-122.61202430432799
Jayco, Middlebury, Indiana, USA	41.653199956142956	-85.70566002077283
SamSon Farm, Milton, Ontario, Canada	43.51105000000007	-79.88385999999997
130 N. Avenue 50, Los Angeles, California, USA	34.10540863980677	-118.20255955553344
Ma'ayan Tzvi, Israel	32.969040000000064	35.491550000000075
Trjca, Dolnoslaskie, Poland	51.171602293661685	15.104235391466307
43 W 23rd St, Manhattan, New York City, New York, USA	40.83041853185747	-73.9350539425216
Jack the Pelican Presents, 487 Driggs Avenue, Brooklyn, New York City, New York, USA	40.7184237768481	-73.95491109671653
Pier 49 Remnants, Manhattan, New York City, New York, USA	40.704869961625555	-74.01734000173072
Wawawa Bistro by the Reservoir, Singapore	1.3395600000000627	103.93452000000008
North Easton, Massachusetts, USA	42.06603000000007	-71.10156999999998
Zuri Residences, Dolores, Taytay, Rizal, Philippines	14.57770000000005	121.14341000000002
Fort Sheridan, Illinois, USA	42.21515000000005	-87.80851999999999
Mailberger Hof, Vienna, Austria	48.20416005107051	16.3726400766057
Repora, Prague, Czech Republic	50.15350560952176	14.526508519648061
Mark-Schellenberg, Oberbayern, Bavaria, Germany	47.921560000000056	10.298080000000027
Hanworth Park House, Hanworth, Middlesex, England, UK	51.44518170300055	-0.3847991489311984
Nanton, Alberta, Canada	50.34982000000008	-113.77389999999997
Der Spiegel Publishing House cafeteria, Altstadt, Hamburg-Mitte, Hamburg, Germany	53.55000000000007	10.016670000000033
Margaret A. Webb Theatre - 801 N. Main Street, Santa Ana, California, USA	33.751640073287454	-117.86757994082214
Derby Lane Dog Track, 10490 Gandy Blvd., St. Petersburg, Florida, USA	27.86658932491837	-82.62822551009889
Museum of Contemporary Art 1485 Delgany S	39.752349963356345	-105.0040800294303
Via Goffredo Mameli 47 Roma, Lazio, Italy	41.77906240833538	12.594636346793143
Groton, Suffolk, England, UK	52.038290000000075	0.8546000000000618
Saarbrcken, Saarland, Germany	49.23173000000003	6.998490000000061
86B Arroyo Hondo Road, Santa Fe, New Mexico, USA	35.61662385215066	-105.93073529722403
Sandspit, British Columbia, Canada	53.24940000000004	-131.82153999999997
Morro de So Carlos, Rio de Janeiro, Rio de Janeiro, Brazil	NaN	NaN
Guadix, Cdiz, Andaluca, Spain	37.30422000000004	-3.1341299999999706
Old Courthouse, Divett Street, Port Adelaide, South Australia, Australia	-34.842844943660765	138.5060865468242
328 Cambie St, Vancouver, British Columbia, Canada	49.28282663912415	-123.10934848555017
KTMA Studios, St. Paul, Minnesota, USA	44.94339000000008	-93.09647999999999
Amalfi, Campania, Italy	40.633890000000065	14.603220000000022
The Lacehouse, 32A Stoney Street, Nottingham, England, UK	52.951927754064315	-1.142815327741131
Windsor Mill, Maryland, USA	39.33359000000007	-76.75970999999998
Tiananmen Square, Dongcheng District, Beijing, China	39.90444000000008	116.39139000000011
Klecany, Czech Republic	50.17715000000004	14.41736000000003
Minnesota State Fairgrounds, Falcon Heights, Minnesota, USA	44.981010055108946	-93.16713003995815
Flute de Paris restaurant, Weston-super-Mare, UK	51.34618000000006	-2.977459999999951
Codicote, Hertfordshire, England, UK	51.84928000000008	-0.23546999999996387
Clcy, Calvados, France	49.099399411000036	-0.36329370499993274
Brancaster Roman Fort, Norfolk, England, UK	52.96320000000003	0.6394000000000233
Supermarket, 4304 Lankershim Blvd., Los Angeles, California, USA	34.14829795006849	-118.36453744284393
Lezno, Pomorskie, Poland	54.25000000000006	18.000000000000057
Dapitan City, Zamboanga Del Norte, Mindanao, Philippines	8.607320000000072	123.42109000000005
Saarlouis, Saarland, Germany	49.31580000000008	6.750180000000057
Morrisville, Vermont, USA	44.562130000000025	-72.59844999999996
Asie, Qubec, Canada	45.58761995946121	-73.5401799738878
15 Fraser Avenue, Toronto, Ontario, Canada	43.635669003058425	-79.42334002619906
Rock Creek Tavern, Hillsboro, Oregon, USA	45.591810029430434	-122.8733099433036
Mendig, Rhineland-Palatinate, Germany	50.37254000000007	7.281440000000032
Tumalo State Park - 64120 OB Riley Road, Bend, Oregon, USA	44.128660000000025	-121.33140999999995
Sevrier, France	45.86421000000007	6.140210000000025
Insel der Jugend, Treptow, Berlin, Germany	52.493760000000066	13.444690000000037
Kiihtelysvaara, Finland	62.490180000000066	30.258030000000076
Rockville Correctional Facility, Rockville, Indiana, USA	39.76254000000006	-87.23512999999997
Southview, Hungerford, Berkshire, England, UK	51.41349000000008	-1.515929999999969
2408 Nanaimo St, Vancouver, British Columbia, Canada	49.26290186675413	-123.05656471447315
Cumming Speedway, Cumming, Georgia, USA	34.20401000000004	-84.13971999999995
Pavolding, Germany	47.958060000000046	12.43921000000006
Toronto Pearson International Airport, Mississauga, Ontario, Canada	43.680660000000046	-79.61285999999996
Am Hasenberge, Hamburg, Germany	53.62295783451358	10.024292519319355
Bloomfield, California, USA	38.31250000000006	-122.85127999999997
Jacqueline Cochran Regional Airport, Thermal, California, USA	33.63614000000007	-116.1637899704263
Bencetici, Draganici, Croatia	45.56752000000006	15.577000000000055
Somerset, Wisconsin, USA	45.12423000000007	-92.67507999999998
Pelourinho, Salvador da Bahia, Brazil	-12.971630011108443	-38.508450076605634
Aasco, Puerto Rico	18.225306909927557	-66.05256573996317
Humphreys Half Moon Inn & Suites - 2303 Shelter Island Drive, San Diego, California, USA	NaN	NaN
Neill Road, Sheffield, South Yorkshire, England, UK	53.36818083757352	-1.4984931839522078
Spooner Meadow, Lake Tahoe, Nevada, USA	38.977791846654334	-119.93283593952468
Barris Kustom Kars showroom, North Hollywood, Los Angeles, California, USA	34.16982000000007	-118.37898999999999
Centre for Buckinghamshire Studies, Aylesbury, Buckinghamshire, England, UK	51.80559000000005	-0.7855299999999374
River Exe, Exeter, Devon, England, UK	50.68017652882812	-3.4979291897229303
Schwbische Alb, Baden-Wrttemberg, Germany	48.38509000000005	9.452540000000056
Blackburn, Victoria, Australia	-37.817789999999945	145.15415000000007
Railway bridge, Beeston, England, UK	52.927910999999995	-1.2049289999999824
Duxbury Beach, Duxbury, Massachusetts, USA	42.03522000000004	-70.63211999999999
3 Bros Deli, Murfreesboro, Tennessee, USA	35.84439000000003	-86.39434999999997
917 Taylor Ave, Towson, Maryland, USA	39.38551592828841	-76.57790324472998
Edgemar Theatre, Santa Monica, California, USA	34.01158000000004	-118.49226999999996
Smithville, Missouri, USA	39.387110000000064	-94.58159999999998
Northside, Dublin, County Dublin, Ireland	53.348070000000064	-6.248269999999934
Villerville, Calvados, France	49.39940000000007	0.12735000000003538
San Giovanni Rotondo, Foggia, Apulia, Italy	41.705250000000035	15.729620000000068
Taraval Police Station - 2345 24th Ave, San Francisco, California, USA	37.74374994892958	-122.48115003722062
Herajrvi, Kolin kansallispuisto, Finland	63.095850045587895	29.806049951093968
Kanzlerbungalow, Bonn, North Rhine-Westphalia, Germany	50.73242000000005	7.101860000000045
Cochin International Airport, Nedumbassery, Angamaly, Kerala, India	10.156080000000031	76.39301000000006
Langhirano, Parma, Emilia-Romagna, Italy	44.61512000000005	10.264940000000024
Gordon Ramsay Steak - 3655 S Las Vegas Blvd, Las Vegas, Nevada, USA	36.171910000000025	-115.13996999999995
Museum of Folk Architecture and Folkways of Ukraine, Pyrohiv, Ukraine	48.91107000000005	28.46380000000005
Rue de Dion, Montfort L'Amaury, Yvelines, France.	48.77673062724429	1.8085979102887613
BBC Broadcasting Centre, Barrack Road, Spital Tongues, Newcastle-upon-Tyne, Northumberland, England, UK	55.239623050000034	-2.068139131999942
Oak Hill Park Estate, London, England, UK	51.55711568311992	-0.18345057206054394
Faulkner Hospital - 1153 Centre Street, Jamaica Plain, Boston, Massachusetts, USA	42.30125000000004	-71.12781999999999
Moksh, Jhamsikhel, Nepal	27.683610000000044	85.30512000000004
Mays, New Jersey, USA	39.46751539875955	-74.94848495234386
Madurodam, The Hague, Zuid-Holland, Netherlands	52.09814000000006	4.299780000000055
6363 Sunset Blvd., Los Angeles, California, USA	34.0980255337582	-118.328373
Delchevo, Macedonia	41.97368000000006	22.77135000000004
187th Street and Arthur Avenue, The Bronx, New York City, New York, USA	NaN	NaN
Springdale, Stamford, Connecticut, USA	41.087860000000035	-73.52475999999996
Yeoncheon, South Korea	37.28917000000007	127.66583000000003
Salisbury, North Carolina, USA	35.66713000000004	-80.46957999999995
Historic Orange County Courthouse - 65 East Central Boulevard, Orlando, Florida, USA	28.543539972734088	-81.37789005107044
Bennelong Point, Sydney, New South Wales, Australia	-34.053292777906876	150.73415091584368
Gough Street, San Francisco, California, USA	37.78884682668967	-122.42538767487666
Copley Plaza Hotel - 138 St. James Avenue, Boston, Massachusetts, USA	42.34947000000005	-71.07617999999997
Watkins Glen, New York, USA	42.38107000000008	-76.87372999999997
Escombreras, Murcia, Spain	37.567660000000046	-0.94724999999994
river Cares, Len, Castilla y Len, Spain	-5.1908299999999485	-80.60515999999996
Geisfeld, Bavaria, Germany	49.88091000000003	11.013540000000035
145 Copley Pl., Beverly Hills, California, USA	34.07590291032393	-118.42210384225834
Rockport, Washington, USA	48.487340000000074	-121.59331999999995
Castellammare del Golfo, Trapani, Sicily, Italy	38.023900000000026	12.881790000000024
Rue du Barrage, Seraing, Lige, Wallonia, Belgium	50.5944029004048	5.480454777024534
Ahlbeck, Mecklenburg-Western Pomerania, Germany	54.25000000000006	18.000000000000057
Ras il Hobz, Gozo, Malta	36.024816753082334	14.22073447525858
Place du Petit-Martroy, Pontoise, Val-d'Oise, France	49.05096248298115	2.096825673979708
Belorussky Vokzal, Moscow, Russia	55.77663000000007	37.582640000000026
East Boldon, Tyne and Wear, England, UK	54.945530000000076	-1.4243399999999724
Entrance to Grape Arbor Park - 5100 Parkville Rd, Calabasas, California, USA	34.14190000000008	-118.71136999999999
Post St, San Francisco, California, USA	37.78681603089984	-122.41996906396035
Coeck NV, Niel, Belgium	51.10981000000004	4.331490000000031
Beijing Capital International Airport, Chaoyang District, Beijing, China	40.08011000000005	116.58456000000001
Kleinzerlang, Rheinsberg, Brandenburg, Germany	53.18674000000004	12.914390000000026
Homestead Sports Complex - 1601 SE 28 Avenue, Homestead, Florida, USA	25.453850000000045	-80.43323999999996
University of Buffalo, Buffalo, New York, USA	42.99999035020037	-78.79787559318741
Fall River, Oregon, USA	43.78845000000007	-121.51141999999999
Cowley Mill Road / Waterloo Road, Uxbridge, Middlesex, England, UK	51.538239000000004	-0.4866210000000066
Kowloon Park, Hong Kong	22.302270000000078	114.17047000000002
Alleghany, California, USA	39.46404000000007	-120.84854999999999
Perronet House, Elephant and Castle, London, England, UK	51.49503000000004	-0.09890999999993255
Hoyt Arboretum, Oregon, USA	45.51544000000007	-122.71566999999999
Cwmgiedd, Wales	51.787439635304736	-3.7590080366857017
Glendale Civic Center - 633 E Broadway, Glendale, California, USA	34.146390587470904	-118.24826912766713
Casillas, vila, Castilla y Len, Spain	40.325753908930054	-4.570550651783235
Borussia-Park, Mnchengladbach, North Rhine-Westphalia, Germany	51.17465001226241	6.385409956576578
St Mary the Virgin Church, Village Lane, Hedgerley, Buckinghamshire, England, UK	51.835038033000046	-0.7993401929999777
Knivsta, Sweden	59.72560000000004	17.787690000000055
Why Not Kabob - 1219 S Glendale Ave, Glendale, California, USA	34.13184000000007	-118.25226999999995
San Felipe, Baja California Norte, Mexico	31.02144000000004	-114.84032999999994
1200 S Arroyo Blvd., Pasadena, California, USA	34.125737229240094	-118.16459246690563
jezd LD, Petrn, Mal Strana, Prague, Czech Republic	50.07913000000008	14.433020000000056
Newport, Tennessee, USA	35.966620000000034	-83.18444999999997
Whitehorse, Yukon, Canada	60.72085000000004	-135.05322999999999
The Donut Hole- 15300 Amar Road, La Puente, California, USA	34.037229977783035	-117.95145000389508
Ponsonby Road, Ponsonby, Auckland, New Zealand	-36.85480570631898	174.74605258010223
Seale, Surrey, England, UK	51.221730000000036	-0.716259999999977
City Hall - 9770 Culver Blvd., Culver City, California, USA	34.02141032162881	-118.39632920459985
Somerley Estate, Ellingham, Harbridge and Ibsley, Hampshire, England, UK	50.890730000000076	-1.784629999999936
Sheraz Villas Road, Cavalry Ground, Lahore, Pakistan	31.549720000000036	74.34361000000007
Campobello Island, New Brunswick, Canada	44.918660000000045	-66.91832999999997
Montevarchi, Italy	43.52130000000005	11.568490000000054
North Head National Park, Manly, Sydney, New South Wales, Australia	-33.80731999999995	151.2965200000001
Willcox Playa, Willcox, Arizona, USA	32.26433998052437	-109.84077004775222
Embarcadero Freeway, San Francisco, California, USA	37.794835928568574	-122.39794869645978
Victoria School Foundation - 2 P. Valenzuela Street, Marikina Heights, Marikina City, Metro Manila, Philippines	14.651489937821076	121.11345004385713
Hyrsylnmutka, Finland	64.52251280100006	26.158834376000073
Zenklova Street, Liben, Prague, Czech Republic	50.116299743223756	14.463894249639656
Big Pines National Reserve, California, USA	36.37410569300005	-119.27022999999997
Temple of Literature, Dong Da District, Hanoi, Vietnam	21.027310000000057	105.83544000000006
Whittenton Mills - 437 Whittenton Street, Taunton, Massachusetts, USA	41.92329319862536	-71.1051745755674
Military Ocean Terminal - Stanley Boulevard, Bayonne, New Jersey, USA	40.668118683017845	-74.12122715129436
Le Petit Paris, Rue du Temple, Paris 4, Paris, France	48.85820005107052	2.353169970569664
Batavia, Ohio, USA	39.07859000000008	-84.17940999999996
Baldwinsville, New York, USA	43.15864000000005	-76.33289999999994
Brinkhall Manor, Kakskerta, Turku, Finland	60.3660947102207	22.20603831826337
Waikerie, South Australia, Australia	-34.18205999999998	139.98606000000007
Kintai Bridge, Iwakuni, Yamaguchi, Japan	34.16775973700004	132.1781728420001
Wilshire Blvd & Euclid St, Santa Monica, California, USA	34.02601200000001	-118.489824
Entre des studios Eclair, 10 rue du Mont, Epinay-sur-Seine, Seine-Saint-Denis, France	48.952662066333886	2.3092170298344046
Saint-Didace, Qubec, Canada	46.33337000000006	-73.28244999999998
Plaveck Mikuls, Slovakia	48.51275000000004	17.302640000000054
Winnersh, Berkshire, England, UK	51.43097000000006	-0.8821699999999737
Temagami Forest Reserve, Ontario, Canada	47.03186000000005	-79.76135999999997
Tavistock, Ontario, Canada	43.32137000000006	-80.83615999999995
Redeemed - Houston, Texas, USA	29.76058000000006	-95.36967999999996
Greenpoint, Brooklyn, New York City, New York, USA	40.73058394847402	-73.95011572556504
Calicut, Kerala, India	11.25881000000004	75.78084000000007
140 Broadway, New York City, New York, USA	40.708822170956296	-74.0107168242832
Nanteuil, Deux-Svres, France	46.41153000000003	-0.1746299999999792
Roanoke, Virginia, USA	37.271520000000066	-79.94056999999998
Metzelthin, Templin, Brandenburg, Germany	53.17893000000004	13.506870000000049
Big Chute, Muskoka, Ontario, Canada	44.88536000562594	-79.67513000115378
Humboldt Redwoods State Park, Humboldt County, California, USA	40.308890000000076	-123.90814999999998
St. Paul's School, Jalapahar, Darjeeling, West Bengal, India	27.016440000000046	88.25564000000008
Archena, Murcia, Spain	38.11739000000006	-1.2987299999999777
Alabama River, Selma, Alabama, USA	NaN	NaN
Branscomb, California, USA	39.65172000000007	-123.62000999999998
Comunitat Valenciana, Spain	39.46868000000006	-0.37690999999995256
Washington Junior High School - 1041 Marion Street, St. Paul, Minnesota, USA	44.9726762514571	-93.10981981932018
Derwent Bridge, Tasmania, Australia	-42.12967999999995	146.23472000000004
Pocahontas State Park, State Park Road, Chesterfield, Virginia, USA	37.366160000000036	-77.57365999999996
Tapero, Paraba, Brazil	-7.20697999999993	-36.82466999999997
American Express Corporation, Phoenix, Arizona, USA	33.44825000000003	-112.07579999999996
Doane Hotel - 211 E 5th St, Downtown, Los Angeles, California, USA	34.045810154884784	-118.24713811045078
Edgerton, Wisconsin, USA	42.834640000000036	-89.07171999999997
Valdesangil, Salamanca, Castilla y Len, Spain	40.405140000000074	-5.748909999999967
Sant Adria, Barcelona, Catalonia, Spain	41.436430906763896	2.208429254111151
Parknasilla Hotel and Resort, Sneem, County Kerry, Ireland	51.83755000000008	-9.89883999999995
Arco della Pace, Milan, Lombardia, Italy	45.47498000000007	9.172840000000065
DMV Office - 621 N La Brea Ave, Inglewood, California, USA	33.97024658766868	-118.35677582385709
ARCO Refinery, Carson, California, USA	33.861949974464835	-118.26628006275585
Magyar llami Operahz, Budapest, Hungary	47.50283999552797	19.058220033902455
Torrespaa, Madrid, Spain	40.420080008367236	-3.664000040538796
Max Busch House, 160 South San Rafael Street, Pasadena, California, USA	34.14745000000005	-118.14426999999995
Le Puy, Puy-de-Dme, France	45.94092000000006	0.8405200000000264
Lawry's California Center, 570 W Ave 26, Los Angeles, California, USA	34.0859816579728	-118.22491081833924
Neubarnim, Letschin, Brandenburg, Germany	52.70601000000005	14.30451000000005
Ogunquit, Maine, USA	43.24727000000007	-70.60054999999994
Kahanamoku Beach, Waikiki, Honolulu, Oahu, Hawaii, USA	21.281760000000077	-157.83940999999996
Htel La Louisiane, Paris, France	48.8535199744648	2.336909923394394
50 Becon Street, Boston, Massachusetts, USA	42.35659008133753	-71.06770615543304
Zona Hotelera, Cancn, Q.R., Mexico	21.119050000000072	-86.75675999999999
Royal Dublin Society Exhibition Centre, Ballsbridge, Dublin, County Dublin, Ireland	53.32793564501702	-6.230786690518881
Centre Pnitentiaire de Ploemeur, Morbihan, France	47.73598000000004	-3.427629999999965
Harbour Exchange Square, Isle of Dogs, London, England, UK	51.49888159482677	-0.015600249201947865
Roseman Bridge, Madison County, Iowa, USA	41.29762943880611	-94.13779064721996
Orhaneli, Bursa, Turkey	39.90310000000005	28.98762000000005
Streedagh, County Sligo, Ireland	54.38614000000007	-8.55087999999995
Ottawa, Illinois, USA	41.34656000000007	-88.84265999999997
Haviland Dam, San Juan National Forest, Colorado, USA	37.69166000000007	-107.80894999999998
Wilsonville, California, USA	36.90871000000004	-121.75515999999999
El Sereno, Los Angeles, California, USA	34.076850000000036	-118.17933999999997
Oude Kerk, Delft, Zuid-Holland, Netherlands	52.01287002553528	4.355280062178998
Fabreville, Qubec, Canada	45.568170000000066	-73.83966999999996
Lana'i Culture & Heritage Center, Lana'i City, Lana'i, Hawai'i, USA	20.830560000000048	-156.92221999999998
Germantown, Ohio, USA	39.62498000000005	-84.36973999999998
U.S. Highway 59 & Interstate 10, Houston, Texas, USA	29.769606000000007	-95.341032
2 Chamonix Dr, Vernon Township, New Jersey, USA	41.18417083674802	-74.51909940449461
Yangon, Yangon Region, Myanmar	16.80528000000004	96.15611000000007
Didsbury, Manchester, Greater Manchester, England, UK	53.41196090626662	-2.2275401381108955
Furudal, Dalarnas ln, Sweden	61.16862000000003	15.138990000000035
Trinity Square, London, England, UK	51.51012504023064	-0.07770779338877357
Aragonese Pyreneo, Huesca, Aragn, Spain	42.035400018321916	0.1280899744648446
Walcot Square, Kennington, London, England, UK	51.487010000000055	-0.11317999999994299
Linda Island, Newport Beach, California, USA	33.61446824971655	-117.90356501623876
Shadoxhurst, Kent, England, UK	51.10775000000007	0.8233000000000743
Bad Vilbel, Hessen, Germany	50.17862000000008	8.73586000000006
Dornheim, Thuringia, Germany	50.83598000000006	10.997380000000021
Mount Falzarago, Dolomites, Italy	46.51428316721472	12.001893004932565
Baker, California, USA	35.04220000000004	-117.66755999999998
Blue Sea, Qubec, Canada	46.18264000000005	-76.05743999999999
Penny Gardens Tavern, Philadelphia, Pennsylvania, USA	40.08372409705147	-75.07324553028022
Tottiford Reservoir, Devon, England, UK	50.63142000000005	-3.682529999999929
Kecel, Hungary	46.52489000000003	19.254630000000077
Aylln Segovia, Spain	41.418510000000026	-3.377089999999953
Narmada Valley, India	23.23768000000007	77.49766000000005
Pergamino, Buenos Aires, Federal District, Argentina	-34.649681391493	-58.46054015332211
Mile End neigbourghood, Montral, Qubec, Canada	45.531972160757135	-73.62277762802645
David Jones Department Store, Elizabeth Street, Sydney, New South Wales, Australia	-33.86558999999994	151.20230000000004
Bisa Bayside Resort, Tanuan, Batangas, Philippines	13.767790000000048	120.92690000000005
Mont Blanc, Alps, Italy	45.83300000000003	6.864000000000033
Coleman Estate, Muttontown, Oyster Bay, Long Island, New York, USA	40.83245000000005	-73.52780999999999
Robert C. Weaver Federal Building - 451 Seventh Street SW, Washington, District of Columbia, USA	NaN	NaN
Redwood High School - 395 Doherty Drive, Larkspur, California, USA	37.938459926712575	-122.52509998716073
1628 Lincoln Boulevard, Venice, California, USA	33.996773010011985	-118.45831974173358
Zambia	-14.46880366299996	28.76797288100005
Cala Murada, Mallorca, Balearic Islands, Spain	39.613620000000026	3.0200400000000514
Coal City, Illinois, USA	41.281720000000064	-88.28516999999994
Sheridan House, Wincott Street, London SE11 4NY, England, UK	51.491566048108226	-0.10850509856614016
Juhu Hotel, India	19.108280000000036	72.82394000000005
W 4th Basketball Court, New York, USA	40.71455000000003	-74.00713999999994
Perry Almshouse, Wotton-under-Edge, Gloucestershire, England, UK	51.63898000000006	-2.351759999999956
The Subway, Lisbon, Portugal	38.712169974464814	-9.137850036643652
St. Anthony High School's Gymnasium - 620 Olive Avenue, Long Beach, California, USA	33.77451000000008	-118.18238999999994
Downtown Springfield, Missouri, USA	37.20890000000003	-93.28886999999997
Gallery 204 - 204 Main Street, Vista, California, USA	33.20226024279899	-117.24236026391588
Beach Car Park, Dunwich, Suffolk, England, UK	52.27824869292716	1.6327971272000008
Wilnis, Netherlands	52.19673000000006	4.905560000000037
Cheltenham, Pennsylvania, USA	40.058620000000076	-75.10789999999997
Colorado Desert, California, USA	33.73494675718138	-116.32017790165209
Montgomery BART Station, San Francisco, California, USA	37.80046113071984	-122.40431132780306
Danube-Black-Sea-Canal, Romania	46.502560000000074	26.924870000000055
Rhumequelle, Rhumspringe, Lower Saxony, Germany	51.58211000000006	10.294740000000047
The New Great Passion Play, Eureka Springs, Arkansas, USA	36.406130000000076	-93.71982999999994
Little Bedford Street, North Shields, Tyne & Wear, England, UK	55.00721353656808	-1.4455878832375904
Victoria's Black Swan Inn, San Antonio, Texas, USA	29.415940000000035	-98.48385999999994
Goregaon Film City, Mumbai, India	19.174590000000023	72.86261000000007
The Texas Medical Center - Houston, Texas, USA	29.716560000000072	-95.37894999999997
Webster, Massachusetts, USA	42.04974000000004	-71.88096999999993
3rd Floor, Whiteleys Centre, 151 Queensway, London, England, UK	51.51538000000005	-0.18822999999997592
Hallidays Point, NSW	-32.07125999999994	152.54452000000003
Dhaka Jute Mill, Dhaka, Bangladesh	23.713230000000067	90.39957000000004
Radipole, Weymouth, Dorset, England, UK	50.633665597027374	-2.469361178686083
Nemea Stadium, Greece	37.81292000000008	22.746790000000033
Via dell'Antartide, E.U.R., Rome, Lazio, Italy	41.82534666143722	12.464177476633655
Clapham Common Tube Station, The Pavement, London, England, UK	51.46205000000003	-0.14001999999993586
Hohenberg an der Eger, Bavaria, Germany	50.09709000000004	12.222680000000025
12 El Horreya Rd., Raml Station, Alexandria, Egypt	31.195452730221046	29.94339681251087
Joinville, Santa Catarina, Brazil	-26.30487999999997	-48.846209999999985
Mt. Diablo, California, USA	37.88170000000008	-121.91426999999999
353 Fulsom St., San Francisco, California, USA	37.78815592754927	-122.39336352746845
Figueroa Terrace at N. Beaudry Ave., Los Angeles, California, USA	34.068906000000005	-118.245915
Venetia Limpopo Nature Reserve, South Africa	-22.339069999999936	29.303160000000048
Saint-Lazare, Qubec, Canada	45.40035000000006	-74.14207999999996
Half Off Books, Whittier, California, USA	33.97542000000004	-118.03406999999999
Union Canal, Scotland, UK	55.96667000000008	-3.133329999999944
1400 N. Spring Street Gladwin, Michigan, USA	43.99371610646967	-84.49583430824221
Library, Brunel University, Uxbridge, Middlesex, England, UK	51.53156000000007	-0.47559999999992897
A&M Service GmbH, Elz, Hessen, Germany	50.41142000000008	8.03586000000007
Allende, Nuevo Len, Mexico	16.705900000000042	-97.65856999999994
Taleghan, Iran	37.03639000000004	49.40861000000007
Design District, Miami, Florida, USA	25.77481000000006	-80.19772999999998
Tipton-Rosemark Academy - 8696 Rosemark Road, Millington, Tennessee, USA	35.36414000000008	-89.77163999999999
Lige, Wallonia, Belgium	50.64550000000003	5.572500000000048
Hammersley Range, Western Australia, Australia	-21.729469999999935	116.79678000000001
Paris France	48.857210000000066	2.341440000000034
Elora Cemetery, South Street, Elora, Ontario, Canada	43.68597422173362	-80.43953605431822
Giant Camphor of Kawago, Takeo, Saga, Japan	33.255624503000035	130.01443866700004
Townely Hall, Burnley, England, UK	53.77525000000003	-2.2213199999999347
4317 Plank Road Baton Rouge Louisiana, USA	30.48863879822837	-91.1570198339198
Sizzling Tandoor, Jenner, California, USA	38.44969000000003	-123.11515999999995
Outreau, Pas-de-Calais, France	50.70410000000004	1.5963500000000295
Durand, Michigan, USA	42.912330000000054	-83.98676999999998
Bertrange, Luxembourg	49.61095000000006	6.049300000000073
Vaswani Villa, India	19.03711000000004	72.85989000000006
237 W. 72nd St., Manhattan, New York City, New York, USA	40.778514870889424	-73.98146656772958
Tultepec, Estado de Mxico, Mexico	19.679142510936813	-99.14328101780488
Fayn, Franja de Aragn, Spain	41.644249923394405	-0.866460011108456
Winfrith Newburgh, Dorset, England, UK	50.66198000000003	-2.274309999999957
