location	lat	long
Rancho Palos Verdes, California, USA	33.74526000000003	-118.40377999999998
Htel Crillon, Place de la Concorde, Paris 8, Paris, France	48.86525000000006	2.321570000000065
Ylls, kslompolo, Kolari, Finland	67.33147000000008	23.78313000000003
8947 Sunset Blvd, West Hollywood, California, USA	34.090670460470754	-118.3867425
Eisenbahnmuseum, Bebra, Hessen, Germany	49.90650004385712	8.677390033325544
Alps, Italy	42.833330000000046	12.833330000000046
Garden Court Holiday Inn, Castle Marina Park, Nottingham, Nottinghamshire, England, UK	52.94469837420769	-1.1674499080327079
San Pablito, Puebla, Mexico	20.298400000000072	-98.16574999999995
Stocksbridge, South Yorkshire, England, UK	53.48195000000004	-1.5910999999999262
Tourgville, Calvados, France	49.324200000000076	0.0663300000000504
Glenadel, Arizona, USA	34.29301645100003	-111.66475398799997
Train station Wipkingen, Zrich, Kanton Zrich, Switzerland	47.393290000000036	8.529210000000035
5101 W. Century Blvd, Inglewood, California, USA	33.94545645383431	-118.36753996883887
De Mortel, Noord-Brabant, Netherlands	51.54003000000006	5.708950000000073
Pinsec, Valais, Switzerland	46.22084000000007	7.570500000000038
Povordye Restaurant, St. Petersburg, Russia	59.96018995224782	30.30302000447208
Shaner's Family Dining - 193 Main Street, South Paris, Maine, USA	44.2142161906918	-70.5224862951986
Geneseo, Illinois, USA	41.44862000000006	-90.15938999999997
Lakeview Terrace Liquor Store -11844 Foothill Boulevard, Sylmar, California, USA	34.310200000000066	-118.45307999999994
Cliffside Dr., Malibu, California, USA	34.00686960541076	-118.80200816480706
Prad am Stilfserjoch, Vinschgau, South Tyrol, Italy	46.620430000000056	10.598200000000077
Idaho, USA	44.38899539400006	-114.65944693799997
Stradbroke, Suffolk, England, UK	52.31786000000005	1.2721200000000294
Oldham Coliseum Theatre, Oldham, Greater Manchester, England, UK	53.54252000000008	-2.108319999999935
Texaco Service Station - 38-46 Albert Embankment, Lambeth, London, England, UK	51.49295559632998	-0.12148280280370097
Logansport, Indiana, USA	40.753750000000025	-86.36020999999994
Russian Food, Southwest Alder Street Cart Pod, SW Alder Street, Portland, Oregon, USA	45.51980000000003	-122.67840999999999
Hoover, Alabama, USA	33.38791000000003	-86.80602999999996
Olsztyn Castle, Olsztyn, Warminsko-Mazurskie, Poland	53.77900000000005	20.480230000000063
Undercliffe Cemetery, Otley Road, Bradford, West Yorkshire, England, UK	53.80334000000005	-1.7364699999999402
Rothenbaum Hamburg, Hamburg, Germany	53.57106900000001	9.987167250000002
Umerkot, Sindh, Pakistan	25.36157000000003	69.73624000000007
Magangu, Bolvar, Colombia	9.245360000000062	-74.75814999999994
Prielmayerstrasse, Munich, Bavaria, Germany	48.1403662796125	11.563361395725417
Monte Brento, Italy	45.99097000000006	10.898090000000025
Guildwood park, Toronto, Ontario, Canada	43.74933995946121	-79.19075998889146
Love Beach, North Shore, New Providence Island, Bahamas	25.083454537721458	-77.3046225
Kerepestarcsa, Hungary	47.16708877000008	19.424531700000045
Cambridgeshire, England, UK	52.36713614800004	0.0043367150000221955
Interior, South Dakota, USA	43.72634000000005	-101.98004999999995
Htel Novotel, Amiens-Est, 7 rue des Indes Noires, Boves, Somme, France	49.86534399697024	2.371681229211436
Jacob K. Javits Center - New York City, New York, USA	40.756770000000074	-74.00130999999999
Curitiba, Brazil	-25.439979999999935	-49.276539999999954
Kiama Downs, Sydney, New South Wales, Australia	-33.75074482973173	150.6462413838846
Termas del Valle de Colina, Cajn del Maipo, Chile	-33.74924999999996	-70.90131999999994
Drexel, North Carolina, USA	35.76155000000006	-81.60462999999999
3131 S Figueroa St #110, Los Angeles, California, USA	34.023770840988945	-118.27884023319255
Palmer Glacier, Mount Hood, Oregon, USA	45.35262000000006	-121.70757999999995
2285 West 20st Street, Los Angeles, California, USA	34.03900937176689	-118.3144159444307
Olympia - 28 boulevard des Capucines, Paris 9, Paris, France	48.87002128893755	2.3284042338277247
Weihnachtsmarkt, Bad Tlz, Bavaria, Germany	49.84080815996697	9.147727140090234
Scotland Cay, Bahamas	26.700000000000045	-77.06666999999999
Stift Gttweig, Lower Austria, Austria	48.36768584194436	15.61259486777738
Bruin Inn, St. Albert, Alberta, Canada	NaN	NaN
Penrith, Sydney, New South Wales, Australia	-33.75374999999997	150.6982700000001
St. Leonard's Church, Chesham Bois, Buckinghamshire, England, UK	51.68474000000003	-0.6135399999999436
Neundorf, Thuringia, Germany	50.43297000000007	11.01039000000003
Falls City, Nebraska, USA	40.05876000000006	-95.60114999999996
Hartlepool, County Durham, England, UK	54.750441564618015	-1.4287315663699627
Irish border area, Northern Ireland, UK	54.715742999999996	-5.809999499999998
The Royal Horticultural Halls, London, England, UK	51.490977423043525	-0.26428692411838506
Djibouti	11.733763645000067	42.58017759000006
6930 Tujunga Ave, North Hollywood, California, USA	34.196607167638064	-118.37898976149866
Danube River, Baden-Wrttemberg, Germany	49.009660025535254	8.38635996335633
Begumpet Airport, Hyderabad, Telangana, India	17.448050000000023	78.47078000000005
Actopan, Hidalgo, Mexico	20.269000000000062	-98.94259999999997
Pier, Imperial Beach, California, USA	32.57657000000006	-117.11639999999994
Quinault River, Washington, USA	47.34953000000007	-124.29962999999998
Leila's Hair Museum, 1333 South Noland Rd, Independence, Missouri, USA	39.076019948929634	-94.41394996609755
Bachajn, Chiapas, Mexico	17.036980000000028	-92.18852999999996
Main Avenue, Tucson, Arizona, USA	32.21332974314134	-110.9742537293073
Funkhaus Bayerischer Rundfunk, Mnchen, Bayern, Germany	48.144010018321914	11.554809984996421
The George Hotel, Dorchester-on-Thames, Oxfordshire, England, UK	51.644300000000044	-1.166029999999978
Concrete Walkway, Kanoni Island, Corfu, Greece	39.66667000000007	19.750000000000057
Amazon Rainforest, Ecuador	-2.499999999999943	-59.99999999999994
16424 Marvin Road, Charlotte, North Carolina, USA	35.02980481138662	-80.84143349157455
Bobingen, Bavaria, Germany	48.26482000000004	10.826960000000042
Blach Studios, Fort Lee, New Jersey, USA	40.85339000000005	-73.97427999999996
Longwood - 140 Lower Woodville Road, Natchez, Mississippi, USA	31.53567000000004	-91.39944999999994
Chad	15.376264850000041	18.674165747000075
Old Town Marketplace, Warsaw, Mazowieckie, Poland	52.12379015400006	19.39876898600005
Studio A, BBC Alexandra Palace, Muswell Hill, London, England, UK	51.59223853040799	-0.13376355254034442
King King Club, Hollywood, Los Angeles, California, USA	34.10156000000006	-118.33707999999996
The Josephine Theatrical Company Inc, 339 W Josephine St, San Antonio, Texas, USA	29.44734185680064	-98.48661120898498
Alfs, Lleida, Spain	41.61495000000008	0.627550000000042
Square Edouard VII, Paris 9, Paris, France	48.87123784042188	2.3290183865260468
Heerhugowaard, Noord-Holland, Netherlands	52.66562000000005	4.826960000000042
Hurdlow, Derbyshire, England, UK	53.19056000000006	-1.8099099999999453
San Ysidro Port of Entry, San Ysidro, California, USA	32.54870553126257	-117.0348635011237
Teatre Principal, Palma de Mallorca, Mallorca, Balearic Islands, Spain	39.571660000000065	2.650610018321904
The Grange - formerly Westcott, South Hill Avenue, Harrow, Middlesex, England, UK	51.56207923133761	-0.34256169912312107
Tangerhtte, Saxony-Anhalt, Germany	51.91667000000007	11.500000000000057
Proyecto Hombre, Alcal de Guadaira, Seville, Andaluca, Spain	37.33830000000006	-5.8398299999999495
Minnedosa, Manitoba, Canada	50.24715000000003	-99.83786999999995
Castelo de Vide, Portugal	39.413580000000024	-7.45345999999995
Juby Q, Werner-von-Siemens-Strae, Frechen, Germany	50.92176504743912	6.826121766396039
135 Avenida Algodon, San Clemente, California, USA	33.424049127935916	-117.61123468691223
Arctic National Wildlife Refuge, Alaska, USA	68.21010000000007	-141.01307999999995
Trinity Bight, Newfoundland, Newfoundland and Labrador, Canada	NaN	NaN
Wat Kao Chong Pran, Tao Pun, Photharam, Ratchaburi, Thailand	13.715690285913865	99.77182656190564
Bangladesh	23.804670475000023	90.28845390100008
Jachenau, Bavaria, Germany	47.60579000000007	11.434680000000071
HTV Studios, Bath Road, Bristol, Gloucestershire, England, UK	51.85279000000003	-2.255459999999971
Acton Springs Ranch, Acton, California, USA	34.46444700000001	-118.20525019289785
Eucla Beach, Eucla, Western Australia, Australia	-31.67531358007175	128.88159006716816
Mount Gay Rum Factory, Barbados	13.300000000000068	-59.599999999999966
Vinohrady, Prague, Czech Republic	50.07528000000008	14.454330000000027
Martorpsfallet, Sweden	64.71258554700006	17.260487956000077
Bonham Strand, Sheung Wan, Hong Kong, China	22.28706885590709	114.14831641788761
Quinault Indian Reservation, Washington, USA	47.41798734500003	-124.13869810699998
Wiener Schauspielhaus, Vienna, Austria	48.220019988891536	16.36154998499641
Surcin, Serbia	44.79505000000006	20.278220000000033
Hatfield Great Park, Hertfordshire, England, UK	51.71018618927826	-0.45115528556518103
Dan Ryan Expressway, Chicago, Illinois, USA	41.84594314060097	-87.6374274894712
Zavalla, Santa Fe, Argentina	-33.019019999999955	-60.87860999999998
Piazzale delle Nazioni Unite, Rome, Lazio, Italy	41.83536867906203	12.471486051877601
Covarrubias, Burgos, Castilla y Len, Spain	42.05901000000006	-3.5233199999999556
Albury, Hertfordshire, England, UK	51.90230000000008	0.083590000000072
Ajami District, Jaffa, Israel	32.05043000000006	34.75224000000003
Sala Silvergruva, Sala, Vstmanlands ln, Sweden	59.90748000000008	16.57430000000005
Coral Beach, Isle of Skye, Scotland, UK	57.41508996056105	-6.204631472642691
Ttukseom Hangang Park, Seoul, South Korea	37.568260000000066	126.97783000000004
Carthay Circle Theatre, 6316 San Vicente Blvd., Los Angeles, California, USA	34.06110909989054	-118.36758737082332
Flossenbrg, Bavaria, Germany	49.73586000000006	12.348570000000052
Getafe airport, Getafe, Madrid, Spain	40.29414000000003	-3.723829999999964
Cafe Dupont - 113 20th Street N, Birmingham, Alabama, USA	33.514960080500856	-86.80592999942303
Police Headquarters - 154 Berkeley Street, Boston, Massachusetts, USA	42.34884516234525	-71.07194649804978
Bethnel Green, London, England, UK	51.52669000000003	-0.06256999999993695
Gascue, Santo Domingo, Dominican Republic	18.467170000000067	-69.90670999999998
Cornwall, New York, USA	41.43452000000008	-74.03831999999994
Gelves, Sevilla, Andaluca, Spain	37.338760000000036	-6.0273599999999306
Sveti Stefan, Montenegro	42.25544000000008	18.89722000000006
Bosque de Oaxtepec, Morelos, Mexico	18.908314859201752	-98.96386880279934
Jarlaplan, Vasastaden, Stockholm, Stockholms ln, Sweden	59.34406128934752	18.062182078404245
Remedy Diner, Lower East Side, Manhattan, New York City, New York, USA	40.721839988891546	-73.98538004385703
Museum fr Angewandte Kunst Wien	48.2075500038952	16.381599966674564
Helena, Arkansas, USA	34.528670000000034	-90.59122999999994
Becerril de la Sierra, Madrid, Spain	40.707550000000026	-3.993069999999932
Manchester, Maryland, USA	39.66199000000006	-76.88359999999994
Zvikov Castle, Czech Republic	50.211340000000064	15.609630000000038
Telhado, Recesinhos, Penafiel, Portugal	41.228474174822885	-8.205014685749315
BBC Ealing Film Studios, England, UK	52.59274252100005	-1.4586262249999322
El Nido Airport, El Nido, Palawan, Philippines	11.205930000000023	119.42444000000012
Clew Bay, County Mayo, Ireland	53.97305016322331	-10.136908509839094
Lake Del Valle, Livermore, California, USA	37.72905787093353	-121.71256024424794
Tiverton Chapel, Tiverton, Devon, England, UK	50.90555000000006	-3.4937699999999268
EL Chacay, Comuna de Pinto, Regin del Bo Bo, Chile	-32.86666999999994	-70.61666999999994
Ruppiner See, Brandenburg, Germany	52.87442000000004	12.839290000000062
Panten de Dolores, Mexico City, Distrito Federal, Mexico	19.24254057486961	-99.05802442377008
Talensac, Nantes, Loire-Atlantique, France	47.22001000000006	-1.5586199999999621
Ravenstein, Noord-Brabant, Netherlands	51.79692000000006	5.651620000000037
Walt Disney Feature Animation - 500 S. Buena Vista Street, Burbank, California, USA	34.154875952477056	-118.32649339260858
Cary Building, 105 Chambers Street, Manhattan, New York City, New York, USA	40.71500782015691	-74.00811155813957
Literary Walk, Central Park, Manhattan, New York City, New York, USA	40.76745000000005	-73.97069999999997
Charlottenlund, Sjlland, Denmark	54.704165173893685	11.568285173887153
Apopka, Florida, USA	28.67312000000004	-81.50759999999997
7631 Topanga Canyon Blvd, Canoga Park, California, USA	34.208865	-118.60599521960255
Lake Rotomahana, Waimangu, Bay of Plenty, New Zealand	-38.26494448599993	176.44274880900002
Pattanacaud Coir Mats and Matting, Pattanakkad, Aroor, Kerala, India	9.878530000000069	76.30358000000007
Cortijo del Fraile, Njar, Almera, Andaluca, Spain	37.71198000000001	-2.1670874999999974
Sandweiler, Luxembourg	49.61513000000008	6.220270000000028
Hackensack River, New Jersey, USA	40.71316000000007	-74.11291999999997
24 W Colorado Blvd, Pasadena, California, USA	34.14569692020967	-118.15101449999999
Broome, Western Australia, Australia	-17.955709999999954	122.23747000000003
Seferihisar, Turkey	38.195880000000045	26.838460000000055
Otto Zutz, Barcelona, Catalonia, Spain	41.40040997446482	2.1500299233943636
Griffith Park Zoo, Griffith Park, Los Angeles, California, USA	34.12348000000003	-118.27393996335623
Theta Delta Chi - 2647 Durant Avenue, Berkeley, California, USA	37.86837245325739	-122.25471282667779
Las Vegas. Nevada, USA	36.171910000000025	-115.13996999999995
8th Avenue at 14th Street, Greenwich Village, Manhattan, New York City, New York, USA	40.7366775	-73.99523025
23419 8th Street, Santa Clarita, California, USA	34.373365230381154	-118.54033588796125
Mount Hakuba, Hokkaido, Japan	34.70534373900006	133.1828041020001
Ventura College Nursing Dept, Ventura, California, USA	34.275630000000035	-119.23123999999996
Beco das Barrelas, Alfama, Lisbon, Portugal	38.71053899998645	-9.12931200000677
Zoo de Vincennes, Paris 12, Paris, France	48.84471015202353	2.4381422083842996
Clove Lakes Health Care and Rehabilitation Center - 25 Fanning Street, Staten Island, New York City, New York, USA	NaN	NaN
San Sebastian, Spain	43.31737000000004	-1.9784099999999398
Strauenfarm Mhou ,Rlzheim, Germany	49.155850000000044	8.287680000000023
BFBS Radio Station, Paddington, London, England, UK	51.517840000000035	-0.18084999999996398
330 Tijeras Ave NW, Albuquerque, New Mexico, USA	35.08652661281671	-106.65026228864907
Saint-Germain, Plogastel-Saint-Germain, Finistre, France	47.96683000000007	-4.24852999999996
Centre Hospitalier Emmanuel Rain, 25 rue Pierre de Theilley, Gonesse, Val-d'Oise, France	48.98653000000007	2.4503100000000586
Otoska cave, Postojna, Slovenia	45.74073379500004	14.199489119000077
Metropolitan Richmond, Virginia	37.404323096917594	-77.43389042382763
Penrose, Auckland, New Zealand	-36.91813375199996	174.81762255800004
Patonga, New South Wales, Australia	-33.550359999999955	151.27259000000004
Damson Dene Hotel, Crosthwaite, Bowness-on-windermere, Cumbria, England	54.37957000000006	-2.906379999999956
Estudios Trilla-Orphea, Barcelona, Catalonia, Spain	41.403878775544065	2.153073689782379
425 Broadway, San Francisco, California, USA	37.79814161223979	-122.40430061780836
Filling station, 12265 Ventura Blvd., Los Angeles, California, USA	34.143130442725806	-118.40043250014422
Woodstock, New Brunswick, Canada	46.150270000000035	-67.57395999999994
Ocumare de la Costa, Venezuela	10.468900000000076	-67.76668999999998
Banff Centre for the Arts, Alberta, Canada	51.17370000000005	-115.55980999999997
The Royal Theater, Copenhagen, Denmark	55.67960000000005	12.58600000000007
Berth 54, Port of Los Angeles, Los Angeles, California, USA	NaN	NaN
St Mary's Street, Cardiff, Wales, UK	51.4775484729497	-3.1773150663179015
Kachchh, India	23.62408520100007	69.95888090800008
Membury, Wiltshire, England, UK	51.46973000000003	-1.5629199999999628
Alley at 51 Nassau Street, New York, USA	40.709024737174616	-74.00896042688544
Son Basso, Mallorca, Balearic Islands, Spain	39.613620000000026	3.0200400000000514
San Jos, Costa Rica	9.92975000000007	-84.08568999999994
Glenoaks Boulevard, Burbank, California, USA	34.20260133479688	-118.33348328009507
Strpy-Bracquegnies, La Louvire, Wallonia, Belgium	50.477250000000026	4.1210700000000315
Paepae 'o Tele'a, Lapaha, Tongatapu, Tonga	-21.175029999999936	-175.11661999999998
Amatrice, Lazio, Italy	42.628100000000074	13.292210000000068
Montecorvino Pugliano, Salerno, Italy	40.678510000000074	14.941950000000077
Batchawana Bay, Ontario, Canada	46.90718000000004	-84.59979999999996
Pinones, Puerto Rico, USA	18.186367675842444	-67.0401014541325
East Lyme High School, East Lyme, Connecticut, USA	41.36879000000005	-72.21248999999995
The Glass House - Ambleside, Cumbria, England, UK	54.43342000000007	-2.9633799999999724
Estacin Egaa, Rauch, Bs. As, Argentina	-36.77402999999998	-59.087879999999984
Apremont-sur-Allier, France	46.906220000000076	3.0478400000000647
Tremsbttel Castle, Schleswig-Holstein, Germany	53.74267000000003	10.309780000000046
Hollmann Beletage, Vienna, Austria	48.21054992339436	16.375930054965664
William Broidy Studio, Los Angeles, California, USA	34.140310000000056	-118.37665999999996
Place des Prcheurs, Aix-en-Provence, Bouches-du-Rhne, France	46.55941704400004	2.5505399530000545
Malabon City, Metro Manila, Philippines	14.657280000000071	120.95108000000005
Ombreiro, Lugo, Galicia, Spain	43.04571000000004	-7.632159999999942
Culloden Battlefield, Highland, Scotland, UK	57.50000000000006	-4.999999999999943
Colonel White High School - 501 Niagara Avenue, Dayton, Ohio, USA	39.779990000000055	-84.21815999999995
2518 W Broadway, Vancouver, British Columbia, Canada	49.26397052842076	-123.16315355398464
Cabralia, Bahia, Brazil	-12.854169999999954	-41.84110999999996
Deer Trail Lane, Big Bear Lake, Big Bear Valley, San Bernardino National Forest, California, USA	NaN	NaN
LudoTruck, Los Angeles, California, USA	34.05349000000007	-118.24531999999999
Ravne, Fruska gora, Vojvodina, Serbia	45.136430000000075	19.227140000000077
West Pennant Hills, Sydney, New South Wales, Australia	-33.744429999999966	151.03177000000005
Museum Square, Leicester, UK	52.629359526334056	-1.1290545681621034
Tannersville, New York, USA	42.19620000000003	-74.13133999999997
3 Rosslare, Norwich, England, UK	52.611234169664826	1.268683856536431
724 Brazil Avenue, San Francisco, California, USA	37.721774201483164	-122.42878212490615
Irish Bayou, Treadway Estate, Slidell, Louisiana, USA	30.27621000000005	-89.78162999999995
Tower Life Building, San Antonio, Texas, USA	29.423060000000078	-98.49174999999997
Radibor, Saxony, Germany	51.24451000000005	14.399720000000059
Burnt Cabins, Pennsylvania, USA	40.07768000000004	-77.89578999999998
Studio, Clapham, Lambeth, London, England, UK	51.459817201315026	-0.13948550109587132
Draisinenstrecke Tpchin-Motzen, Mittenwalde, Brandenburg, Germany	52.213760000000036	13.58531000000005
Canajoharie, New York, USA	42.906490000000076	-74.57177999999993
Riksdagshuset, Gamla Stan, Stockholm, Stockholms ln, Sweden	59.32761000000005	18.067640015580615
Shell Beach, California, USA	35.154480000000035	-120.66953999999998
Gaviidae Commons, Nicollet Mall - 555 Nicollet Avenue, Minneapolis, Minnesota, USA	44.96351000000004	-93.27776999999998
Sandspit Holiday Park, Warkworth, New Zealand	-36.390170027552514	174.72903998773768
Fox Oakland Theatre - 1807 Telegraph Avenue, Oakland, California, USA	37.80768006939233	-122.27006003332549
Momence, Illinois, USA	41.16357000000005	-87.66274999999996
Corner of Rue Dandurand and 5th Avenue, Montreal, Canada	45.541304457369954	-73.58386048233781
Morecambe, Lancashire, England, UK	54.070260000000076	-2.8547699999999736
Anchor Down Ranch, Okotoks, Alberta, Canada	50.7385829199802	-113.93150463807639
Holy Cross Cemetery, 5835 W Slauson Ave, Culver City, California, USA	33.988982952615025	-118.386064452615
Mosi-oa-Tunya National Park, Livingstone, Southern Province, Zambia	-17.827899999999943	25.752030000000047
Adderley, Cheshire, England, UK	53.33454776994503	-2.7208990250458087
Cliffs, Marineland of the Pacific - 6610 Palos Verdes Drive South, Rancho Palos Verdes, California, USA	NaN	NaN
Viljandi, Estonia	58.363420000000076	25.580820000000074
Storkbenhavn	NaN	NaN
Sierra Helada, Alicante, Comunidad Valenciana, Spain	38.566777500000015	-0.07945649999999699
Pier 44 - 4637 Admiralty Way, Marina del Rey, California, USA	33.981217964170696	-118.44113258313021
Mandjelos, Serbia	45.087090000000046	19.59818000000007
Republic of Palau	7.421479662000024	134.511600068
Fengdu County, Chongqing municipality, China	31.267700000000048	109.36648000000008
Sands Motel - 1655 S. Main St., Las Cruces, New Mexico, USA	32.29423003332557	-106.77847994056229
Star Mattress Solutions, 5467 Alhambra Avenue, Los Angeles, California, USA	34.07837770748445	-118.1663557640948
Ille-et-Vilaine, France	48.15503378900007	-1.638155759999961
Krka waterfalls, Croatia	7.890280000000075	123.76444000000004
Casa da nsua, Penalva do Castelo, Viseu, Portugal	40.677130000000034	-7.697269999999946
Trawsfynydd, Gwynedd, Wales, UK	52.90379000000007	-3.919909999999959
Wind River Reservation. Wyoming, USA	43.28081000000003	-108.81529999999998
Sperrgebiet National Park, Namibia	39.865830000000074	-75.17980999999997
Tennessee Valley Railroad, Chattanooga, Tennessee, USA	35.06601002062957	-85.20407001745458
4 Calle Sant Vicen, Reus, Catalonia, Spain	41.15727670552255	1.1078396194818132
Balge, Nicaragua	12.934455771000046	-85.00621251399997
Putty Hill, Baltimore, Maryland, USA	39.37621000000007	-76.50658999999996
The American Film Market, Santa Monica, California, USA	34.01158000000004	-118.49226999999996
Arinaga, Gran Canaria, Canary Islands, Spain	28.105803260583208	-15.458666495094437
Nationalmuseet, Copenhagen, Denmark	55.674529981678184	12.574660051070504
Gas Station 25921 Wilmot Rd in Trevor, Wisconsin, USA	42.51132996941586	-88.12045004385702
Metairie, Louisiana, USA	29.988420000000076	-90.13148999999999
Fort MacKay, Alberta, Canada	57.18191000000007	-111.63637999999997
Sumgait, Azerbaijan	40.61366000000004	49.607030000000066
Church Avenue, Meanwood, Leeds, West Yorkshire, England, UK	53.83146436760513	-1.5648342035115956
Jomfruland, Krager, Telemark, Norway	58.86447000000004	9.592700000000036
Technische Universitt, Ilmenau, Thuringia, Germany	50.68336005164741	10.931329959461195
Pang Mapha District, Mae Hong Son Province, Thailand	19.52266000000003	98.24609000000004
Ploce, Croatia	43.063120000000026	17.42494000000005
Muddy Brook Cemetery, Stony Brook Road, Great Barrington, Massachusetts, USA	42.21681541148034	-73.31567651160118
Odyssey Video - 4810 Vineland Avenue, North Hollywood, Los Angeles, California, USA	34.15794269608749	-118.3701993287266
Naval Base Ventura County, California, USA	34.16843000000006	-119.19563999999997
Hotel de Ville, Orbec, Normandy, France	48.99069000000003	0.2621800000000576
Ardmore, Pennsylvania, USA	40.007340000000056	-75.28996999999998
Koi - 3667 Las Vegas Boulevard South, Las Vegas, Nevada, USA	36.109700076749036	-115.17092998889144
Castroville, Texas, USA	29.356840000000034	-98.87149999999997
Pall Mall, St. James's, London, England, UK	51.50521309770913	-0.13789979266012808
Burger King Restaurant, Scarborough, Toronto, Ontario, Canada	43.7592599294539	-79.22559005251087
S Salvador, Viseu, Portugal	40.65250000000003	-7.935359999999946
Bar Le Portus, Le Trport, Seine-Maritime, France	50.06013000000007	1.3748600000000692
Giano dell'Umbria, Umbria, Italy	42.834670000000074	12.578770000000077
Parque Nacional Cotopaxi, Ecuador	-0.963689235206607	-78.60747167646366
Saks Fifth Avenue - 5th Avenue, Manhattan, New York City, New York, USA	40.758209973887915	-73.9773999183453
Tel HaShomer Draft Office, Tel Hashomer, Israel	32.04790000000003	34.845030000000065
Taito, Tokyo, Japan	35.71259536700006	139.779986193
Thomas Bay, Alaska, USA	57.031390000000044	-132.85360999999995
Eastcote, London, England, UK	51.46966113348031	-0.1214036875655803
Ples, Russia	57.45862000000005	41.51579000000004
Dumangas, Iloilo, Philippines	10.820370000000025	122.71226000000001
Skagen, Jylland, Denmark	55.959300779000046	10.053934054000024
Kola Peninsula, Murmansk Oblast, Russia	NaN	NaN
Rio Tinto, Porto, Portugal	41.17271000000005	-8.556649999999934
Brighton Pier, Brighton, South Australia, Australia	-35.01712999999995	138.51827000000003
Downtown Raleigh North Carolina, USA	35.78445997388792	-78.64297992224044
Donnington Castle, Berkshire, England, UK	51.41722000000004	-1.3328699999999571
101 The Esplanade, Venice, Florida, USA	27.100128291130584	-82.45942241361254
Montal, Quebec, Canada	48.432849107657404	-71.11613553075925
Oatley, Sydney, New South Wales, Australia	-33.97786999999994	151.07377000000008
The Ancient Technology Centre, Cranborne. Dorset, England, UK	50.919350000000065	-1.921549999999968
Westside Arts Theatre, New York City, New York, USA	40.761330705424456	-74.00164965247734
42 Woodhurst Road, Acton, London, England, UK	51.51086154429746	-0.2676161114079743
Garhwal, Uttarakhand, India	30.250000000000057	79.33333000000005
Peterhof Palace, St. Petersburg, Russia	59.88458005107048	29.90875001110855
1277 South Palm Canyon Drive, Palm Springs, California, USA	33.80605200000001	-116.54565659798595
Hochwald, Zittauer Gebirge, Saxony, Germany	50.63630000000006	13.197310000000073
Griffith, New South Wales, Australia	-34.28887999999995	146.05045000000007
U60311, Frankfurt, Germany	50.11208000000005	8.683410000000038
le-Perrot, Qubec, Canada	45.38446623323002	-73.89947068325216
Mina de Sal Punta de Lobos, Iquique, Regin de Tarapac, Chile	-19.999999999999943	-69.33332999999993
Gouvieux, Oise, France	49.18446000000006	2.4142700000000445
Holy Cross Cemetery, 1500 Mission Road, Colma, California, USA	37.67115579935355	-122.45183262611825
Bridalveil Fall, Yosemite National Park, California, USA	37.71688000000006	-119.65086999999994
Gladstone, Manitoba, Canada	50.22542000000004	-98.95074999999997
Guimbal, Iloilo, Philippines	10.661950000000047	122.3218700000001
424 N Main St, Los Angeles, California, USA	34.05617676296963	-118.23967847374364
10767 Riverside Drive, Los Angeles, California, USA	34.152286471579245	-118.36573263918865
Scarborough Prison, Scarborough, North Yorkshire, England, UK	54.27783000000005	-0.41067999999995664
Engolasters, Principality of Andorra	42.50000000000006	1.5666700000000446
Comuna Teatro de Pesquisa, Lisbon, Portugal	38.737730000000056	-9.156679999999938
Jaramillo, Santa Cruz, Argentina	-47.18362999999994	-67.14425999999997
Ben's Chili Bowl - 1213 U Street NW, Washington, District of Columbia, USA	38.91703002611217	-77.02877999999998
Western Costume, 5335 Melrose Ave., Hollywood, Los Angeles, California, USA	34.083530493796246	-118.3171725
Olomouc, Czech Republic	49.59242000000006	17.24903000000006
Aquavit, Minneapolis, Minnesota, USA	44.97902000000005	-93.26493999999997
Charagua's Hospital, Santa Cruz, Bolivia	-17.787231	-63.18752175
Tabarka, Tunisia	36.95315000000005	8.758910000000071
Bondi Beach, Sydney, New South Wales, Australia	-33.888679999999965	151.27784000000008
1533 W 7th St, Los Angeles, California, USA	34.053592765768244	-118.27037826865379
Karelia, Russia	63.70456589400004	33.11856725900003
F H Rowse - now demolished, Broadway, West Ealing, London, England, UK	51.51407000000006	-0.2999099999999544
Hertford Bridge, New College Lane, Oxford University, Oxford, Oxfordshire, England, UK	51.75500000000005	-1.2522499999999468
At The Candy Shop- 301 Hartz Avenue #109, Danville, California, USA	37.822569933925976	-122.0008700699692
Saint-Laurent, Qubec, Canada	45.500080000000025	-73.66584999999998
Quissam, Rio de Janeiro, Brazil	-22.10785999999996	-41.47345999999993
Riesa, Saxony, Germany	51.306020000000046	13.291780000000074
Brighton Beach, Brighton, South Australia, Australia	-35.01896999999997	138.51517
South Cerney, Gloucestershire, England, UK	51.67172000000005	-1.9311199999999644
Angadipuram Railway Station, Angadipuram, Kerala, India	10.981800000000021	76.20845000000008
Sevillano, Magdalena, Colombia	10.933240000000069	-74.25307999999995
Reykjanes, Iceland	63.92960299600003	-22.302969321999967
Kilwinning, Scotland, UK	55.65470000000005	-4.704569999999933
'Spectator' Offices, London, England, UK	51.51702000000006	-0.09796999999997524
Milotice, Czech Republic	48.95560000000006	17.141380000000026
Przesmyk, Rzeszw, Podkarpackie, Poland	50.03717026626489	22.005930669370894
M7 Industries, San Francisco, California, USA	37.738999497688575	-122.4033660297167
Guizhou, China	27.000000000000057	107.00000000000006
Chapel of St. Barbara, Velika Mlaka, Croatia	45.73646000000008	16.027670000000057
Rivas, Nicaragua	11.445850000000064	-85.83192999999994
San Marino, California, USA	34.12208000000004	-118.10520999999994
Tarata, Cochabamba, Bolivia	-17.609389999999962	-66.02517999999998
High Street, Eton, Berkshire, England, UK	51.48917996967152	-0.6091971385244977
Lasky Mesa, West Hills, Los Angeles, California, USA	34.200360000000046	-118.62932999999998
Chelsea Town Hall, London, England, UK	51.50212000000005	-0.19438999999994167
Tigeaux, Seine-et-Marne, France	48.82427000000007	2.902300000000025
Ador Hair and Design, Montana, USA	47.033499333000066	-109.64506773199997
Groningen, Noorderpoort Kunst Multimedia	53.21721000000008	6.573530000000062
Royal Kenz Hotel Thalasso & Spa, Jinene, Tunisia	35.910810000000026	10.577500000000043
The Holy Sepulchre, Northamptonshire, England, UK	52.240920000000074	-0.8979899999999361
Kentraugh House, Kentraugh, Isle of Man	54.090820000000065	-4.713839999999948
Mynmki, Finland	64.52251280100006	26.158834376000073
Popham Airfield, Popham, Hampshire, England, UK	51.18959000000007	-1.20118999999994
Webb Bridge, Docklands, Melbourne, Victoria, Australia	-37.82383999999996	144.94721000000004
University of Alabama, Tuscaloosa, Alabama, USA	33.21509000000003	-87.54639999999995
West Row, Ladbroke Grove, Notting Hill, London, England, UK	NaN	NaN
Val Di Fassa, Dolomiti, Italy	46.47574999653856	11.746889920803827
Villa Ile-de-Frances, Cap Ferrat, Alpes-Maritimes, France	NaN	NaN
Mellerud, Vstra Gtalands ln, Sweden	58.69989000000004	12.45288000000005
West 81st Street in New York City, New York, USA	40.783646688150235	-73.97541860016683
Khreshchatyk, Kyiv, Ukraine	50.45111004053889	30.525469969992763
Oberhaid, Bavaria, Germany	49.932450000000074	10.809930000000065
Koh-Ping-Gan Island, Phang Nga Bay, Thailand	11.720970000000023	99.79206000000005
San Nicolas, Quertaro, Mexico	20.483330000000024	-99.91666999999995
Jewish Community Centre - 1030 Lower Lions Club Rd, Ancaster, Ontario, Canada	43.24347971438067	-79.957638550782
Intersection of Sunset Boulevard and North Mapleton Drive, Los Angeles, California, USA	34.08433872818265	-118.43365618693305
Pune International Airpot, Lohegaon, Maharashtra, India	18.57006000000007	73.92200000000008
Punta Malabrigo Resort, Malabrigo, Lobo, Batangas, Philippines	13.617290000000025	121.24649000000011
Mayfair Theatre - 214 Santa Monica Boulevard, Santa Monica, California, USA	34.015181218968316	-118.49664483331422
4th floor, Donetsk National University Historical Faculty, Donetsk, Ukraine	48.00203000000005	37.814490000000035
Tyson Foods, Carthage, Mississippi, USA	32.745510000000024	-89.53802999999994
Winfield, West Virginia, USA	38.53409000000005	-81.89226999999994
Spokane Valley, Washington, USA	47.65713000000005	-117.24785999999995
Melukote, Karnataka, India	12.66393000000005	76.65401000000008
Arnolds Park, Iowa, USA	43.361240000000066	-95.14057999999994
Fort San Luis Obispo U.S. Army Base, San Luis Obispo, California, USA	35.43381977139085	-120.8846925
Madum Kirke, Ulfborg, Holstebro, Midtjylland, Denmark	56.244079988891556	8.290170034479402
July 24 Avenue, Nagasaki, Japan	32.75033458900003	129.8777077730001
St. Peter Catholic Church - 338 North Grand Avenue, San Pedro, Los Angeles, California, USA	33.745805664723875	-118.29009941254563
The Remarkables, Otago, New Zealand	-45.09836999999993	168.79007000000001
Stroud Water Canal, Frampton-on-Severn, Gloucestershire, England, UK	51.77190000000007	-2.3621899999999414
Basacato, Guinea	10.435445941000069	-10.942500889999963
Benton, Missouri, USA	37.097570000000076	-89.56221999999997
Chambord, Loir-et-Cher, France	47.613140000000044	1.5189900000000307
Svt Utbildningen, Sweden	64.71258554700006	17.260487956000077
Kashmir, Pakistan	28.522700000000043	65.40350000000007
Montefalco, Italy	42.892400000000066	12.649790000000053
Maryland Live! - Hanover, Maryland, USA	39.157369991632876	-76.72626003895135
St Vigeans Estate, 9 Laurel Road, Stirling, South Australia, Australia	-35.005815	138.70912500000003
Le Marais, Paris, France	48.86806998167817	2.358199948929614
Sige de Scouts et Guides, 1B rue de l'Hpital, Phalsbourg, Moselle, France	48.76565006050552	7.255890282820699
New Germany, Minnesota, USA	44.88444000000004	-93.96651999999995
Atlas Furniture - 66 N. Garden Avenue, Sierra Vista, Arizona, USA	31.555196906457446	-110.30582251266637
Westerschelde, Netherlands	51.37092000000007	3.8658100000000672
4519 Admiralty Way, Marina del Rey, California, USA	33.98340019152013	-118.44485974460866
Club 18, Paris, France	48.86622001832193	2.3382000766057374
Princeton, Iowa, USA	41.67332000000005	-90.34095999999994
Hungerford, London, England, UK	51.50634150701988	-0.12183844938847263
Franklin Islands, South Australia, Australia	-35.562689999999975	138.60774000000004
Katholischer Hermanfriedhof, Augsburg, Germany	48.363350000000025	10.892660000000035
69 Route d'Epagny, Sillingy, France	45.942902434358594	6.061777826533557
The Leeds City Art Gallery, Leeds, West Yorkshire, England, UK	53.79965000000004	-1.5487599999999588
Nederhorst den Berg, Noord-Holland, Netherlands	52.26458000000008	5.045560000000023
Ingeborg's Danish Chocolates - 1679 Copenhagen Drive, Solvang, California, USA	34.59483000000006	-120.13931999999994
Lechonera El Monumento, Autopista 30 de Mayo, Avenida George Washington, Santo Domingo, Dominican Republic	18.457118266777403	-69.91149064180674
WNET Lincoln Center Studios - 66th Street and Broadway, New York City, New York, USA	40.772200000000055	-73.98419999999999
South Johnstone, Queensland, Australia	-17.599999999999966	146.0000000000001
Uttaranchal, India	30.15482944400003	79.20747473300008
Rahkola, Saarijrvi, Finland	62.702866656908725	25.321293337709893
Rua Visconde de Porto Seguro, Santo Amaro, So Paulo, Brazil	-23.64356747801198	-46.687530839329476
Mystic Marine Aquarium - 55 Coogan Blvd., Mystic, Connecticut, USA	41.37248000000005	-71.95459999999997
Praa Fonseca Portela, Rio Bonito, Rio de Janeiro, Brazil	-22.71071999999998	-42.62382999999994
Bessemer, Pueblo, Colorado, USA	38.233880000000056	-104.61831999999998
Plateau Risovac near Jablanica na Neretvi, Bosnia and Hercegovina, Yugoslavia	43.66476000000006	17.579210000000046
Taj Exotica Hotel, Benaulim, Goa, India	15.245270000000062	73.92727000000008
The Workhouse, Upton Road, Southwell, Nottinghamshire, England, UK	53.07892063987714	-0.9411060150690986
Ogden Theatre, Denver, Colorado, USA	39.74004005554256	-104.97525999999999
Rue de la Loi, Brussels, Brussels-Capital, Belgium	50.84316255889044	4.381681412232978
317 Rice on Park - 317 Washington Ave St. Paul, Minnesota, USA	44.94386007660574	-93.09783001168539
Weston High School - 115 School Rd., Weston, Connecticut, USA	41.210750048329174	-73.37939996826192
Kanton Bern, Switzerland	47.00000000000006	7.583330000000046
RSA, John Adam Street, Strand, London, England, UK	51.50900997493429	-0.1232994576511068
Selkirk, New York, USA	42.53269000000006	-73.79875999999996
Scribbles Coffee, Kent, Ohio, USA	41.155440000000056	-81.3581399189222
Kniginstrae 23, Maxvorstadt, Munich, Bavaria, Germany	48.148148947775724	11.584866329274858
Hummel Park	41.37484000000006	-95.96144999999996
Belle Haven Pool - 100 Terminal Ave., Menlo Park, California, USA	37.47845425561204	-122.16762347602265
Pozuelo railway station, Pozuelo de Alarcn, Madrid, Spain	40.447460000000035	-3.8003399999999488
Estudios Lusitania Filme, Portugal	39.50000000000006	-7.999999999999943
Fischerhude, Ottersberg, Lower Saxony, Germany	53.11600000000004	9.05478000000005
Eilat, Israel	29.55003000000005	34.953050000000076
Angwin, California, USA	38.57238000000007	-122.44223
Bulevardul Unirii, Bucharest, Romania	44.42762249999999	26.09291475
Ponds Forge, Sheffield, UK	53.341030000000046	-1.2763599999999542
Magdelen Islands, Qubec, Canada	45.403635206139	-71.89984407155656
Los Angeles County Department of Coroner - 1104 N Mission Rd, Los Angeles, California, USA	NaN	NaN
Hammersmith Underground Station, London Underground, Hammersmith, London, England, UK	51.49332000000004	-0.22524999999995998
Arlington House, Margate, Kent, England, UK	51.38664826476203	1.3745947459867884
146 Falls Drive Buck Hill Falls, Pennsylvania, USA	41.19156000000004	-75.27103999999997
le d'Embarras, Qubec, Canada	46.90012000000007	-76.49935999999997
St. Mary's, Pennsylvania, USA	41.42793000000006	-78.56138999999996
Drohobycz, Ukraine	49.34991000000008	23.505610000000047
Freston Road, London, England, UK	51.51250821884482	-0.21898875844412732
The Dan O'Connell Hotel, Collingwood, Melbourne, Australia	-37.820609999999995	145.01205675
Suffolk Raceway - 200 Airport Road, Suffolk, Virginia, USA	36.68238291730026	-76.61266948681136
Tenna, Kanton Graubnden, Switzerland	46.66667000000007	9.750000000000057
Murchison Falls, Uganda	2.2775400000000445	31.683850000000064
Pizzeria del Presidente, Naples, Campania, Italy	40.85158000000007	14.259120000000053
Kalamaria, Greece	40.57487000000003	22.970690000000047
Brunswick County, North Carolina, USA	34.07059383600006	-78.23749682099998
Villalba de los Alcores, Valladolid, Castilla y Len, Spain	41.86302036618494	-4.860807147832186
Nokia Theatre, Los Angeles, California, USA	34.04693996667452	-118.25003998831455
Palmerston Boulevard, Toronto, Ontario, Canada	43.66027573020912	-79.4118629628177
Ritz Carlton, Moscow, Russia	55.75766992613567	37.6134099294539
The Grill on Hollywood - 6801 Hollywood Blvd #407, Los Angeles, California, USA	34.101580057273324	-118.33912007386434
Notre Dame de France church, Leicester Place, London, England, UK	51.51124000000004	-0.1301399999999262
Santa Cristina d'Aro, Girona, Catalonia, Spain	41.81176000000005	2.9985600000000545
Armadale, Western Australia, Australia	-32.15101999999996	116.02053000000001
Schwbisch Hall, Baden-Wrttemberg, Germany	49.11331000000007	9.74610000000007
Taller de Carpintera Hermanos Soto. Madrid, Spain	40.19854000000004	-3.8509299999999484
Grand Hotel Europe, St. Petersburg, Russia	59.960150000000056	30.225700000000074
Jonquires, Hrault, France	43.675020000000075	3.4750000000000227
Amstel River, Amsterdam, Noord-Holland, Netherlands	52.33694081584956	4.9101903683008805
Bell buckle, Tennessee, USA	35.589350000000024	-86.35506999999996
Calanque de Sugiton, Marseille, Bouches-du-Rhne, France	43.21281000000005	5.454330000000027
Papagaio da Serafina, Monsanto, Lisboa, Portugal	38.732800000000054	-9.17841999999996
Bryans Gallery, Camino de la Placitas, Taos, New Mexico, USA	36.187130000000025	-105.65420999999998
Oshawa Legion Branch 43, Oshawa, Ontario, Canada	43.888690000000054	-78.85951999999997
The Savile Club, 69 Brook Street, Mayfair, London, England, UK	51.512470000000064	-0.1492399999999634
Glenn Avenue, McKeesport, Pennsylvania, USA	40.32970363949186	-79.86222027748637
Mragowo, Warminsko-Mazurskie, Poland	53.86370000000005	21.302220000000034
Birmingham & Midland Institute Building, Margaret Street, Birmingham, UK	52.48136000000005	-1.9041199999999776
Bridewell Theatre, Fleet Street, Holborn, London, England, UK	51.51363560159606	-0.11220031393495479
Karaku restaurant, Ginza district, Tokyo, Japan	35.67086981500006	139.766647389
Jezioro Kortowskie, Olsztyn, Warminsko-Mazurskie, Poland	53.77900000000005	20.480230000000063
Exchange House, Primrose Street, London, England, UK	51.520772000542074	-0.0808528776595534
Caf Tingis, Place Petit Socco, Medina, Tangiers, Tangier-Ttouan, Morocco	35.76727000000005	-5.79974999999996
Norefjell, Norway	60.26667000000003	9.483330000000024
Shake Shack - 8520 Santa Monica Blvd, Los Angeles, California, USA	34.08895000000007	-118.37707999999998
Yarkon Park, Tel Aviv, Israel	32.10578000000004	34.81335000000007
Westland Studios, Dublin, Ireland	53.34264509710561	-6.2492101515411065
Mud Volcanos, Buzau, Romania	45.15101000000004	26.817360000000065
San Juan's dam, Madrid, Spain	40.53416998889158	-3.6517600639096375
Bundarra Dorrigo State Forest, New South Wales, Australia	-34.633329999999944	149.71667000000002
Circuit ICAR, Mirabel, Qubec, Canada	45.66349000000008	-74.01045999999997
Zimn stadion, Obchodn centrum Letnany, Veselsk 663, Letnany, Prague, Czech Republic	50.13656998831466	14.501070061168454
Killingworth, New South Wales, Australia	-32.93653999999998	151.5818200000001
Essonnes, France	48.60078000000004	2.4764900000000694
Kassaka Park, Shizuoka, Japan	34.913238000000035	138.88927200000012
Alicante, Comunidad Valenciana, Spain	38.344080000000076	-0.4804799999999432
Merrion Hall, Merrion Square, Dublin, County Dublin, Ireland	53.34080000000006	-6.24977999999993
Orunz, Spain	43.402730000000076	-3.9518999999999664
White River National Forest, Colorado, USA	39.43748000000005	-106.81308999999999
Belgrade Theatre, Coventry, England, UK	52.40964000000008	-1.5135999999999399
MacDonnell Region, Northern Territory, Australia	-24.426709999999957	133.4998200000001
Rose Knob Peak, Lake Tahoe, California, USA	39.09690000000006	-120.03386999999998
1893 E Mendocino St, Altadena, California, USA	34.185924489901105	-118.11157208381903
Clinique Girardin, 16 avenue Girardin, Enghien-les-Bains, Val-d'Oise, France	48.96601644240869	2.3045105589762955
Wessel Islands, Northern Territory, Australia	-11.499999999999943	136.41667000000007
Discourage Records - 1737 SE Morrison Street, Portland, Oregon, USA	45.51721950043269	-122.64777000000001
Torana,Pune , Maharashtra,India.	18.54368000000005	73.78501000000006
Woodrow Wilson Dr., Los Angeles, California, USA	34.122976763542894	-118.37143049240161
Cape Coast, Ghana	5.118950000000041	-1.2609299999999735
Fleur Daniels Chemical Company, Irvine, California, USA	33.68730000000005	-117.82590999999996
Parc zoologique de Saint Martin-la-Plaine, Saint Martin-la Plaine, Loire, France	45.54580000000004	4.5937300000000505
Mitcham, South Australia, Australia	-34.98053999999996	138.62233000000003
New Addington, South London, England, UK	51.50642000000005	-0.1272099999999341
Clayton, New Jersey, USA	39.66163000000006	-75.09274999999997
T & S Farm, Dukedom, Tennessee, USA	36.50247000000007	-88.71528999999998
Presa Cerro Prieto, Linares, Nuevo Len, Mexico	23.952824990000067	-102.54835341899997
Scully's Tavern - 9809 SW 72nd Street, Miami, Florida, USA	25.701640000000054	-80.35200999999995
Watsons Bay, Sydney, New South Wales, Australia	-33.84281999999996	151.2829200000001
Doomsville, Indiana, USA	40.553540000000055	-85.55933999999996
Maynardville, Tennessee, USA	36.24303000000003	-83.81347999999997
Fewston Reservoir, Fewston, North Yorkshire, England, UK	53.98321000000004	-1.7054299999999785
Bohan, Belgium	49.863650000000064	4.885150000000067
Escuela Proceres de la Independencia - Mexico, USA	20.508230000000026	-100.15167999999994
Salisbury Museum, Salisbury, Wiltshire, England, UK	51.06519000000003	-1.7993599999999788
Lyon, France	45.75939000000005	4.828980000000058
127 Amelia Street, Toronto, Ontario, Canada	43.66829582763007	-79.36420481181837
121 E. Union Street, Pasadena, California, USA	34.14683807296509	-118.14789970098074
Opera Wroclawska, Wroclaw, Dolnoslaskie, Poland	51.10542000000004	17.03120000000007
120 Longfellow Road, Emerson Hill, Staten Island, New York City, New York, USA	40.60677300305842	-74.0977567241042
Prairie View A&M University, Prairie View, Texas, USA	30.087950000000035	-95.98924999999997
2215 Powell Street, San Francisco, California, USA	37.805117143776286	-122.41184551278194
Cocos Islands, Australia	-12.164199999999937	96.87332000000004
Barajas's airport, Barajas, Madrid, Spain	40.491810000000044	-3.569479999999942
Digne les Bains, Alpes de Haute Provence, France	44.09352000000007	6.236350000000073
M & T Studios, Andheri, Mumbai, Maharashtra, India	19.143710000000056	72.82419000000004
Monument of the Peace, Pratzen Heights, Moravia, Czech Republic	49.50000000000006	17.000000000000057
Piazza Mazzini, Rome, Lazio, Italy	41.915940000000035	12.464150000000075
Casale Marittimo, Pisa, Tuscany, Italy	43.29789000000005	10.613990000000058
Staffanstorp, Skne ln, Sweden	55.65020000000004	13.205100000000073
Vista Verde Executive Village, Cainta, Rizal, Philippines	14.605067997846236	121.11104990415753
1143 Northwestern Avenue, Austin, Texas, USA	30.26928897475324	-97.71620378668717
211 Pleasant St, Dartmouth, Nova Scotia, Canada	44.660234250100764	-63.55212241012238
Kalaw Place, Puerto Galera, Mindoro, Philippines	17.553890000000024	120.35310000000004
Cardona's collegiate church, Cardona, Barcelona, Catalonia, Spain	41.91725000000008	1.6867900000000304
Theater Akzent, Vienna, Austria	48.19213000000008	16.37557000000004
Restaurante y Cancha de Tejo Ciracari, Cartagena, Bolvar, Colombia	10.410100000000057	-75.51973999999996
La Pedrera - 92 Passeig de Grcia, Eixample, Barcelona, Catalonia, Spain	41.395150003895175	2.1615200438571263
Birchmount Collegiate, Toronto, Ontario, Canada	43.69842993998547	-79.25989992224044
St. Catherine's Monastery, Mount Sinai, Egypt	28.565949978510734	33.9608500308634
Burlington Lane, Chiswick, London, England, UK	51.48522736561351	-0.2547879494048788
South India	22.366310000000055	86.89942000000008
Cuenca, Castilla-La Mancha, Spain	40.07127000000003	-2.1363399999999615
Centre de Secours, 20 rue Montsgur, Bram, Aude, France	43.23703798612155	2.1141851698597773
Lavington's Hole, Castle Hill Walk, Bridgnorth, Shropshire, England, UK	52.53212757969201	-2.419188400967037
Gurue, Zambezia, Mozambique	-15.462099999999964	36.98630000000003
Belfast Northern Ireland	54.59534000000008	-5.934549999999945
Loophole, Boddinstrasse 60, Berlin, Germany	52.48076662003006	13.432912983351589
Killarney, 2890 Point Grey Road, Vancouver, British Columbia, Canada	49.27106452063049	-123.17052430252755
Foce del Simeto, Sicily, Italy	37.40030000000007	15.089640000000031
The American Comedy Co., 818B 6th Avenue, San Diego, California, USA	NaN	NaN
West Vienna, Illinois, USA	37.42822000000007	-88.97287999999998
Hawley Street, Sheffield, South Yorkshire, England, UK	53.38330260318532	-1.4726993281370095
Ayora, Valencia, Comunidad Valenciana, Spain	39.06102000000004	-1.053739999999948
Narrabundah, Australian Capital Territory, Canberra, Australian Capital Territory, Australia	-35.33123999999998	149.1523800000001
Griffith Observatory, 2800 E Observatory Rd, Los Angeles, California, USA	34.11853000000008	-118.30036999999999
Danube River, Romania	45.333330000000046	29.666670000000067
Etoile Coffee, Lille, Nord, France	50.61871000057698	3.050340003895178
Oaklands Mansion, Murfreesboro, Tennessee, USA	35.87531760582827	-86.49447184597771
J.A. Forss hattfabrik, Falkping, Sweden	58.162060000000054	13.554740000000038
Klampenborg Galopbane, Klampenborgvej 52, Klampenborg, Sjlland, Denmark	55.76964000086359	12.56750007472795
Alton Towers, Farley, Staffordshire, England, UK	52.993189936523976	-1.8947699425833915
2309 W. Victory Blvd, Los Angeles, California, USA	34.1845814787926	-118.3365225
Bords Saint-Loup de Saintonge, Charente-Maritime, France	45.355630000000076	-0.6379399999999578
Australian Lighting and Fans - 1/414 Princes Hwy, Narre Warren, Victoria, Australia	-38.06019	145.407717
Dutzow, Missouri, USA	38.60557000000006	-90.99455999999998
Tropicana Night Club, Havana, Cuba	48.30298000000005	0.1048300000000495
Lilavati Hospital & Research Centre, A-791 Bandra Reclamation, Bandra West, Mumbai, Maharashtra, India	19.051050000000032	72.82865000000004
Evian, Haute-Savoie, France	46.382861900172244	6.509016843368441
Winterton on Sea , Norfolk , England	52.71547000000004	1.6909900000000562
Museum at Bethel Woods - 200 Hurd Road, Bethel, New York, USA	41.697740018321944	-74.88192998268866
Lake O'Hara, Yoho National Park, British Columbia, Canada	51.404030000000034	-116.48163999999997
Sophie-Charlotte-Platz, Charlottenburg, Berlin, Germany	52.511364	13.296177
Vreoci, Serbia	44.442720000000065	20.282440000000065
Biograph Theater - 2433 N. Lincoln Avenue, Lincoln Park, Chicago, Illinois, USA	41.92635228977428	-87.64998520716732
Clonalis, County Roscommon, Ireland	53.785114711569435	-8.502962276774564
New Airport, Cairo, Egypt	30.121940000000052	31.405560000000037
Cabauw, Lopik, Utrecht, Netherlands	51.96395000000007	4.898070000000075
Cluj, Romania	46.76861000000008	23.585030000000074
Oswego, New York, USA	43.45646000000005	-76.51118999999994
Ojo de gua, Santiago del Estero, Argentina	-27.805319999999938	-64.26121999999998
Promisso, So Paulo, Brasil	-21.540875976771456	-49.85716381004865
Whale's Tail - 323 South Main Street, Breckenridge, Colorado, USA	39.47861997056967	-106.04547000447205
Balcon de la chapelle, chteau d'Anet, Anet, Eure-et-Loir, France	48.85312000000005	1.4414100000000758
Chincoteague Island, Virginia, USA	37.929940000000045	-75.36242999999996
CBN Studios - Level 1/267 Springvale Road, Springvale, Victoria, Australia	-37.948059	145.15331400000002
Mercatello sul Metauro, Italy	43.64740000000006	12.338090000000022
Regus offices, Ballsbridge, Ireland	53.33086000000003	-6.233759999999961
Pitt's Head Mews, Mayfair, London, England, UK	51.50587843922139	-0.14986106564501442
20511 Blairmoore St, Los Angeles, California, USA	34.262682504327834	-118.58043098167813
Ontario Government Complex, Toronto, Ontario, Canada	43.659992033255115	-79.36901669560719
Cratloe Woods, Ireland	52.68306000000007	-8.733609999999942
Church of St. Filippo and Giacomo, Cortina d'Ampezzo, Belluno, Veneto, Italy	46.53558000000004	12.139190000000042
Worley, Idaho, USA	47.40077000000008	-116.91894999999994
The Marriot Courtyard Hotel, Dubai, United Arab Emirates	25.003640000000075	55.165080000000046
Winterset City Park - Winterset, Iowa, USA	41.33110000000005	-94.00421999999998
Rose Hall Great House Resort, Montego Bay, Cornwall, Jamaica	18.52064000000007	-77.81797999999998
Carabanchel, Madrid, Spain	40.39094000000006	-3.7241999999999393
Zappeion, Athens, Greece	37.97101005886078	23.736370040538887
University of Kansas, Lawrence, Kansas, USA	38.96112000000005	-95.25105999999994
Musum national d'Histoire naturelle, Paris, France	48.843800000000044	2.354970000000037
Ipoh, Malaysia	4.598570000000052	101.11988000000008
Lake Villa, Illinois, USA	42.417950000000076	-88.07968999999997
Academy of Science Plaza, Moscow, Russia	55.71104992267415	37.579480005049035
Tam Phuoc Ward, Long Thnh, Dong Nai, Vietnam	11.053126073000044	107.18643874300005
Gutierrez Zamora, Veracruz, Mexico	20.450270000000046	-97.08457999999996
Stump Lake Ranch, Upper Nicola Valley, British Columbia, Canada	53.882535086869545	-123.81275471503137
Eduard Kettner, Seilergasse 12, Vienna, Austria	48.207042	16.370576999999997
Woluwe-Saint-Pierre, Brussels, Brussels-Capital, Belgium	50.83704000000006	4.430850000000021
Rovereto, Trento, Trentino - Alto Adige, Italy	45.88713000000007	11.043310000000076
Botykapeterd, Hungary	46.04781000000003	17.869210000000066
Caserta, Campania, Italy	41.07014000000004	14.331610000000069
Gawler Health Service Hospital, Gawler, South Australia, Australia	-34.59408999999994	138.7552300000001
Pasarea, Romania	44.533330000000035	26.21667000000008
La Gloria, Veracruz, Mexico	19.427320000000066	-96.39949999999999
2000 Grand Central Ave, Lavallette, New Jersey, USA	39.96361557272773	-74.07010239818118
Rippey, Iowa, USA	41.93498000000005	-94.20309999999995
Hagley, Stourbridge, England, UK	52.41871000000003	-2.142599999999959
Karowa, Powisle, Srdmiescie, Warsaw, Mazowieckie, Poland	52.2442615525822	21.021612989370965
Gwangju, South Korea	35.154720000000054	126.91556000000003
East 70th Street, Manhattan, New York City, New York, USA	40.767912255409456	-73.9603131967276
The Institutes for the Achievement of Human Potential, Philadelphia, Pennsylvania, USA	39.95222000000007	-75.16217999999998
Vignacourt, Somme, France	50.00676000000004	2.194180000000074
St. Bartholom, Bavaria, Germany	47.54498197775699	12.971334632494615
Shotover Canyon Swing, Shotover River, Queenstown, Otago, New Zealand	-45.03133996335625	168.6597499633564
Stage 30, Paramount Studios - 5555 Melrose Ave. Los Angeles, California, USA	34.08354602916837	-118.32179050489285
West Bengal & Sikkim, India	26.71697000000006	88.42515000000003
Film Studios, Manchester, Greater Manchester, England, UK	53.46787000000006	-2.235089999999957
Castello dell'Imperatore, Prato, Tuscany, Italy	43.87945999495106	11.098170073864447
Chicago Sun-Times Building, Chicago, Illinois, USA	41.88865998499641	-87.63696008223154
Jesi, Ancona, Marche, Italy	43.52070000000003	13.238080000000025
Burbank Blvd., San Fernando Valley, Los Angeles, California, USA	34.250360002307744	-118.5187199816781
Ukraine, West Ukraine, Truskavets, Dobrohostiv	49.28070000000008	23.503640000000075
Wytwrnia Filmw Oswiatowych, Ldz, Ldzkie, Poland	52.12379015400006	19.39876898600005
479 Oaklawn Ave South Pasadena, California, USA	34.12091367320432	-118.15203578587635
Nuvalos, Zaragoza, Aragn, Spain	41.212690000000066	-1.7890499999999747
Northern Michigan, USA	43.75005300000001	-85.14478811116736
Rielves, Toledo, Castilla-La Mancha, Spain	39.95939000000004	-4.192709999999977
Beverly Hills Fire Department, Beverly Hills, California, USA	34.07346000000007	-118.40031999999997
1007 Gough Street, San Francisco, California, USA	37.782558569384356	-122.42419358024125
Siberia	-23.899999999999977	-66.86666999999994
Shanku's Water Park, Mehsana, Ahmedabad, Gujarat, India	23.472720000000038	72.39154000000008
Mauerbach, Austria	48.245490000000075	16.16784000000007
Water Tower Place Shopping Center, Chicago, Illinois, USA	41.89776000000006	-87.62405999999999
Girona, Catalonia	41.980810000000076	2.8187300000000732
Mmbris, Bavaria, Germany	50.07010000000008	9.165740000000028
Locanda Montin, Fondamenta delle Eremite, Venice, Italy	45.431537938768116	12.32460149387682
Mt. Shashapangma, Naylam, Tibet, China	36.567348398000036	103.93002703300004
7524 Sunset Blvd, Hollywood, Los Angeles, California, USA	34.097945383574654	-118.35349394068238
Harwich Green, Harwich, Essex, England, UK	51.907256097329224	1.2000011287882366
Waibaidu Bridge, Shanghai, China	31.442310000000077	121.74548000000004
Best Western Inn of Sedona - 1200 West Highway 89A, Sedona, Arizona, USA	34.86255638702482	-111.7819102664919
Knole Estate, Old Westbury, Long Island, New York, USA	40.71455000000003	-74.00713999999994
Dyce, Aberdeen City, Scotland, UK	57.208480000000066	-2.1886299999999324
Festival Theatre, Stratford, Ontario, Canada	43.37449000000004	-80.96981994272672
Chez Pascal 960 Hope Street, Providence, Rhode Island, USA	41.853390018321925	-71.39291000779026
Sounder Studio, Granada Hills, Los Angeles, California, USA	34.26394000000005	-118.49793999999997
Ameliwka, Swietokrzyskie, Poland	50.90207000000004	20.779570000000035
Nizampet, India	18.083330000000046	77.88333000000006
Sakaleshpur, Karnataka, India	14.087650000000053	76.60284000000007
Karaky, Istanbul, Turkey	41.02269000000007	28.97431000000006
Menai Straits, Gwynedd, England, UK	52.59274252100005	-1.4586262249999322
Mir Space Station, Earth Orbit, Space	47.33337000000006	8.92312000000004
Yenibosna, Bahcelievler, Istanbul, Turkey	40.99304722775524	28.834815897726088
Bernstein Studio, Boyle Heights, Los Angeles, California, USA	34.04004000000003	-118.21049999999997
7 Eriswell Road, Worthing, West Sussex, England, UK	50.810200390857545	-0.3786954862237425
Estadio Universitario, Mexico City, Distrito Federal, Mexico	19.33409000000006	-99.19222999999994
1736 N Cahuenga Blvd, Los Angeles, California, USA	34.102728	-118.32952032483145
Villa Blanche, Hal Far, Malta	22.31741959099179	114.28183810119413
La Nueva Barquita, Santo Domingo, Dominican Republic	18.54274290825869	-69.87410692898712
Norwood Baptist Church, Norwood, Ohio, USA	39.15784000000008	-84.45993999999996
Polymedia Entertainment, Orange, California, USA	33.67737509431183	-117.66737630048605
Place du Puits de l'Ermite, Paris 5, Paris, France	48.84226107170458	2.354449186383864
Hallingskarvet, Buskerud, Norway	60.64740000000006	8.026140000000055
Minseln, Rheinfelden, Baden-Wrttemberg, Germany	47.60301000000004	7.790670000000034
Northeast Mississippi Community College, Booneville, Mississippi, USA	34.66731000000004	-88.56062999999995
2301 Atlantic Avenue, Virginia Beach, Virginia, USA	36.851292921461095	-75.97584895542177
14170 Studebaker Road, Norwalk, California, USA	33.90243170443464	-118.09991854299064
UK Supreme Court, Westminster, London, England, UK	51.50008000000008	-0.1280199999999354
Wall Street, Manhattan, New York, USA	40.70711000000006	-74.01060999999999
Rydens Secondary School, Hersham, Surrey, England, UK	51.368220000000065	-0.3946799999999371
Kiruna Airport, Kiruna, Norrbottens ln, Sweden	67.82581000000005	20.334660000000042
Cisco, Utah, USA	38.96933000000007	-109.32191999999998
Rio Nazas, Coahuila, Mexico	28.67470121730002	-100.54227177743611
National Kangshan Agricultural & Industrial Vocational Senior High School, Kaohsiung City, Taiwan	22.62014000000005	120.31226000000004
San Salvi Mental Hospital, Florence, Tuscany, Italy	43.771184167212596	11.28550920257594
Meriden, Connecticut, USA	41.53628000000003	-72.79783999999995
Strandfontein, Western Cape, South Africa	-34.06974999999994	18.569590000000062
2030 Hillhurst Ave., Los Angeles, California, USA	34.108776000000006	-118.28738678155129
Vihti, Finland	60.418220000000076	24.340540000000033
Mariacka, Gdansk, Pomorskie, Poland	54.34943000000004	18.656010000000038
La Estancia Resort, Tagaytay City, Cavite, Philippines	14.124870000000044	120.96963000000005
Palazzo Reale, Milan, Lombardia, Italy	45.46243000000004	9.19157000000007
Granite Island, South Australia, Australia	-35.56440999999995	138.6301400000001
Escape, Amsterdam, Noord Holland, Netherlands	52.36631002943042	4.89632000000006
Hot Springs Junction, Arizona, USA	32.97755027040439	-109.31914568202313
Rythm Community Centre, Balaam St, Plasitow, London, England, UK	51.50642000000005	-0.1272099999999341
Kaibab Mountains, Arizona, USA	36.14176551115098	-111.23874289028423
Eimer Nightclub, Rosenthaler Str., Mitte, Berlin, Germany	52.528224864007406	13.402515272873845
Titanus Studios, Rome, Lazio, Italy	41.90322000000003	12.495650000000069
Eugene's Credit Jewelers, 1745 N. Vermont Ave., Los Angeles, California, USA	34.102672029430366	-118.29180370791713
Kapustin Yar, Znamensk, Astrakhan Oblast, Russia	48.57507000000004	45.75484000000006
El Pedroso, Seville, Andalusia, Spain	37.837860000000035	-5.765079999999955
Ayolas y 9, Asuncin, Paraguay	-25.224731846671414	-57.529201342129745
Parsteinwerder, Brandenburg, Germany	52.95938022760716	13.977010441634405
Los Angeles International Airport - 1 World Way, Los Angeles, California, USA	33.945610000000045	-118.39223999999996
Golden Century Seafood Restaurant, 393-399 Sussex St, Chinatown, Sydney, New South Wales, Australia	-33.87797999999998	151.20472000000007
Papua New Guinea	-6.475589906999971	145.253800898
"Pool and Beer" Irish Pub, Barrio de Chamber, Madrid, Madrid, Spain	40.42028000000005	-3.7057699999999727
Dunedin, Florida, USA	28.01335000000006	-82.78471999999994
Knoxville Civic Auditorium and Coliseum, Knoxville, Tennessee, USA	35.96581000000003	-83.91227999999995
Christopher Street, London, England, UK	51.521341500000005	-0.08523000000000641
Chickamauga National Battlefield, Chickamauga, Georgia, USA	34.883520033989726	-85.26972995556595
Schoonhoven, Zuid Holland, Netherlands	51.94644000000005	4.851220000000069
Villa Santo Domingo de Soriano, Soriano, Uruguay	-33.26790999999997	-58.03386999999998
Kyoto University, Kyoto, Japan	35.02605334800006	135.7814990500001
Montreal Museum of Fine Arts - 1380 Rue Sherbrooke Street Ouest, Montral, Qubec, Canada	45.49876000000006	-73.57954999999998
Cowansville, Qubec, Canada	45.20807000000008	-72.74445999999995
Banner, Oklahoma, USA	35.51291000000003	-97.84866999999997
Cedar Key, Florida, USA	29.141950000000065	-83.03517999999997
The Gloucester Hotel, Harrington Gardens, South Kensington, London, England, UK	51.49321000000003	-0.18310999999994237
Monmouth University, New Jersey, USA	40.28006000000005	-74.00546999999995
Fernbank Science Center, Atlanta, Georgia, USA	33.68468021417543	-84.5377524568415
John Day River, Oregon, USA	46.18140000000005	-123.74057999999997
St. Andrew the Great Church, Cambridge, Cambridgeshire, England, UK	52.20980000000003	0.11147000000005391
170 East Telegraph Road Fillmore, CA 93015	34.39895764051631	-118.90123620361797
St Peter's College, Hackney, South Australia, Australia	-34.91277999999994	138.61737000000005
Tec-Art Studio - 318 East 48th Street, New York City, New York, USA	40.753206870102176	-73.96854168457494
Quai de l'Archevch, Lyon, Rhne, Rhne-Alpes, France	46.55941704400004	2.5505399530000545
Arenes de Nimes, Nimes, France	43.83422006665104	4.360369966097596
Costwold Hills, England, UK	51.68333000000007	-2.1666699999999537
Trzcinsko-Zdrj, Zachodniopomorskie, Poland	53.76562681998653	16.67414747601185
Railyards, Helsinki, Finland	60.17116000000004	24.932650000000024
McDonald's Swim Stadium - 3441 McClintock Avenue, University of Southern California, Los Angeles, California, USA	34.01892000000004	-118.28319999999997
Surry, Virginia, USA	37.13764000000003	-76.83511999999996
Degrad Edmond, Guyane, Dpartements d'Outre-Mer, France	47.70347000000004	1.5086000000000581
Deir Ezzor, Syria	35.28537000000006	40.17596000000003
Shawano, Wisconsin, USA	44.78263000000004	-88.60939999999994
Staatsanwaltschaft Kln, Am Justizzentrum, Cologne, Germany	50.9215053855062	6.936591343481397
23418 8th Street, Santa Clarita, California, USA	34.37325857227785	-118.54061118872988
International Tagus River, Alentejo, Portugal	38.67640000000006	-9.279329999999959
Dansolihon, Cagayan de Oro City, Misamis Oriental, Philippines	8.30785000000003	124.58444000000009
Asta Nielsen Strdet, Valby, Copenhagen, Denmark	55.667088437634895	12.514749954250508
Grand Turk, Turks and Caicos Islands, British West Indies	NaN	NaN
Union Passenger Terminal, Loyola Avenue, New Orleans, Louisiana, USA	29.946070000000077	-90.07687999999996
Colima, Mexico	19.242490000000032	-103.72729999999996
Debki, Pomorskie, Poland	54.25000000000006	18.000000000000057
West Bay, Dorset, England, UK	50.711290000000076	-2.7597999999999274
Whitnall Hwy & Cartwright Ave., North Hollywood, California, USA	34.178247	-118.36406249999999
Northeast High School - 1801 Cottman Avenue, Philadelphia, Pennsylvania, USA	40.05645991776847	-75.0710800038951
33244 Southwest Sequoia Street, Scappoose, Oregon, USA	45.74639535607949	-122.88367003041132
Oura, Algarve, Portugal	37.16667000000007	-8.249999999999943
Bloomfield, Connecticut, USA	41.82819000000006	-72.73552999999998
721 N. Main St #3., Las Vegas, Nevada, USA	36.179053059697445	-115.14159821446665
Gorkha Laprak, Nepal	28.216710000000035	84.80098000000004
Cavendish, Prince Edward Island, Canada	46.49160000000006	-63.376919999999984
Cleveland High School - 4352 Louisiana, St. Louis, Missouri, USA	38.57792785786852	-90.24344707695239
Roanoke, Texas, USA	32.998200000000054	-97.22950999999995
Henderson, Texas, USA	32.153260000000046	-94.79926999999998
Wise County, Texas, USA	33.21586137700007	-97.65438191999999
Ferme de la Htraie, Throuldeville, Seine-Maritime, France	49.75494000000003	0.5192000000000689
Spy House, Port Monmouth, New Jersey, USA	40.42647000000005	-74.10414999999995
The Sisters of Mercy, Baltimore, Maryland, USA	39.288073499999996	-76.632093
Lynn Canyon Park, British Columbia, Canada	49.342910025535275	-123.01970007444126
Vannes, Morbihan, France	47.65834000000007	-2.7598499999999717
S Santa Fe Ave, Los Angeles, California, USA	34.02975674010993	-118.2299671690358
Million Dollar Cowboy Bay, 25 North Cache Drive, Jackson, Wyoming, USA	43.47989000000007	-110.7623700810777
Lakeview Middle School - 1200 W. Bay Street, Winter Garden, Florida, USA	28.5656099316183	-81.6024499816781
Port Jefferson Station, Long Island, New York, USA	40.906876829061794	-73.03927232099461
Via Recanati, Rome, Lazio, Italy	41.9388138676272	12.58443344306035
Ramona Cafe - 628 Main Street, Ramona, California, USA	33.04514992281748	-116.86284999220969
North Woolwich Road, London, England, UK	51.50314536188332	0.022487086846367597
Albertville, Democratic Republic Of Congo	-5.947489999999959	29.194710000000043
456 S. Arden Boulevard, Los Angeles, California, USA	34.06550547737896	-118.32579733204481
BAPCO, Bahrain	26.137110000000064	50.57131000000004
Symphony Hall, Chicago, Illinois, USA	41.879020000000025	-87.62443006333272
Vaural, Val d'Oise, France	49.023430000000076	2.0302800000000616
Manoir MacDougall, Cartierville, Montral, Canada	45.52899000000008	-73.70292999999998
Urduliz, Spain	43.37895000000003	-2.9579199999999446
54 Macdougal Street, Greenwich Village, Manhattan, New York City, New York, USA	40.72804018562601	-74.00205085939642
Quantock Hills, Somerset, England, UK	51.132220000000075	-3.21193999999997
Sheffield Park Station, Suffolk, England, UK	53.37661000000003	-1.4637899999999604
Odeon Theater, Bucharest, Romania	44.43429000000003	26.10298000000006
Avenches, Switzerland	46.88006000000007	7.040780000000041
Stage 1, KTTV Studios, Los Angeles, California, USA	33.90025761661461	-118.03339159548575
Taree, New South Wales, Australia	-31.91352999999998	152.46086000000003
Brasserie Julien, 16 rue du Faubourg Saint-Denis, Paris 10, Paris, France	48.870539974464805	2.353100062178989
Queensway, Bayswater, London, England, UK	51.51199441583217	-0.18747212829835297
Prestonsburg, Kentucky, USA	37.670780000000036	-82.77531999999997
Ardy and Ed's, 2413 S Main St, Oshkosh, Wisconsin, USA	43.991749974464824	-88.53666006607405
Huysburg, Huy, Germany	51.95913000000007	11.002610000000061
Cap de la Chvre, Crozon, Finistre, France	48.170150000000035	-4.5522699999999645
Humber College North Campus, Toronto, Ontario, Canada	43.72989000000007	-79.60468999999995
Tucson Warehouse and Transfer, downtown Tucson, Arizona, USA	32.221550000000036	-110.96975999999995
Fern Cottage, Roscarrock Hill, Port Isaac, Cornwall, England, UK	50.59221647338973	-4.833528630253762
Olympus Hall Hajioji - 4-7-1, Koyasu, Hajioji, Tokyo, Japan	35.68945633100003	139.6917160900001
Santiago, Regin Metropolitana, Chile	-33.43721999999997	-70.65001999999998
Quainton Railway Station, Quainton, Buckinghamshire, England, UK	51.873920000000055	-0.9175499999999488
Minas de So Domingos, Beja, Alentejo, Portugal	40.31344000000007	-7.801889999999958
Old Metropolitan Opera House, New York City,New York, USA	40.77388994503448	-73.98425006217893
La Calera, Cundinamarca, Colombia	4.721750000000043	-73.96788999999995
Pipe and Glass, South Dalton, East Yorkshire, East Riding of Yorkshire, England, UK	54.00000000000006	-1.4999999999999432
Broward County, Florida, USA	26.152245398000048	-80.48705339899999
7824 W. Madison Street, Forest Park, Illinois, USA	41.87925002379475	-87.82008662456614
T. L. James House - 504 North Vienna Street, Ruston, Louisiana, USA	32.532487936843296	-92.63780110146003
King Edward Hotel, Toronto, Ontario, Canada	43.64951992281744	-79.37604991949914
Berlin-Friedrichshain, Berlin, Germany	52.51402000000007	13.454030000000046
Lorton, Virginia, USA	38.70442000000003	-77.20670999999999
925 N La Brea Ave, 4th floor, Los Angeles, California, USA	34.08787749708581	-118.34410716463695
Mutala, Yljrvi, Finland	61.67892000000006	23.541420000000073
The Old Fortress, Corfu Town, Corfu, Greece	39.61860000000007	19.907710000000066
3 Sussex Square, Bayswater, London, England, UK	51.513253016635346	-0.1726837065426051
Curuz Cuati, Corrientes, Argentina	-29.790499999999952	-58.05495999999994
8660 Hayden Place, Culver City, California, USA	34.021699684373395	-118.38530668471918
Najac, Aveyron, France	44.22093000000007	1.9837000000000558
Tlalpujahua, Michoacn, Mexico	19.80379000000005	-100.17298999999997
Bern City, Switzerland	46.94961008050089	7.442770043857126
Hilo, Hawai'i, USA	19.71924000000007	-155.08184999999997
Knaggs Berry Town, North Hollywood, Los Angeles, California, USA	34.16982000000007	-118.37898999999999
The Rivoli Ballroom, Brockley, London, England, UK	51.46205000000003	-0.035469999999975244
Kunsthaus Tacheles, Oranienburger Strae, Berlin, Germany	52.52595994835269	13.38861005554256
Miguel Aleman, Tamps. Mexico	26.401090000000067	-99.02626999999995
Wilhelmsdorf, Sachsen-Anhalt, Germany	52.570408500000006	11.584239749999995
Zljebovi, Bosnia-Herzegovina	44.00139000000007	18.925000000000068
Women's Building, 1700 N. Spring St, Los Angeles, California, USA	34.069890066074166	-118.22642005496553
Pulilan, Bulacan, Philippines	14.902240000000063	120.85229000000004
Barangay 539 Zone 53, Sampaloc, Manila, Metro Manila, Philippines	14.611260000000073	121.00228000000004
Cape Bauer, South Australia, Australia	-32.73332999999997	134.06667000000004
The Forest school, Winnersh Berkshire	51.430900000000065	-0.8761799999999766
2011 W Olive Ave, Burbank, California, USA	34.164969819060396	-118.32560267932348
Combarro, Pontevedra, Galicia, Spain	NaN	NaN
Amelia, Louisiana, USA	29.661510000000078	-91.10010999999997
Ishigaki island, Okinawa, Japan	24.416072401000065	124.08489803300006
San Basilio de Palenque, Bolvar, Colombia	10.103490000000022	-75.19976999999994
Bhagsu Nag, Dharamsala, Himachal Pradesh, India	32.24389000000008	76.33380000000005
Sutton, Macclesfield, Cheshire, England, UK	53.24788348714839	-2.1213646741128884
Restaurant Chez Palmyre, 2 Rue du Petit Bal, Saint-Tropez, Var, France	43.27187431802393	6.641591627844299
Bellerose, New York, USA	40.723040000000026	-73.71545999999995
St Neots, Bedfordshire, England, UK	52.22677412301017	-0.39896214208380487
Ehime, Japan	33.84167272600007	132.76579708600002
Patpong, Thailand	19.90632000000005	99.83107000000007
Tumwater, Washington, USA	46.98541000000006	-122.91221999999999
Parque de Montjuich, Barcelona, Catalonia, Spain	41.36947310757933	2.1692496454759533
Front Street Studios, Los Angeles, California, USA	33.907016399583846	-118.07339339922858
Dallol, Ethiopia	14.238200000000063	40.18926000000005
First Hotel Hje Taastrup, Hje Taastrup, Denmark	55.64795000779032	12.272599988891573
Scanzorosciate, Bergamo, Italy	45.70880000000005	9.734870000000058
Conde de Casal, Madrid, Spain	40.40686644753	-3.670515241040998
42061 Main Street, Temecula, California, USA	33.492934245368915	-117.14939335555988
Kailuna-Kona Boxing Club, Hawaii, USA	19.64056000000005	-155.99555999999998
Gloucester, Massachusetts, USA	42.61435000000006	-70.66810999999996
Kamigata Ukiyo-e Museum - 1-6-4 Namba, Chuo-ku, Osaka City, Osaka Prefecture, Japan	34.66793700000001	135.5021595
Regensburg, Bavaria, Germany	49.014920000000075	12.101730000000032
Forest, Belgium	50.81087000000008	4.318130000000053
Tjolholm Castle, Sweden	57.400000000000034	12.100000000000023
Royal Orchid Sheraton Hotel, Bangkok, Thailand	13.729078126584568	100.5135674114606
Hawthorns County Junior School, Blackburn, Lancashire, England, UK	53.76129000000003	-2.4745999999999526
Terrey Hills, Sydney, New South Wales, Australia	-33.69103999999993	151.21440000000007
Madison Square, Manhattan, New York City, New York, USA	40.74150000000003	-73.98757999999998
Little Falls, New York, USA	43.04079000000007	-74.85883999999999
Chinatown Express - 252 S Western Ave, Los Angeles, California, USA	34.069689923394385	-118.3090899699927
Southolm Street, Battersea, London, England, UK	51.475043943552784	-0.147527958860109
5900 Wilshire Blvd, Los Angeles, California, USA	34.06263164109323	-118.35857655412887
1221 S. Hacienda Blvd, Hacienda Heights, California, USA	34.008582550666425	-117.96386257014211
Rector Phillips Morse - 1501 North University Ave, Little Rock, Arkansas, USA	34.76606502692021	-92.34067704610838
Lansing, Kansas, USA	39.23748000000006	-94.89862999999997
Whitten, Iowa, USA	42.25991000000005	-93.00272999999999
Hailuoto, Finland	65.01320000000004	24.728900000000067
Gerry's Club, 52 Dean Street, London, England, UK	51.51253358484925	-0.13168136597409189
Warner Robins, Georgia, USA	32.62098000000003	-83.59989999999993
Big Pitt, Blaenavon, Torfaen, Gwent, Wales, UK	51.766775979000045	-3.1937831219999566
Northern Sahara Desert, Morocco	18.916670000000067	30.46667000000008
Pussycat Theater, 444 South Hill Street, Los Angeles, California, USA	34.049128391049784	-118.25142148776632
Tharparkar, Sindh, Pakistan	25.525300000000072	69.00120000000004
Carrefour de la table/D924 - D38, Oise, France	49.58633656719337	3.049079486561337
Intermodal Transportation Center, Fort Worth, Texas, USA	32.983485564245946	-97.32735993661083
W. Century Blvd. & Airport Blvd, Los Angeles, California, USA	33.945408	-118.386054
Point Marion, Pennsylvania, USA	39.737790000000075	-79.89917999999994
Cordova Street, Gastown, Vancouver, British Columbia, Canada	49.283538540132334	-123.10917003196711
Aspvik, Vrmd, Stockholms ln, Sweden	59.333330000000046	18.43333000000007
Isla Mujeures Mexico	21.223570000000052	-86.72685999999999
Letea, Tulcea County, Romania	45.27967000000007	29.530130000000042
Lloydminster, Alberta, Canada	53.27804000000003	-110.00670999999994
708 South Negley Avenue, Pittsburgh, Pennsylvania, USA	40.4530613233309	-79.93159073997322
Mandeville, LA, California, USA	37.769893655828525	-121.2005342046002
Lamington National Park, Queensland, Australia	-28.23031999999995	153.13501000000008
Masonic Temple, Toronto, Ontario, Canada	43.63614900000001	-79.42721625
Estudio Quitasueo, Haina, San Cristbal, Dominican Republic	18.436770000000024	-70.01129999999995
CPX Sports, Chicago, Illinois, USA	41.884250000000065	-87.63244999999995
Robin Hood Airport Doncaster Sheffield, Doncaster, Yorkshire, England, UK	53.48068000000006	-1.0147799999999734
North London Line, York Way, King's Cross, London, England, UK	51.530400062322286	-0.12315008107768369
Birger Jarlsgatan, Norrmalm, Stockholm, Stockholms ln, Sweden	59.340050999999995	18.06631424999999
Atocha Estacin, Plaza Eperador Carlos V, Madrid, Spain	40.40642004169276	-3.690620063909637
Park Street, Chelsea, London, England, UK	51.484881844361965	-0.1786869740371135
Beijing MINGLIANGTANG Co., Ltd, Beijing, China	39.90750000000003	116.39723000000004
50 Manitoba Street, Etobicoke, Ontario, Canada	43.62233913240799	-79.49731939967677
Hartenstein, Saxony, Germany	50.66163000000006	12.671240000000068
Tervasaaren Paperitehdas, Valkeakoski, Finland	61.267030000000034	24.031270000000063
North Rim, Grand Canyon National Park, Arizona, USA	36.035570000000064	-111.83045999999996
Menwith Hill, North Yorkshire, England, UK	54.01428000000004	-1.7094699999999534
Landgericht, Passau, Bavaria, Germany	48.57394994503446	13.465619974464802
Topsail Beach, North Carolina, USA	34.366990000000044	-77.62812999999994
Mojkovac, Montenegro, Yugoslavia	42.96432000000004	19.57758000000007
Birmingham, Michigan, USA	42.54592000000008	-83.21550999999994
Ship Street, Oxford, Oxfordshire, England, UK	51.75371145715206	-1.2575562090717303
Ingelfingen, Baden-Wrttemberg, Germany	49.30128000000008	9.651710000000037
Mora's Appliances - 2204 W Pico Blvd, Los Angeles, California, USA	34.0472145337408	-118.28438504133142
Summer Wind Farms Sanctuary, Brown City, Michigan, USA	43.21213000000006	-82.98736999999994
Kaknstornet, Norra Djurgrden, Stockholm, Stockholms ln, Sweden	59.36130000000003	18.058410000000038
Leon, Spain	42.59917000000007	-5.574959999999976
Prince Karp Kunjun's Palace, Bangkok, Thailand	13.753360000000043	100.50483000000008
Rckeve, Hungary	47.15885000000003	18.94530000000003
Carisbrooke, England, UK	50.69137000000006	-1.3192899999999668
Gunpoint Wharf Docks, Montego Bay, Cornwall, Jamaica	18.266580000000033	-78.10281999999995
Redemptorist Church, Redemptorist Road, Baclaran, Paraaque City, Metro Manila, Philippines	14.532138325690308	120.9949349851204
Green Hills, Ohio, USA	39.273840000000064	-84.52266999999995
Oasis Water Park - 8000 Arizona Grand Parkway, Phoenix, Arizona, USA	33.373826005539925	-111.97026001231966
111 Avenue Rd, Toronto, Ontario, Canada	43.673088446303815	-79.39591171019708
Devant l'glise Saint-Mdard, 141 rue Mouffetard, Paris 5, Paris, France	48.83983000000006	2.3498000766057245
Burnham Beeches Hotel, Grove Road, Burnham, Buckinghamshire, England, UK	52.08609000000007	-0.7303599999999619
Campo del Moro, Madrid, Spain	40.42001000000005	-3.7200399999999263
Trevoux, Ain, Rhne-Alpes, France	45.940390000000036	4.77633000000003
690 South Santa Fe Avenue, Los Angeles, California, USA	34.03523843519532	-118.23012727335698
Les Borges Blanques, Lleida, Catalonia, Spain	41.519850000000076	0.8711200000000758
Kavallerieschule Kaserne Krampnitz, Potsdam, Brandenburg, Germany	52.454098723142835	13.04694451773091
Babie Doly, Gdynia, Pomorskie, Poland	54.515008101827696	18.530443795039158
Tinakilly House, Co Wicklow, Ireland	52.99326859170311	-6.08037592264507
Kisenga Channel Region, Uganda	1.513805689000037	32.335706651000066
Clusone, Lombardia, Italy	45.889380000000074	9.953170000000057
101 Federal Street, Boston, Massachusetts, USA	42.35493110713256	-71.05647934139296
Cathedral of Santa Eulalia, Barcelona, Catalonia, Spain	41.39493998889152	2.1611699450344584
Ski Dubai, Mall of the Emirates, Sheik Zayed Road, Al Barsha, Dubai, United Arab Emirates	25.11969996422356	55.19998992772315
Benjamn Gould, Crdoba, Argentina	-33.59031999999996	-62.72921999999994
Rue Fleury, Paris 18, Paris, France	48.89250000000004	2.344400000000064
Luachimo river, Luanda, Angola	-10.347259999999949	16.446650000000034
Kpenicker Strae/Oberbaumbrcke, Kreuzberg, Berlin, Germany	52.50501819196562	13.433697045488614
W. 144th Street and Lenox Avenue, Harlem, New York City, New York, USA	40.819788	-73.9368045
W Oak St & N Pass Ave, Burbank, California, USA	34.156197000000006	-118.346094
Cerro Gordo, Durango, Mexico	24.322220000000073	-104.70561999999995
Hotel Construction Site, Coral Harbour, New Providence Island, Bahamas	24.96667000000008	-77.46666999999997
Teruel, Aragn, Spain	40.34230000000008	-1.104569999999967
41 Marryat Road, Wimbledon, London, England, UK	51.43073833410648	-0.21537556564810859
9160 Church St, Langley, British Columbia, Canada	49.16890028974561	-122.57764109613963
Elder Park, Adelaide, South Australia, Australia	-34.91847999999993	138.59909000000005
Combine, Texas, USA	32.58564000000007	-96.51222999999999
Randolph County Infirmary, Winchester, Indiana, USA	40.17252000000008	-84.98054999999994
Jenkintown, Pennsylvania, USA	40.094340000000045	-75.12612999999999
Collings Foundation, Stow, Massachusetts, USA	42.43672000000004	-71.50720999999999
Nangis, Seine-et-Marne, France	48.55588000000006	3.0137500000000728
La Garde, Var, France	43.12486000000007	6.009790000000066
Sheen Center for Thought & Culture, New York City, New York, USA	40.72544992339437	-73.99312005496554
Charleston Library Society - 164 King St, Charleston, South Carolina, USA	NaN	NaN
Werris Creek, New South Wales, Australia	-31.352229999999963	150.64686000000006
Luis Beltran, Rio Negro, Argentina	-39.32648999999998	-65.72867999999994
Estdio MB Produes, So Paulo, So Paulo, Brazil	-0.3666699999999423	-52.14999999999998
Bradford, Vermont, USA	44.00569000000007	-72.16389999999996
Lotus Eye Hospital, Mumbai, Maharashtra, India	20.382130000000075	78.11871000000008
Claremont Train Station, Claremont, California, USA	34.096100000000035	-117.71639999999996
South Fork, Provo Canyon, Utah, USA	40.344107134329356	-111.54086570646857
ABC Studios, London, England, UK	51.459817201315026	-0.13948550109587132
New Mill Road, Eversley, Hampshire, England, UK	51.36146246732283	-0.9036704956142131
750 Hornby Street, Vancouver, British Columbia, Canada	49.28315467626438	-123.12082222220515
Monroeville Mall - Business Route 22, Monroeville, Pennsylvania, USA	40.43055002351419	-79.79482992065672
Sweetwater Creek Sate Park, Lithia Springs, Georgia, USA	33.753660000000025	-84.63638999999995
Clock Tower, Sardar Market Girdikot, Jodhpur, Rajasthan, India	26.295620000000042	73.02463000000006
Hotel Atalaya Park, Marbella, Mlaga, Andaluca, Spain	36.537420000000054	-4.62522005107041
The Cumberland Hotel, Great Cumberland Place, Marylebone, London, England, UK	51.513730000000066	-0.1591299999999478
Anciens tablissements ACEC, Herstal, Belgium	50.660240000000044	5.624450000000024
Sines, Setbal, Alentejo, Portugal	40.31344000000007	-7.801889999999958
LeGrand Center, 1800 E. Marion Street, Shelby, North Carolina, USA	35.27836259276408	-81.48855654679899
Chiran, Japan	40.220599238000034	140.80714624300003
325 Chicosa St, Roy, New Mexico, USA	35.943983748542905	-104.19641002718
Northeast Greenland National Park, Greenland	43.040484047021984	-70.82510150313456
Lake View High School - 4015 N. Ashland Avenue, Lake View, Chicago, Illinois, USA	41.95461000000006	-87.66820999999999
Hinckley Lake, New York, USA	43.29011607885662	-75.11698459743256
Westmount, Qubec, Canada	45.48497000000003	-73.59657999999996
Mequon, Wisconsin, USA	43.22521000000006	-87.98448999999994
Nimrud Castle, Golan Heights, Israel	32.90485000000007	35.80725000000007
Montgomery County, Indiana, USA	40.040347258000054	-86.89328903799998
The Ice House, 112 E. Walnut Ave., Fullerton, California, USA	33.86826149956731	-117.92348091618096
EB1 Ral Lino, Calada da Tapada, Alcntara, Lisboa, Portugal	38.706037659545046	-9.18122374385208
Yecapixtla, Morelos, Mexico	18.883710000000065	-98.86775999999998
Place Miollis, Aix-en-Provence, Bouches-du-Rhne, France	43.52751809231959	5.454778500000003
670 Broadway Street, San Francisco, California, USA	37.79774134390313	-122.40808489661835
Harry's Bar, Venice, Veneto, Italy	45.43241000000006	12.337170000000071
Vamp'd, Las Vegas, Nevada, USA	36.17007994835268	-115.14268001500359
Principality of Hutt River, Australia	-28.216669999999965	114.30000000000007
Nikolaikirche, Leipzig, Saxony, Germany	51.340329981678174	12.378050026689099
Town & Country Market, Santa Rosa, California, USA	38.52704004948302	-121.9651500011538
Kaibab National Forest, Arizona, USA	NaN	NaN
Arcambal, Lot, Midi-Pyrnes, France	44.457640000000026	1.512920000000065
300 Bel-Air Rd. Los Angeles, California, USA	34.08323148268775	-118.43906361226846
Parco Naturale del Mont Avic, Valle d'Aosta, Italy	45.67404000000005	7.6422900000000595
Osler Fish Terminal - 16 Osler St., Toronto, Ontario, Canada	43.66517559310985	-79.45695396352916
Baram, Sarawak, Borno	1.4818700000000717	110.33184000000006
Aldergrove, County Antrim, Northern Ireland, UK	54.645380000000046	-6.239889999999946
Northfield Mount Hermon School - 206 Main Street, Northfield, Massachusetts, USA	42.66646000000003	-72.48534999999998
Zumaia, Guipzcoa, Pas Vasco, Spain	43.29451000000006	-2.2583399999999756
Woods Hole, Massachusetts, USA	41.52770000000004	-70.66743999999994
Brooklyn New York	40.692450000000065	-73.99035999999995
North San Fernando Boulevard, Burbank, California, USA	34.202482211253724	-118.34384101641167
Wyton Drive, Holmby Hills, Los Angeles, California, USA	34.07399100000001	-118.43818200000001
Forrest County Courthouse, Hattiesburg, Mississippi, USA	31.327660000000037	-89.29122999999998
Chteau de Machecoul, Machecoul, Loire-Atlantique, France	46.99533000000008	-1.82451999999995
Ayase Bakery - 3-15-15, Ayase, Adachi, Tokyo, Japan	35.76380400000001	139.82637599999998
Missouri Valley, Iowa, USA	41.55637000000007	-95.89321999999999
Muhen, Kanton Aargau, Switzerland	47.333330000000046	8.166670000000067
Estudios Avi-Dos, Madrid, Spain	40.362489668845846	-4.4042738142094775
Castle Menzies, Weem, Perthshire, Scotland, UK	56.62333000000007	-3.892879999999934
Leamington Spa Station, Royal Leamington Spa, Warwickshire, England, UK	52.28419000000008	-1.537529999999947
Folger Shakespeare Library, Capitol Hill, Washington DC, Maryland, USA	38.889789944457526	-77.00246003722059
The Historic Dockyard, Chatham Kent, England, UK	51.3966138234081	0.530772600151161
Argyle, Manitoba, Canada	50.18200000000007	-97.45534999999995
Saint-Hippolyte-duFort, Gard, France	44.08563155096626	4.182799939278501
Promi Bar, Baden, Kanton Aargau, Switzerland	47.333330000000046	8.166670000000067
157 Basin Rd, West Hurley, New York City, New York, USA	41.98424574992789	-74.09053779695897
2919 4th St Santa Monica, California, USA	34.001090667506325	-118.47856606501115
Melvindale, Michigan, USA	42.28214000000003	-83.17677999999995
Olympic Ski Run, Cortina d'Ampezzo, Belluno, Veneto, Italy	46.56846000000007	12.116260000000068
Toussieux, France	45.96096000000006	4.828580000000045
Monas National Monument, Jakarta, Indonesia	-6.180319999999938	106.82653000000005
Noordhoek Beach, Cape Town, Western Cape, South Africa	-34.11601852302947	18.38612997074533
Chilpancingo, Guerrero, Mexico	17.52770000000004	-99.50700999999998
Eversley Road, Upper Norwood, London, England, UK	51.416812851243485	-0.09306480106310047
Rozelle Hospital, Sydney, New South Wales, Australia	-33.859485	151.18147800000003
10320 Venice Blvd, Culver City, California, USA	34.02068703967348	-118.4032585382885
Chichen Itza, Yucatan, Mexico	20.682870000000037	-88.56977999999998
Heinvesi, Finland	62.42333000000008	28.62394000000006
Lanyon, Canberra, Australian Capital Territory, Australia	-35.37783548193313	149.1850580537489
Baracaldo, Vizcaya, Pas Vasco, Spain	43.29732000000007	-2.9858999999999583
Obervellach Mlltal, Carinthia, Austria	46.93223000000006	13.201870000000042
Josip Juraj Strossmayer Elementary School - 18 Varsavska Street, Zagreb, Croatia	45.81166004111585	15.969630046164811
Szabadsg Square, Budapest, Hungary	47.617702950107955	18.882304213146742
Royal Liver Building, Liverpool, Merseyside, England, UK	53.406049966674566	-2.996279984419382
Millena, Alacant, Comunitat Valenciana, Spain	38.73042000000004	-0.36390999999997575
Town Hall Arts Center 2450 W Main St. Littleton, Colorado, USA	39.613689973887915	-105.01695996335623
Pete's Brooklyn Eats, Brooklyn, New York, USA	40.60110897052218	-73.93534521945936
Artjrvi, Finland	60.74848000000003	26.055170000000032
Itta Bena, Mississippi, USA	33.49565000000007	-90.31991999999997
Kaivohuone, Helsinki, Finland	60.157440051070516	24.95634992224052
Minchinhampton, Gloucestershire, England, UK	51.705130000000054	-2.1888199999999642
Rossendale, Lancashire, England, UK	53.70896000000005	-2.274819999999977
Mairie de Paris, Paris, France	48.877260000000035	2.318590000000029
Taipei Confucius Temple - No. 275, Dalong Street, Datong District, Taipei City, Taiwan	25.071850025535294	121.51590004385717
Limay, Yvelines, France	48.99454000000003	1.7326100000000224
Leefdaal, Belgium	50.84758000000005	4.591210000000046
Badger, Newfoundland, Newfoundland and Labrador, Canada	NaN	NaN
Gombe, Antalya, Turkey	36.551180000000045	29.67014000000006
Spuyten Duyvil, Bronx, New York City, New York, USA	40.88118000000003	-73.91772999999995
Hotel Pribaltiskaya, St. Petersburg, Russia	59.93895993392594	30.215069997692396
Toronto Ontario, Canada	43.648690000000045	-79.38543999999996
2874 Santa Anita Ave, Altadena, California, USA	34.19421469802072	-118.13669916345447
Neptune Studios, Chennai, Tamil Nadu, India	13.043070000000057	80.24789000000004
Mono Basin National Forest Scenic Area Visitor Center - 1 Visitor Center Drive, Lee Vining, California, USA	37.95634000000007	-119.11905999999999
Germany	51.11063104900006	10.39227793200007
Stockholms slott, Gamla Stan, Stockholm, Stockholms ln, Sweden	59.32666000000006	18.071860000000072
Kings Beach, California, USA	39.23896000000008	-120.02984999999995
Cuernavaca, Morelos, Mexico	18.922640000000058	-99.23500999999999
Wisnicz, Swietokrzyskie, Poland	50.79964000000007	20.172150000000045
Brodnica, Poland	53.260020000000054	19.39802000000003
Broome, New York, USA	42.48801000000003	-74.28176999999994
Werribee Park, Werribee, Victoria, Australia	-37.930159999999944	144.66893000000005
Alice in Wonderland Sculpture - Central Park, Manhattan, New York City, New York, USA	40.76745000000005	-73.97069999999997
Hermanus, South Africa	-34.42122999999998	19.24010000000004
Aoiz, Navarra, Spain	42.782530000000065	-1.3752699999999436
12773 S Redwood Rd, Riverton, UT, USA	40.51912305107046	-111.93869534341312
Assisi, Perugia, Umbria, Italy	43.06635000000006	12.622020000000077
Coahula, Mexico	25.87226000000004	-103.21555999999998
Yalova, Turkey	40.65698000000003	29.27054000000004
24/7 Productions, 1413 Cole, Hollywood, Los Angeles, California, USA	34.096428	-118.33031520734022
80 Jermyn Street, St. James's, London, England, UK	51.50782726693652	-0.13820414366902495
Karankasso Sambla, Burkina Faso	10.883330000000058	-3.9333299999999554
San Fabian, Pangasinan Province, Philippines	16.12268000000006	120.40250000000003
Pasila, Helsinki, Finland	60.19838000000004	24.927860000000067
Sovicille, Siena, Tuscany, Italy	43.277190000000076	11.228060000000028
Vinarice, Czech Republic	50.17747000000003	14.093690000000038
Carlisle Barracks - 45 Ashburn Drive, Carlisle, Pennsylvania, USA	40.21013000000005	-77.17744999999996
Gold Coast Convention & Exhibition Centre, Broadbeach, Queensland, Australia	-28.028479999999945	153.4296200000001
Fano, Italy	43.84268000000003	13.013190000000066
Cukenstejn, Czech Republic	49.738854038000056	15.331770280000057
Shoestrings Backpackers, Victoria Falls, Matabeleland North, Zimbabwe	-17.925869999999975	25.835110000000043
Outer Harbor, South Australia, Australia	-34.77732999999995	138.49030000000005
Travelodge Las Vegas - 2830 S Las Vegas Blvd, Las Vegas, Nevada, USA	36.1370700594377	-115.16187003895135
Restaurant Le Luttia-le-Saint-Louis, 33 quai de Bourbon, Paris 4, Paris, France	NaN	NaN
Dashwood Mausoleum, West Wycombe, Buckinghamshire, England, UK	51.63376308269364	-0.774723579226135
Hatert, Nijmegen, Gelderland, Netherlands	51.80695000000003	5.825620000000072
Cerro Paranal, Chile	-24.627149999999972	-70.40462999999994
St. Charles Borromeo Church - 10828 Moorpark St, Los Angeles, California, USA	34.15034651009889	-118.36650264210283
HMV Oxford Circus, Oxford Street, London, England, UK	51.51388000000003	-0.15416999999996506
Abingdon Street Car Park, Westminster, London, England, UK	51.49787310031051	-0.1257192465677723
Ren Ding Li Market, Xicheng District, Beijing, China	39.90750000000003	116.39723000000004
Beaumont Ranch, Rock Creek Clays, Grandview, Texas, USA	32.26236000000006	-97.15022999999997
Shoreline Studios - Vancouver, British Columbia, Canada	49.267794050228524	-123.13377484004417
La Valetta, Malta	35.89972000000006	14.514720000000068
Yunnan Cultural Center, Chunhui Road, Wuhua District, Kunming, Yunnan, China	25.038890000000038	102.71833000000004
Ilurdotz, Navarra, Spain	42.874780000000044	-1.5418399999999792
West 44th Street, Manhattan, New York City, New York, USA	40.75894758324786	-73.98986142339031
Przan, Ljubljana, Slovenia	46.08740000000006	14.468650000000025
Klerksdorp, South Africa	-26.866559999999936	26.665650000000028
Tennessee River, Tennessee, USA	35.4414010113013	-87.98938597357976
Lebua at State Tower - 1055 Silom Road, Bangrak, Bangkok, Thailand	13.722190000000069	100.51683000000008
Transamerica Pyramid - 600 Montgomery Street, San Francisco, California, USA	37.795100069392376	-122.40318999884613
Rostrevor, South Australia, Australia	-34.89405999999997	138.69324000000006
Contre-alle des Champs-Elyses, Paris 8, Paris, France	48.86906000000005	2.3099300000000653
The Red Lion, Walworth Road, London, England, UK	51.493254867221104	-0.09977293726702328
N'giri, Democratic Republic Of Congo	0.5379700000000298	17.94536000000005
Nova Veneza, Santa Catarina, Brazil	-28.637059999999963	-49.49819999999994
Delos, Greece	37.39250000000004	25.267780000000073
SAMAL Sanatorium, Almaty, Kazakhstan	43.23079003116116	76.90052005164745
Didcot Parkway, Didcot, Oxfordshire, England, UK	51.610730000000046	-1.2424699999999689
Royal College Of Surgeons, Lincoln's Inn Fields, London, England, UK	51.51525886237811	-0.11765797430795204
Step Pyramid, Saqqara, Egypt	29.871260000000063	31.216410000000053
Oranienburg, Brandenburg, Germany	52.75641000000007	13.244490000000042
Indiana, Pennsylvania, USA	40.62290000000007	-79.15014999999994
Adams, Massachusetts, USA	42.620010000000036	-73.11999999999995
Nectar Valley Winery, 748 Shenango Rd., Beaver Falls, Pennsylvania, USA	40.77583299555659	-80.37494482061919
Totebo, Kalmar ln, Sweden	57.631110000000035	16.184700000000078
Havacilar Sitesi, Maltepe, Istanbul, Turkey	40.982113596310846	28.780394007710917
Credenhill Camp, Herefordshire, England, UK	52.089090000000056	-2.7971299999999246
Nowy Tomysl, Wielkopolskie, Poland	52.317030000000045	16.13650000000007
Schloss Bdingen, Hessen, Germany	50.29216007386443	9.119070001153894
Franklin Street, Chapel Hill, North Carolina, USA	35.92463233458586	-79.03800193161999
St. Thomas, Virgin Islands, USA	18.34899000000007	-64.93041999999997
Gare de Saint-Pierre-des-Corps, Saint-Pierre-des-Corps, Indre-et-Loire, France	47.38641000000007	0.7235300000000393
San Juan de la Pea monastery, Huesca, Aragn, Spain	42.14183050060908	-0.4094299102536823
Infinity Hall - 32 Front St, Hartford, Connecticut, USA	41.76280003332557	-72.67119995224775
St. Isaacs Square, St. Petersburg, Russia	59.94325005496566	30.353329927002907
Outside Topknot Hair And Beauty, Victoria Embankment, Nottingham, Nottinghamshire, England, UK	52.938440978881395	-1.1538179539230338
Monashee Mountain Range, British Columbia, Canada	50.99982000000006	-119.00236999999998
Ladybower, South Yorkshire, England, UK	53.63022249982894	-1.8418549651332554
Hopes Wood, Church Stretton, Shropshire, England, UK	52.537630000000036	-2.8003199999999424
St. Bartholomew's Episcopal Church , "St. Bart's," 325 Park Avenue, Manhattan, New York City, New York, USA	40.74096775047615	-73.98567504105846
Nell's Cafe, Marling Way, Gravesend, Kent, England, UK	51.4158019121665	0.3887044463365019
Bodmin Moor, Cornwall, England, UK	50.458660000000066	-4.708469999999977
Studio 54 - 254 West 54th Street, Manhattan, New York City, New York, USA	40.764500811818365	-73.98366363350449
Mariawald, North Rhine-Westphalia, Germany	50.921228159356005	6.912105575149409
Walily, Podlaskie, Poland	53.14433000000008	23.587720000000047
Largo - 366 N La Cienega Blvd., Los Angeles, California, USA	34.07794200000001	-118.37657029208287
Centro de Historia, Zaragoza, Zaragoza, Aragn, Spain	41.65088995614299	-0.870760043857035
Instituto Central de Ciencias, Universidade de Brasilia, Brazil	-15.765889999999956	-47.86660999999998
Gus' Beach Bar and Grill, Baie Rouge, St. Martin, Guadeloupe, Dpartements d'Outre-Mer, France	47.70347000000004	1.5086000000000581
Templestowe, Melbourne, Victoria, Australia	-37.75645999999995	145.1304
Hansen Dam Golf Course - 10400 Glenoaks Blvd., Pacoima, Los Angeles, California, USA	34.25840000000005	-118.38963999999999
Mequinel, Morocco	33.90044000000006	-5.549079999999947
Kalo, Cyprus	35.04996328500005	33.22305413400005
Cornello dei Tasso, Bergamo, Lombardia, Italy	45.77316995334981	9.812163052472973
Mur des Fdrs, 8 Boulevard de Mnilmontant, Cimetire du Pre Lachaise - 16 rue du Repos, Paris 20, Paris, France	48.859740000000045	2.3908100000000445
Shell-Haus - Reichpietschufer 60-62, Tiergarten, Berlin, Germany	52.50593039829181	13.363004540798672
Inner Farne, Farne Islands, Northumberland, England, UK	55.175867682802156	-1.5654992116283046
KOM teatteri, Helsinki, Finland	60.1589200038952	24.946369987737693
Ellis Hospital, Schenectady, New York, USA	42.81961004443405	-73.91672992613556
Randwick, NSW, Australia	-33.91363999999993	151.23977000000002
UT Austin Main Building, West Mall & Littlefield Dorm, Austin, Texas, USA	30.26759000000004	-97.74298999999996
Golden, Colorado, USA	39.756650000000036	-105.22494999999998
Goldrush, 29 NE 11th Street, Miami, Florida, USA	25.784793449362247	-80.1935820313636
Spencer's Grill, St. Louis, Missouri, USA	38.57959000000005	-90.40643999999998
Serock, Mazowieckie, Poland	52.547750412246245	21.090053943784604
Kensington, Philadelphia, Pennsylvania, USA	39.98625000000004	-75.13189999999997
Saint-Menges, Ardennes, France	49.737700000000075	4.925490000000025
Livonia, Michigan, USA	42.39686000000006	-83.36958999999996
Big Springs, Idaho, USA	44.49923000000007	-111.25537999999995
Gorodki Courts, Peter and Paul Fortress, Kronverkskoye, Petrogradsky District, St. Petersburg, Russia	59.950289937821104	30.31136005986756
Los Angeles Central Library - 630 W. Fifth Street, Downtown, Los Angeles, California, USA	34.050739973311	-118.25480007718255
Smith Brothers Hobby Center, 8941 Reseda Blvd, Northridge, California, USA	34.23287000000005	-118.53609999999998
St Mary's Church, Gedding, Suffolk, England, UK	52.18523000000005	0.8516700000000696
Nailsea, Bristol, UK	51.43580000000003	-2.76034999999996
Gragnanino di Gragnano, Italy	43.58004285549455	12.093595616094392
Tom's Place Resort - 8180 Crowley Lake Drive, Crowley Lake, California, USA	37.56110999220976	-118.67959007660562
Elgin Theatre, Toronto, Ontario, Canada	43.671527999999995	-79.39698075
Seto, Japan	35.22374154800008	137.08402678200002
Portland, Victoria, Australia	-38.353069999999946	141.61170000000004
Anduze, Gard, France	44.05376000000007	3.9867400000000544
Tigery, Essonne, France	48.63940000000008	2.507190000000037
Torremendo, Spain	37.99152000000004	-0.8658099999999536
Szarvask, Hungary	47.98739000000006	20.333110000000033
El Cardonal, Hidalgo, Mexico	20.61271000000005	-99.11682999999994
Sandl, Upper Austria, Austria	48.55997000000008	14.645230000000026
Karlaplan, Stockholm, Stockholms ln, Sweden	59.33816000000007	18.090780000000052
Paseo Colorado Mall - 280 E. Colorado Boulevard, Pasadena, California, USA	34.145830000000046	-118.14315999999997
Del's Saloon - 12238 Santa Monica Blvd., Santa Monica, California, USA	34.03051392294887	-118.47774293056452
526 S Los Angeles St, Los Angeles, California, USA	34.04534133997932	-118.24817010433392
201 Stanwix Street, Pittsburgh, Pennsylvania, USA	40.439976243695476	-80.00481750141364
Jungernstieg, Altstadt, Hamburg-Mitte, Hamburg, Germany	53.55209418993101	9.994446088482839
Canet, Comunidad Valenciana, Spain	39.66560945031949	-0.335938408386569
Robinson River, Northern Territory, Australia	-16.757649999999956	136.98360000000002
Htel Carlton, Cannes, Alpes-Maritimes, France	43.549150000000054	7.0273500000000695
St. Mary's Stadium, Southampton, Hampshire, England, UK	50.905100045587915	-1.3898800062027488
Stratton Ranch, Calabasas, California, USA	36.96186442840141	-121.82346629174971
AT&T Stadium - 1 AT&T Way, Arlington, Texas, USA	32.74977000000007	-97.09242999999998
Lakefield, Ontario, Canada	44.42250000000007	-78.27276999999998
Arcade Cafe - 540 S. Main Street, Memphis, Tennessee, USA	35.132552549541245	-90.05894894959339
Forestport, New York, USA	43.440870000000075	-75.20446999999996
Wildflecken, Unterfranken, Germany	50.37676000000005	9.913100000000043
Aachen, North Rhine-Westphalia, Germany	50.778230000000065	6.088640000000055
Conti Street, Mobile, Alabama, USA	30.68633684446931	-88.0564238273158
Towelsville, New York, USA	42.20867000000004	-79.29531999999995
Panthon, Place du Panthon, Paris 5, Paris, France	48.84669992224053	2.344970061168472
Drake Well Museum - 205 Museum Lane, Titusville, Pennsylvania, USA	41.612069991489534	-79.65687998110116
Paraso 3, Barrio de San Miguel, Tepoztln, Morelos, Mexico	18.985171277946332	-99.10320539853137
Demel, Kohlmarkt 14, Vienna, Austria	48.20856007660574	16.367279988891557
Nicetown, Philadelphia, Pennsylvania, USA	40.01970000000006	-75.15546999999998
Grove Street, Greenwich Village, Manhattan, New York City, New York, USA	40.73211001110853	-73.9964800732874
Eddie Park House - 2017 Edgewood Dr, South Pasadena, California, USA	34.10944998110126	-118.14171999999996
Komdie im Marquardt, Stuttgart, Baden-Wrttemberg, Germany	48.77974003664375	9.178670036643762
Coyuca, Guerrero, Mexico	16.837016548583495	-99.913880963448
Cuneo Museum & Gardens - 1350 Milwaukee Avenue, Vernon Hills, Illinois, USA	42.25011007775959	-87.95011993003074
