location	lat	long
Niteroi, Rio de Janeiro, Brazil	-22.88842999999997	-43.11463999999995
Lake Ossipee, New Hampshire, USA	43.79280000000006	-71.13115999999997
Pueblo de Las Mercedes, Antioquia, Colombia	6.197340000000054	-75.73805999999996
Erotic Heritage Museum - 3275 Industrial Road, Las Vegas, Nevada, USA	36.1299100732875	-115.17453000389511
Lupus, Missouri, USA	38.84582000000006	-92.45329999999996
Clarence House, Keswick, Lake District, Cumbria, England, UK	54.59913000000006	-3.1314499999999725
Riviera Maya, Mexico	20.508070000000032	-87.22869999999995
Iglesia de la Inmaculada, Heredia, Costa Rica	9.99804000000006	-84.11638999999997
Senkaku Islands, Ishigaki, Okinawa, Japan	24.34068128100006	124.15559156300003
Castle Street, Inverness, Highland, Scotland, UK	57.47737182140964	-4.2246509902442355
The Sunbeam Inn, Palm Springs, California, USA	33.8610825	-116.51916375
Planet Ranch, Arizona, USA	34.529630635907566	-113.88582382067523
Ernst-Happel-Stadion, Vienna, Austria	48.20727006665108	16.42095999322033
Buoux, Vaucluse, France	43.83144000000004	5.378320000000031
Idleyld Park, Oregon, USA	43.32888000000003	-123.01544999999999
Oroshza, Hungary	46.55958000000004	20.668630000000064
Kayonza, Rwanda	-1.912939999999935	29.820940000000064
Pikwitonei, Manitoba, Canada	55.58800000000008	-97.15603999999996
Laeken cemetery, Brussels, Belgium	50.88023000000004	4.354600000000062
64 rue de l'Amiral Roussin, Paris 15, Paris, France	NaN	NaN
Novo Mesto, Slovenia	45.80228000000005	15.170510000000036
Korean War Veterans Pkwy, Staten Island, New York City, New York, USA	40.532032142011055	-74.20291451264087
O2 Academy Leeds - Leeds, West Yorkshire, England, UK	53.797240000000045	-1.5423299999999358
Weybourne, Norfolk, England, UK	52.94284000000005	1.1418500000000336
Bolgheri Cypress Avenue/Alley/Boulevard, Livorno, Tuscany, Italy	43.22604000000007	10.559990000000028
Karussellen, Nrrebro, Copenhagen, Denmark	55.67567000000008	12.567560000000071
Marina Bay Sands - 10 Bayfront Avenue, Singapore	1.2837900000000673	103.85998000000006
Buna-Werke, Schkopau, Saxony-Anhalt, Germany	51.91667000000007	11.500000000000057
Castillo de Montearagon, Huesca, Aragon, Spain	42.153869958884265	-0.3460999992797228
Arnstadt, Thuringia, Germany	50.835510000000056	10.948820000000069
930 Mateo Street, Los Angeles, California, USA	34.031708612268446	-118.23222783593995
Interstate 90, Ohio, USA	41.47577809056832	-81.69380692431814
Manchester, Massachusetts, USA	42.57403000000005	-70.77022999999997
Ancien Pont Romain, Aiguines, Var, France	43.63529982229419	6.7039544111471105
Avenue Wilson, Chteau-Thierry, Aisne, France	49.03879002553526	3.4089800183219174
Port Protection, Alaska, USA	56.311120000000074	-133.58603999999997
29 rue Censier, Paris 5, Paris, France	48.840358243407024	2.3528893251485883
Shibuya-AX, Tokyo, Japan	35.66626912300006	139.70001971700003
Lincoln Park, Long Beach, California, USA	33.76927000000006	-118.19380999999998
4052 Commonwealth Ave, Eau Claire, Wisconsin, USA	44.77456698185197	-91.43416570716732
Shlde, Lower Saxony, Germany	51.7057650090763	10.008886374941351
Mlheim, North Rhine-Westphalia, Germany	50.452660311014625	6.691758718185736
Tanzhologie Studio, Bad Kreuznach, Rhineland-Palatinate, Germany	49.84314000000006	7.8633100000000695
Temple Terrace, Florida, USA	28.050440000000037	-82.39375999999999
Posejnele, Podlaskie, Poland	54.05469000000005	23.388820000000067
Bishop Street Methodist Church, Leicester, England, UK	52.63331000000005	-1.1320599999999672
Imperial War Museum North, Manchester, Greater Manchester, England, UK	53.46950000000004	-2.30054999999993
Bayshore Bl. near Cesar Chavez, Bayview, San Francisco, California, USA	37.7498681144619	-122.39426956527241
Pavia University, Pavia, Lombardia, Italy	45.18791997446482	9.152510025535262
Academy of Medicine, Georgia Tech, Georgia, USA	33.77827000000008	-84.39877999999999
225 Franklin Street, Boston, Massachusetts, USA	42.3563374346184	-71.05427936245613
Velk Slavkov, Slovakia	49.09274000000005	20.283830000000023
3rd Street, China Basin, San Francisco, California, USA	37.77760311293376	-122.39121715528391
Bullingdon Prison, Upper Arncott, Bicester, Oxfordshire, England, UK	51.85023000000007	-1.1093499999999494
Carpenters Estate, Stratford, Newham, London, England, UK	51.53764286687185	-0.006084025031590759
Chestatee Wildlife Preserve & Zoo, 469 Old Dahlonega Hwy, Dahlonega, Georgia, USA	34.506470010098006	-83.91129996104854
Topanga Canyon, California, USA	34.03890000000007	-118.58341999999999
Gorges du Blavet, Bagnols-en-Fort, Var, France	43.71668000000005	6.113610000000051
KBN stores, Mumbai, Maharashtra, India	18.513420000000053	73.84732000000008
Pantheon, Rome, Lazio, Italy	41.89902993334907	12.476600026112182
La Crosse, Wisconsin, USA	43.81262000000004	-91.25191999999998
Colonia Mirasierra, Madrid, Spain	40.50770019699924	-3.531530285530756
The Albuquerque Downs Racetrack & Casino - 145 Louisiana Blvd NE, Albuquerque, New Mexico, USA	35.07695000000007	-106.56858999999997
Aldatz, Navarra, Spain	43.00905000000006	-1.861949999999979
Love, Saskatchewan, Canada	53.48339000000004	-104.16761999999994
The Chartist Cottage, Great Dodford, Worcestershire, England, UK	52.35000000000008	-2.099999999999966
The Royal Victoria Hotel, St Leonards, East Sussex, England, UK	50.85121000000004	0.5544400000000564
Telendos, Greece	36.99762000000004	26.920960000000036
Caffe Centrale, Via Roma 72, Asolo, Treviso, Veneto, Italy	45.78780455453291	12.366575298084145
Twente, Overijssel, Netherlands	52.36019002943041	6.581980043857118
Studio Babelsberg, Berlin, Germany	52.38766000000004	13.122110000000077
109th Street, Manhattan, New York City, New York, USA	NaN	NaN
Valbyhallen, Copenhagen, Denmark	55.649679988314645	12.516549981678176
SUNY College, Oneonta, New York, USA	42.46236246734941	-75.07228602899139
Ibstock, Leicestershire, England, UK	52.69109000000003	-1.402029999999968
Cal Mat Quarry, Sun Valley, Los Angeles, California, USA	34.21547000000004	-118.37033999999994
Universal Orlando Resort - 1000 Universal Studios Plaza, Orlando, Florida, USA	28.47771000000006	-81.47476999999998
Grainau, Bavaria, Germany	47.47452000000004	11.024460000000033
Daly City, California, USA	37.69109000000003	-122.47278999999997
Haifa, Israel	32.80123000000003	35.00326000000007
Ifjabb Ocskay Gbor Jgcsarnok, Szkesfehrvr, Hungary	47.16708877000008	19.424531700000045
Gujarat, India	22.695448789000068	71.57700607400005
Abegondo, A Corua, Galicia, Spain	43.228710000000035	-8.287079999999946
Paradox City Books and Games, Rising Sun, Indiana, USA	38.94856000000004	-84.85441999999995
2275 Bayview Ave, Toronto, Ontario, Canada	43.72583551442779	-79.3803526421187
Elysburg, Pennsylvania, USA	40.86423000000008	-76.55181999999996
Orlando Speed World Dragway - 19164 East Colonial Drive, Orlando, Florida, USA	28.544819934359566	-81.089780036787
Kasimovo, Ryazanskaya oblast, Russia	54.94351000000006	41.39429000000007
Los Angeles International Airport-1 World Way, Los Angeles, California, USA	33.945610000000045	-118.39223999999996
Ramat David Air Base, Israel	32.678690000000074	35.20315000000005
Palace Digital Studios, South Norwalk, Connecticut, USA	41.09460000000007	-73.41905999999994
Dal Lake, Srinagar, Jammu & Kashmir, India	34.11497000000003	74.86197000000004
1185 Washington Ave., Golden, Colorado, USA	39.75558802326529	-105.22142736161456
Ravenhearse Tucson Arizona USA	32.221550000000036	-110.96975999999995
Brokdorf, Schleswig-Holstein, Germany	53.86164000000008	9.330080000000066
Kasanka National Park, Zambia	-12.551869999999951	30.30672000000004
Bradenton, Florida, USA	27.49550000000005	-82.57806999999997
Los Angeles Country Club - 10101 Wilshire Boulevard, Los Angeles, California, USA	34.06968001399315	-118.42380995874088
Flowery Branch, Georgia	34.18489000000005	-83.92452999999995
Neue Galerie New York, 1048 5th Avenue, Manhattan, New York City, New York, USA	40.78127001832194	-73.9605699483526
Oxnard, California, USA	34.20034000000004	-119.18011999999999
Stonehills Studios, Gateshead, UK	54.95468060577254	-1.53499336360249
Washington, New Hampshire, USA	43.17700000000008	-72.09796999999998
Margaret Morrison Carnegie Hall, Carnegie Mellon University - 5000 Forbes Avenue, Pittsburgh, Pennsylvania, USA	40.44401000000005	-79.93918999999994
Coliemore Harbour, Dublin, County Dublin, Ireland	53.347702021548216	-6.258592859966042
Kozbeyli, Izmir, Turkey	38.715640000000064	26.893730000000062
Srhida, Hungary	46.755310000000065	16.849480000000028
Groer Sendesaal, Haus des Rundfunks, Sender Freies, West Berlin, Gemany	39.810010000000034	-74.93856999999997
St. Koloman, Tennengau, Salzburg, Austria	47.661902575346524	13.157864910183395
Sorriso da Dad, Rua Frei Vicente, 5, Salvador da Bahia, Brazil	-12.942627485429043	-38.371004324311855
San Jacinto Center, San Jacinto Street, Dallas, Texas, USA	32.78556000000003	-96.79897999999997
Park La Brea Apartments, Miracle Mile, Los Angeles, California, USA	34.06487997778303	-118.34436994892951
Royal Bahamas Defence Force, Coral Harbour, New Providence Island, Bahamas	24.96667000000008	-77.46666999999997
Vtheuil, Val-d'Oise, le-de-France, France	NaN	NaN
37989 Cleveland Ave, Squamish, British Columbia, Canada	49.69825769859764	-123.15370916711846
Shefford, England, UK	52.041360000000054	-0.33484999999996035
Waiheke Island, Auckland Region, New Zealand	-36.77819999999997	174.96019000000013
Profondsart, Belgium	50.69635000000005	4.548170000000027
Mystic Theater - 23 Petaluma Blvd. North, Petaluma, California, USA	38.233488627782435	-122.64003223797867
Cherating, Malaysia	4.125570000000039	103.39388000000008
Jacksonville Coliseum, Jacksonville, Florida, USA	30.331470000000024	-81.65621999999996
Sabaudia, Latina, Lazio, Italy	41.29956000000004	13.032590000000027
West Side Diner, 1380 Westminster Street, Providence, Rhode Island, USA	41.81648998499644	-71.4321699922097
1020 Holland Street, Erie, Pennsylvania, USA	42.12612963973691	-80.07844109536022
Bowes, County Durham, England, UK	54.51666000000006	-2.0078699999999685
MJ's Bar, 2810 Hyperion Avenue, Silverlake, Los Angeles, California, USA	34.10821988420843	-118.27172540990571
Rivedoux, le de R, Charente-Maritime, France	46.15948002553529	-1.2745600255351497
Phil's Queen Market, 13820 Foothill Blvd., Sylmar, Los Angeles, California, USA	34.31060885036668	-118.43444143842663
1005 Mount Vernon Avenue, Alexandria, Virginia, USA	38.81655394552537	-77.05684908630147
Strznice, Czech Republic	48.89838000000003	17.315890000000024
Bistrot-restaurant le Saint-Mdard, 53 rue Censier, Paris 5, Paris, France	48.839409988891546	2.350260069392377
Peak Mrakovica, Mountain Kozara, Bosnia and Hercegovina, Yugoslavia	45.014170000000036	16.908060000000035
New York Transit Museum, Brooklyn, New York, USA	40.690480000000036	-73.98997999999995
Myddleton Square, Clerkenwell, London, England, UK	51.522164999999994	-0.10715175000000866
1375 W 20th St, Los Angeles, California, USA	34.038199486005965	-118.2859425
Montana Restaurant Bar - 145 John Street, Toronto, Ontario, Canada	43.64898911824106	-79.39072838992459
Ldenscheid, North Rhine-Westphalia, Germany	51.213760000000036	7.63163000000003
Rehagen, Brandenburg, Germany	52.167230000000075	13.372000000000071
Chteau de Saint-Cyr-sous-Chars, route Saint-Cyr, Chars, Val-d'Oise, France	NaN	NaN
Wat Samphanthawong, Wanit 1 Road, Kwaeng Samphanthawong, Samphanthawong, Bangkok, Thailand	13.738900000000058	100.50992000000008
Winship Building - 948 Main St. Napa, Napa Valley, California, USA	38.29909004385716	-122.28536993782099
Waukegan, Illinois, USA	42.36208000000005	-87.83386999999999
Siracusa, Italy	37.07801000000006	15.281330000000025
Patrocnio, Brazil	-18.94321999999994	-46.99241999999998
Edison Institute, Greenfield Village - 20900 Oakwood Boulevard, Dearborn, Michigan, USA	42.30041041468041	-83.23377084289352
Bispebjerg Kirkegrd, Bispebjerg, Copenhagen, Denmark	55.716540000000066	12.530390000000068
Lecumberri, Navarra, Spain	42.62082000000004	-1.6376399999999762
Mariner's Cave, Vava'u, Tonga	-18.626246854999977	-173.98478894799996
George Street, Edinburgh, Scotland, UK	55.95311768503203	-3.199952003979864
Tribne, Berlin, Germany	52.51400001168547	13.317750015003714
Konserthus, Stadhus, Hantverkagatan 1, Stockholm, Sweden	59.32804253952926	18.05506029684339
Gold's Gym - 522 Amherst Street, Nashua, New Hampshire, USA	42.795296783744334	-71.52738692483662
Tubize, Belgium	50.69327000000004	4.20428000000004
Boscean, Cornwall, England, UK	50.195373357254326	-5.275025648411173
Autodromo di Vallelunga, Campagnano di Roma, Rome, Lazio, Italy	42.160489977209885	12.367450076315404
Coronet Peak, Otago, New Zealand	-44.908369999999934	168.73007000000007
Gerichtssaal des Landgerichts, Bremen, Germany	53.074479981678174	8.810130015003683
Trs-os-Montes, Portugal	40.60229000000004	-7.159289999999942
Maverik Center, Salt Lake City, Utah, USA	40.702630000000056	-111.94861999999995
Kastrup, Amager, Denmark	55.645645500000015	12.643658999999996
Ferme de la Douloire,  l'entre du vallon de Marcellin, massif d'Allauch, Bouches-du-Rhne, France	NaN	NaN
South Pasadena, Florida, USA	27.761700000000076	-82.74077999999997
Tomahawk Restaurant - 1550 Philip Ave, North Vancouver, British Columbia, Canada	49.32276254954124	-123.11335891447887
Makena, Maui, Hawaii, USA	20.654440000000022	-156.44249999999997
413 East 7th Street, Los Angeles, California, USA	34.04167272136291	-118.24808714458435
Pas de la Casa, Andorra	42.543300000000045	1.7337600000000748
MTD Studios, Orlando, Florida, USA	28.475495305007865	-81.46976830509043
Beulaville, North Carolina, USA	34.92440000000005	-77.77340999999996
Beuzeville, Eure, France	49.34549000000004	0.34191000000004124
Eriksdalslunden, Sdermalm, Stockholm, Stockholms ln, Sweden	59.30639000000008	18.06492000000003
Port Noarlunga, South Australia, Australia	-35.14999999999998	138.46667000000002
Georgia World Congress Center, Atlanta, Georgia, USA	33.758410000000026	-84.39532999999994
Baalbak Ruins, Beirut, Lebanon	33.894719456206275	35.480969666712625
Balaton, Hungary	48.092910000000074	20.30624000000006
Antique's Row, Tacoma, Washington, USA	47.255130000000065	-122.44163999999995
Burnside Skatepark, Portland, Oregon, USA	45.52303682101283	-122.66715817127516
Chambersburg, Pennsylvania, USA	39.93743000000006	-77.66074999999995
Alesia, Cte-d'Or, France	46.55941704400004	2.5505399530000545
El Rancho del Artista, Mexico	16.898868	-99.82149975
732 Alden Street, Philadelphia Pennsylvania, USA	39.94939269830919	-75.23809524161801
Rue d'Aubagne, Marseille, Bouches-du-Rhne, France	43.292865779839715	5.382723983150177
Ronquires, Belgium	50.60839000000004	4.219130000000064
Chuckwalla Valley, California, USA	33.58030000000008	-114.82085999999998
Koi, former L'Ermitage Restaurant - 730 North La Cienega Boulevard, Los Angeles, California, USA	34.084493413266785	-118.37645936868856
Barfleur, Manche, France	49.66855000000004	-1.2647199999999543
Savoy Theatre, Brooklyn, New York City, New York, USA	40.62931006217898	-73.94393995224775
Le Cirque - 150 East 58th Street, New York City, New York, USA	40.76145002943039	-73.96823996335623
Tikkakoski, Finland	62.388600000000054	25.664820000000077
Hancock County Marshes Coastal Preserve, Mississippi, USA	32.72397779900007	-89.65717580799998
Birini, Latvia	57.25156000000004	24.659410000000037
Olive Dell Ranch, Colton, California, USA	34.02068026001557	-117.27546130498833
Abadiano, Vizcaya, Pas Vasco, Spain	43.16972000000004	-2.608449999999948
Bab Bhar, Tunis, Tunisia	36.80030000000005	10.185550000000035
Grjec, Mazowieckie, Poland	51.85687210640334	20.81170941906628
Metro Ulitsa 1905 Goda, 1905 Goda Street, Presnensky District, Moscow, Russia	55.76568000000003	37.560640000000035
Magdalena River, Colombia	1.9485100000000557	-76.52198999999996
Westchester, Bronx, New York City, New York, USA	40.84743000000003	-73.85575999999998
190 W Aubrey St., Prescott, Arizona, USA	34.53616210402287	-112.47008113938435
Beira Mar de Fortaleza, Brazil	-3.720632888918149	-38.51034843457445
Rua Vtor Cordon, Lisbon, Portugal	38.725700000000074	-9.150249999999971
Cesis, Latvia	57.313420000000065	25.274190000000033
Doel, Belgium	51.31090000000006	4.260260000000073
Carlton Hotel - 534 Wall St, Los Angeles, California, USA	34.044089959461175	-118.24652992281739
Maple Leaf Gardens, Toronto, Ontario, Canada	43.661720066074125	-79.38005006217894
Bolho, Porto, Portugal	41.130629518915356	-8.587019067322037
Ballygalley, County Antrim, Northern Ireland, UK	54.899080000000026	-5.860339999999951
Carlos And Charlie's, Sunset Blvd., Hollywood, Los Angeles, California, USA	34.098001268696144	-118.32676411648505
Burra, South Australia, Australia	-33.669569999999965	138.92669
Berges de la Seine, Paris, France	48.84201727348651	2.3670353204595065
McDonald's, Santa Monica, California, USA	34.00549000057697	-118.47430994835258
Forestiere Underground Gardens - 5021 West Shaw Avenue, Fresno, California, USA	36.80807992555876	-119.88189992339431
Lagoon Beach Hotel, Milnerton, Cape Town, South Africa	-33.892709999999965	18.483250000000055
Labour in Vain Pub, Fitzroy, Melbourne, Victoria, Australia	-37.80147994892952	144.97787998499646
St. Veit Cathedral, Prague, Czech Republic	50.088340018321894	14.42324995614298
Chocholw, Malopolskie, Poland	49.37285000000003	19.81693000000007
Leeton, New South Wales, Australia	-34.55204999999995	146.4061600000001
Portarlington, Victoria, Australia	-38.116079999999954	144.6521100000001
Rancho la Joya, Durango, Mexico	26.022420000000068	-106.34496999999999
Aqualandia, Benidorm, Alicante, Comunidad Valenciana, Spain	38.54251998831462	-0.09430994113920979
Hutt Valley, Wellington, New Zealand	-41.21420186319775	174.88787604456704
Evergem, Belgium	51.11230000000006	3.71067000000005
Gyr, Hungary	47.16708877000008	19.424531700000045
Alamo Drafthouse - 1120 South Lamar Boulevard, Austin, Texas, USA	30.255480001153906	-97.7618600389514
Mounds State Park, Anderson, Indiana, USA	40.09579000000008	-85.61831999999998
Rayville, Louisiana, USA	32.47750000000008	-91.75660999999997
Alicante's bullring, Alicante, Comunidad Valenciana, Spain	38.32666000000006	-0.5017999999999461
Sillans-la-Cascade, Var, France	43.568400000000054	6.181540000000041
Candy Creek Ranch - Skiatook, Oklahoma, USA	36.366990000000044	-95.99885999999998
Lucignano D'Asso, Tuscany, Italy	43.12417000000005	11.593150000000037
Messter-Atelier - Blcherstrae 32, Kreuzberg, Berlin, Germany	52.49156723812691	13.403550343586017
Tehueco, Sinaloa, Mexico	26.295810000000074	-108.74511999999999
Ham and Eggs Restaurant, Castaic Junction, California, USA	34.45309000000003	-118.61669999999998
Harrah's Resort Southern California - 777 Harrah's Rincon Way, Funner, California, USA	36.37410569300005	-119.27022999999997
Westminster Bridge, Lambeth, London, England, UK	51.5008215	-0.1209284999999895
Frutigen, Kanton Bern, Switzerland	47.00000000000006	7.583330000000046
Zamosc, Lubelskie, Poland	50.749446953007805	23.241417887494265
Stenton Ave. bridge, between W. Mill & W. Valley Green Roads, Lafayette Hill, Whitemarsh Township, Pennsylvania, USA	40.10838457440045	-75.22285961865315
Umpherston Sinkhole, Jubilee Highway East, Mount Gambier, South Australia, Australia	-37.83774999999997	140.80960000000005
Portsoy, Aberdeenshire, Scotland, UK	57.37317764007888	-2.0594611442250534
Ocean Parkway, Brooklyn, New York City, New York, USA	40.58251611762385	-73.96708608863793
DAR Constitution Hall, Washington D.C., USA	38.890370000000075	-77.03195999999997
Rue Simart, Paris 18, France	48.890872386066874	2.34783328640529
Eriksbergs Festplats, Borgvattnet, Jmtlands ln, Sweden	64.71258554700006	17.260487956000077
410 Lake Sherwood Drive, Westlake Village, California, USA	34.14118863777501	-118.8699952260661
Barcelona Streets, Barcelona, Catalonia, Spain	41.39914995224783	2.147970033325529
Washington, Illinois, USA	40.70344000000006	-89.40556999999995
Old Westbury, Long Island, New York, USA	40.78030081465884	-73.56794633236944
Centennial Beach 500 W Jackson Naperville, Illinois, USA	41.77207054833007	-88.15810205496558
Tbilisis Kinostudia, Tbilisi, Georgia	41.70908000000003	44.79612000000003
Factory Club, Calenzano, Italy	43.86487000000005	11.168540000000064
Coogee Beach Army Barracks, Western Australia	-32.13189999999997	115.75227000000007
1 Harrison Av., Boston, Massachusetts, USA	42.35238890590919	-71.06140367167743
Big Bay, Manukau Heads, Auckland, New Zealand	-37.04258203399996	174.63868787500007
San Juan de Aznalfarache, Sevilla, Andaluca, Spain	37.36098000000004	-6.028899999999965
San Salvador de Hornija, Valladolid, Castilla y Len, Spain	41.71088000000003	-4.98261999999994
Purgatory Flats, Nevada, USA	37.62861000000004	-107.79172999999997
Bay Minette, Alabama, USA	30.883020000000045	-87.77348999999998
Cihuatlan, Mexico	19.238300000000038	-104.55742999999995
Kolingen, Stockholm, Sweden	58.97444000000007	18.160280000000057
Port Meadow, Oxford, Oxfordshire, England, UK	51.7608342244998	-1.3534213122662564
Maison de vacances, Tihange, Belgium	50.53125000000006	5.2660900000000765
Kogalym, Siberia, Russia	62.26676000000003	74.47862000000003
Launceston Country Club - Country Club Avenue, Prospect Vale, Tasmania, Australia	-41.481806283854155	147.11272179687506
McCovey Point, China Basin Park, 24 Willie Mays Plaza, China Basin, San Francisco, California, USA	37.77839696361608	-122.39117209238871
Toni-Lessler-Strae 23, 14193 Berlin, Germany	52.48126758200136	13.278573368284517
Sidney Nolan Studio, Britannia Road, Putney, Wandsworth, London, England, UK	51.45686000000006	-0.1944799999999418
Cheddar Gorge, Cheddar, Somerset, England, UK	51.28183000000007	-2.768259999999941
Owls Head, Maine, USA	44.08300000000003	-69.05700999999993
Laramie Western Street, Universal Studios - 100 Universal City Plaza, Universal City, California, USA	34.13647000000003	-118.35245999999995
11650 Riverside Dr., Los Angeles, California, USA	34.15759750288554	-118.38736252553522
The Savoy Theatre, Cork, County Cork, Ireland	51.898340000000076	-8.472789999999975
3100 West Adams Boulevard, Los Angeles, California, USA	34.032610483409826	-118.31823
Thornbury Castle, Thornbury, Gloucestershire, England, UK	51.90253200000001	-2.093208749999997
Martn Muoz de las Posadas, Segovia, Castilla y Len, Spain	-5.1908299999999485	-80.60515999999996
Swan Oyster Depot, 1517 Polk St, San Francisco, California, USA	37.79084000000006	-122.42074999999994
9 Largo Damiano Chiesa, Rome, Lazio, Italy	41.91961449653756	12.437198329447739
Palma de Mallorca, Mallorca, Balearic Islands, Spain	39.53607000000005	2.73720000000003
Beppu, Oita, Japan	33.284452120000026	131.491171978
Corner Cottage - 310 S Victory Blvd, Burbank, California, USA	34.17077002943043	-118.3151499372441
Black Canyon, Arizona, USA	34.28199470766535	-110.64521604686603
HUS Maria Hospital, Helsinki, Finland	60.17116000000004	24.932650000000024
Sandbach School, Cheshire, England, UK	53.14527000000004	-2.373859999999979
Rivendell Hospital, Concord West, Sydney, New South Wales, Australia	-33.8372835090164	151.0915059879781
Weissenfels, Saxony-Anhalt, Germany	51.91667000000007	11.500000000000057
Southeastern University, Lakeland, Florida, USA	28.031600055542558	-81.91940999495098
Allendale Common, Northumberland, England, UK	54.96868552263405	-2.1129435473190536
Tenares, Dominican Republic	19.372310000000027	-70.35258999999996
Sparks Street, Ottawa, Ontario, Canada	45.42192993217273	-75.69958344887577
Tyrone, Ontario, Canada	44.00630000000007	-78.72280999999998
Schloss Dyck, Jchen, North Rhine-Westphalia, Germany	51.14287994445757	6.559309938254706
Shimojima Building, Osaka City, Osaka, Japan	34.69372590900008	135.50216195200005
Templin Highway, Angeles National Forest, California, USA	34.41115000000008	-118.17605999999995
Cornwall Gardens, South Kensington, London, England, UK	51.49710301410889	-0.1882723377479567
Ossian Road, Stroud Green, London, England, UK	51.565476904919926	-0.10604385737986069
403 E Hastings St, Vancouver, British Columbia, Canada	49.281260529863054	-123.09521005536962
Chinchero, Peru	-13.395739999999932	-72.05209999999994
Sunbridge Wells, Bradford, West Yorkshire, England, UK	53.793812432308535	-1.7563046902436759
Mount Pinatubo, Philippines	15.135970000000043	120.35593000000006
Hawley Hill, Aldershot, Hampshire, England, UK	51.249640000000056	-0.7593099999999708
Nahalal, Israel	32.69049000000007	35.193670000000054
Grotte di Salone, Rome, Lazio, Italy	41.915400000000034	12.635710000000074
Our Lady's Children's Hospital, Crumlin, Dublin, Ireland	53.326459951093995	-6.317620019475666
Khan Theatre, Jerusalem, Israel	31.78001000000006	35.21882000000005
Shelburne Hotel - The Boardwalk, Atlantic City, New Jersey, USA	39.35608469392061	-74.42949994874061
Explorers Club - 46 East 70th Street, New York City, New York, USA	40.77006378628316	-73.96549149140165
Birmingham Alabama, USA	33.52068000000003	-86.81175999999994
3812 West Sunset Boulevard, Sunset Junction, Los Angeles, California, USA	NaN	NaN
Institute For Marine Mammal Studies, 10801 Dolphin Lane, Gulfport, Mississippi, USA	30.421007127849947	-89.01944077910031
Edithburgh, South Australia, Australia	-35.084739999999954	137.7449600000001
Collector's Paradise - 7131 Winnetka Ave, Canoga Park, Los Angeles, California, USA	34.20034000000004	-118.57102003000725
St. Barnabus Episcopal Church, Irvington, New York, USA	37.44070000000005	-79.21363999999994
Martha Knoebel Dance Theatre, Long Beach, California, USA	33.76672000000008	-118.19239999999996
Gnaw Bone, Indiana, USA	39.190870000000075	-86.19117999999997
Alaskan Hotel and Bar - 167 South Franklin Street, Juneau, Alaska, USA	58.30029000779036	-134.40517992555866
Lancaster, Texas, USA	32.59316000000007	-96.75510999999995
Corrze, France	45.36811000000006	1.6178500000000327
Wisdom Tree, Film and Television Institute of India, Pune	18.511090000000024	73.84325000000007
Tedorigawa Yoshida Sake Brewery, Hakusan, Japan	36.514392505000046	136.56566096000006
Fort Tryon Park, Manhattan, New York City, New York, USA	40.86561000000006	-73.92855999999995
735 Lawton St SW, Atlanta, Georgia, USA	33.73480922592188	-84.42339406581429
Bagnols-sur-Cze, France	45.50049000000007	2.632220000000075
Liwa Desert, UAE	39.08865000000003	-110.31996999999996
Ocean Drive and 7th Street, Miami Beach, Florida, USA	25.77672	-80.1314505
Ironhead Studio, Los Angeles, California, USA	34.140310000000056	-118.37665999999996
Lindholm Frgen, Lindholm, Jylland, Denmark	57.06544000000008	9.904940000000067
Belnahua, Slate Islands, Argyll, Scotland, UK	56.25000000000006	-5.699999999999932
7003-7017 Costello, Van Nuys, Los Angeles, California, USA	34.19811908381904	-118.43786323677057
Penrith, NSW, Australia	-33.75374999999997	150.6982700000001
Comcast Arena - 2000 Hewitt Avenue, Everett, Washington, USA	47.97918954948392	-122.20189398747692
3 Shortlands, Hammersmith, London, England, UK	51.49257813634046	-0.21940952495148758
Untersuchungsgefngnis Keibelstrae, Mitte, Berlin, Germany	52.52493987557888	13.416085904764838
EFF Studios, H.J.E. Wenckebachweg 139 Amsterdam, Noord-Holland, Netherlands	52.33589880202699	4.932865547986582
Tin Hau Statue, Kwun Yam Shrine, Repulse Bay, Hong Kong, China	22.238227492093642	114.20075025340395
Ferme-Neuve, Qubec, Canada	46.70229000000006	-75.44958999999994
El Dorado Street, Stockton, California, USA	37.92189433251293	-121.27997319941363
Rancho Nuestra Seora del Refugio, California, USA	34.484710000000064	-120.18153999999998
Wilsonville, Oregon, USA	45.304050000000075	-122.75989999999996
Desert Spa - 3049 S Las Vegas Blvd, Las Vegas, Nevada, USA	36.13180278275981	-115.16498255020879
Oliver's Mount, Scarborough, North Yorkshire, England, UK	54.26193679902371	-0.40682457908773045
Mlltal, Carinthia, Austria	46.93472000000003	13.14056000000005
Knokke-Heist, Belgium	51.34672000000006	3.287550000000067
House Rock Canyon, Arizona, USA	36.72777000000008	-112.05211999999995
Netherlands Film and Television Academy	30.980270000000075	-97.34178999999995
Vliegveld Ypenburg, Rijswijk, Zuid-Holland, Netherlands	52.05650000000003	4.336940000000027
Renaissance London Heathrow Hotel, Hounslow, London, England, UK	51.480890000000045	-0.44609999999994443
Buchanan Tower, University of British Columbia, Robson Square Campus - 800 Robson Street, Vancouver, British Columbia, Canada	49.26173000000006	-123.25343999999996
Franconville, Val-d'Oise, France	48.98654000000005	2.2313100000000645
Naval Air Station Moffett Field, California, USA	34.1363716653196	-119.10134643253927
Lens, Pas-de-Calais, France	50.429410000000075	2.833430000000021
Inishowen Peninsula, Donegal, Ireland	55.200000000000045	-7.333329999999933
Amsterdam Bar and Hall, 6 West 6th Street, Saint Paul, Minnesota, USA	44.94636000000003	-93.09546999999998
Golan Heights, Israel	32.98591000000005	35.706360000000075
Spring Mountain Ranch - Blue Diamond Road, Blue Diamond, Nevada, USA	36.07356025199983	-115.44561850599594
VCC Broadway Campus - 1155 East Broadway, Vancouver, British Columbia, Canada	49.26248837802974	-123.0805496619515
Kirkland Lake, Ontario, Canada	48.15029000000004	-80.03539999999998
Gallipoli Peninsula, Turkey	40.333330000000046	26.500000000000057
Warner Center Plaza, Woodland Hills, California, USA	34.174905079705745	-118.59076205681531
D&P Studios, Denham Studio, Denham, Buckinghamshire, England, UK	51.87660000000005	-0.9050199999999791
Roslagsgatan, Vasastaden, Stockholm, Stockholms ln, Sweden	59.35005200111741	18.05641757299805
611 Place, 611 West Sixth Street, Los Angeles, California, USA	NaN	NaN
Moore Park, Sydney, New South Wales, Australia	-33.89621999999997	151.2252900000001
Kamo River, Kyoto-shi, Kyoto, Japan	34.944636280000054	135.74106093000012
Palacio del Rincn, Madrid, Spain	40.41492377211107	-3.710811884442763
Kitts Nightclub, Chelsea Square, London, England, UK	51.488685000000004	-0.17249398469422
Llanidloes, Wales, UK	52.44592000000006	-3.540119999999945
Kihni, Finland	62.198960000000056	23.189550000000054
Hopkinsville, Kentucky, USA	36.867270000000076	-87.48769999999996
Market Street, Dublin, County Dublin, Ireland	53.34157799999999	-6.286954499999983
Crossraguel Abbey, Maybole, South Ayrshire, Scotland, UK	55.34170000000006	-4.714169999999967
Powell Street, Vancouver, British Columbia, Canada	49.28302293356057	-123.09035729727678
Carhaix-Plouguer, Finistre, France	48.27628000000004	-3.5739299999999616
Grieghallen, Bergen, Hordaland, Norway	60.38924000000003	5.327810000000056
Bournville, Birmingham, West Midlands, England, UK	52.42435000000006	-1.9338299999999435
Mosteiro de Alcobaa, Alcobaa, Portugal	39.548219963356324	-8.981209995384605
City Hall - 121 N. LaSalle Street, The Loop, Downtown, Chicago, Illinois, USA	41.88376000000005	-87.63242999999994
Jardin de la Mairie, Orlans, Loiret, France	47.86818000000005	1.838100000000054
Highland, Illinois, USA	38.73942000000005	-89.67671999999999
Wet Fish Cafe London, England, UK	51.550940000000026	-0.1914499999999748
Upper Slaughter, Gloucestershire, England, UK	51.90653000000003	-1.776399999999967
St Mary Magdalene Church, Rowington Close, Paddington, London, England, UK	51.52237000000008	-0.18929999999994607
Burlington Arcade - 380 S. Lake Avenue, Pasadena, California, USA	34.13929427699233	-118.13221730650959
Hjerle Hede, Denmark	56.48630000000003	8.879330000000039
Grinton, North Yorkshire, England, UK	54.38136000000003	-1.9288599999999292
Snake Valley, Nevada, USA	36.09054071654595	-115.2248976502928
Quesada, Jan, Andaluca, Spain	37.845660000000066	-3.0672499999999445
Pitstone, Buckinghamshire, England, UK	51.57268721343001	-0.5333534785234004
Burbia, Vega de Espinareda, Len, Castilla y Len, Spain	42.79075000000006	-6.7739199999999755
Hulun Buir Aimag, Inner Mongolia, China	44.00000000000006	112.00000000000011
Only Sea Foods Restaurant, Vancouver, British Columbia, Canada	49.260380000000055	-123.11335999999994
West Victory Blvd & Encino Avenue, Los Angeles, California, USA	34.18660800000001	-118.51425
Kentucky Fried Buches, Tijuana, Baja California, Mexico	32.53653000000003	-117.03869999999995
Blackwells Bookshop, High Holborn, Holborn, London, England, UK	51.516924031835536	-0.12316543784492742
Ivanova Korita, Mountain Lovcen, Montenegro, Yugoslavia	42.09167000000008	19.250830000000065
Flavigny-sur-Ozerain, Cte-d'Or, France	46.55941704400004	2.5505399530000545
Manufaktura, Ldz, Ldzkie, Poland	51.780549941572936	19.448099970286854
Colne Priory, Earls Colne, Essex, England, UK	51.929406000000014	0.697241250000008
Peck Park, San Pedro, Los Angeles, California, USA	33.748140044434074	-118.30938993046439
Burg Hornberg, Neckarzimmern, Baden-Wrttemberg, Germany	49.31416996609765	9.146169937821092
Haviland, Kansas, USA	37.61584000000005	-99.10623999999996
Camp Borden, Ontario, Canada	44.28417411528098	-79.86360283475756
Sir George Williams University, Montral, Quebec, Canada	45.49694001889883	-73.5786000510704
Library Park - 111 W. Mariposa, El Segundo, California, USA	33.92361000000005	-118.41607999999997
Canyon Portal Hotel - 280 N Highway 89a, Sedona, Arizona, USA	34.870400217554675	-111.76039714161283
Perissos, Athens, Greece	38.03475000000003	23.750780000000077
Agoura Ranch, Agoura, California, USA	34.140429000000005	-118.73904603270985
Amtsgrden, Aabenraa, Jylland, Denmark	55.06645488646252	9.339739580781652
Main Street, Cedar Falls, Iowa, USA	42.52695533616225	-92.44553638190449
Douglas House - 6 Maida Avenue, Maida Vale, London, England, UK	51.524820333693846	-0.17719023280007576
Chatham, Ghent, New York, USA	40.71455000000003	-74.00713999999994
Gavdos, Greece	34.83549000000005	24.08594000000005
Mahalaxmi Racecourse, Mumbai, Maharashtra, India	19.240440000000035	72.85947000000004
Park Country Club, Amherst, New York, USA	42.978620000000035	-78.75052999999997
Issy-les-Moulineaux, Hauts-de-Seine, France	48.82117000000005	2.251360000000034
Flen, Sdermanlands ln, Sweden	59.05934000000008	16.590960000000052
Euro Trade Centre, Marsh Wall, Isle of Dogs, London, England, UK	51.49980000000001	-0.009710248753076408
Dobcice, Czech Republic	48.99717000000004	14.234560000000045
Ardennes, France	49.616185262000045	4.640687099000047
Corte Agresti, Traversetolo, Parma, Italy	44.640390000000025	10.383790000000033
Maschsee, Hannover, Lower Saxony, Germany	52.36256000000003	9.735830000000021
Deception Pass, Whidbey Island, Washington, USA	48.38890251040324	-122.65060926048663
Studio 33, CBS Television City - 7800 Beverly Blvd., Fairfax, Los Angeles, California, USA	34.07607853722158	-118.35988352983439
Chino Hills, California, USA	33.996350000000064	-117.75777999999997
HDI-Gerling Building, Cologne, North Rhine-Westphalia, Germany	50.941670000000045	6.955160000000035
Kaunas, Lithuania	54.89450000000005	23.90996000000007
Gansevoort Plaza, Manhattan, New York City, New York, USA	40.739385825963616	-74.00676163048584
Giverny, Eure, France	49.076100000000054	1.530650000000037
Computer Division Center - University of Southern California, Los Angeles, California, USA	34.01892000000004	-118.28319999999997
Gro Mohrdorf, Mecklenburg-Western Pomerania, Germany	54.25000000000006	18.000000000000057
Rio Bonito, Rio de Janeiro, Brazil	-22.70310999999998	-42.593489999999974
Karaj, Iran	35.83351000000005	50.96556000000004
Chalet de la Grande Cascade, Bois de Boulogne, Paris 16, Paris, France	48.86370000000005	2.2769000000000688
Caminreal, Teruel, Aragn, Spain	40.83985000000007	-1.323259999999948
Chateau D'Herouville, Hrouville, Val-d'Oise, France	49.10103000000004	2.1325400000000627
Utena, Lithuania	55.49632000000008	25.60167000000007
Melbourne Pavilion, Kensington, Victoria, Australia	-37.798731	144.92396250000002
Huimilpan, Quertaro, Mxico	20.375330000000076	-100.27434999999997
3847 Oakfield Dr., Sherman Oaks, California, USA	34.14096802553523	-118.44743566795518
Boompjesgoed Veenendaal, Veenendaal, Utrecht, Netherlands	52.02182583362352	5.557863081447189
Nether Row, Thetford, Norfolk, England, UK	52.411715713277744	0.7499802440667046
Brlanda, Vstra Gtalands ln, Sweden	58.562460000000044	12.35134000000005
GEMS Television - 10360 USA Today Way Miramar, Florida, USA	25.976597492703192	-80.2829146656797
Desert Willow Gold Club, Palm Desert, California, USA	33.777693614528836	-116.29541567449189
Penfolds Winery - 78 Penfold Road, Magill, South Australia, Australia	-34.921049988891426	138.67667006015796
Place de la Victoire, Clermont-Ferrand, Puy-de-Dme, France	45.77791436021349	3.0860460000000103
Charleston WV [us]	38.35016000000007	-81.63894999999997
Westend, Berlin, Germany	52.51708000000008	13.276360000000068
Brisbane Ranges, Geelong. Australia	-38.14851999999996	144.36017000000004
Alma Park, St. Kilda East, Melbourne, Australia	-37.861639941139224	144.99322000057697
Postoloprty, Czech Republic	50.360870000000034	13.696600000000046
2676 Bitternut Cir, Simi Valley, California, USA	34.283987832361944	-118.73625721937235
Venice Church, Venice, California, USA	33.987540000000024	-118.47214999999994
Centerville Arkansas	35.11405000000008	-93.16910999999999
Stage 27, Metro-Goldwyn-Mayer Studios - 10202 W. Washington Blvd., Culver City, California, USA	34.017498	-118.40156999999999
Aljustrel, Portugal	37.879890000000046	-8.16292999999996
Filmlab UK Studios, Wickford, Essex, England, UK	51.61149000000006	0.51854000000003
Mrtola, Beja, Alentejo, Portugal	37.580421071534154	-8.725291162575347
Alma, Kansas, USA	39.01340000000005	-96.28952999999996
County Hall, Penrhyn Road, Kingston upon Thames, Surrey, England, UK	51.405050000000074	-0.3040499999999611
Defiance Plateau, Chinle, Arizona, USA	35.83335000000005	-109.24231999999995
Crystal Studios, Fort Lee, New Jersey, USA	40.85339000000005	-73.97427999999996
Montbrun-Lauragais, France	43.456570000000056	1.5215500000000475
Vantage, Washington, USA	46.94468000000006	-119.98989999999998
R Bar - 3331 W. 8th St., Los Angeles, California, USA	34.05774008050085	-118.30120999999997
Summit Grill House, 40 Eglinton Avenue East, Toronto, Ontario, Canada	43.70704516183834	-79.39700966362736
Cavour Square, Vercelli, Piedmont, Italy	45.75981002553527	8.268739974464838
West Cermak Road, Chinatown, Armour Square, Chicago, Illinois, USA	41.852781	-87.63317351109589
Jester State Prison, Sugar Land, Texas, USA	29.632970000000057	-95.60055999999997
140 West 69th Street, New York City, New York, USA	40.77602072799935	-73.9815616305903
Ures, Sonora, Mexico	29.42643000000004	-110.38762999999994
Falkoner Teatret, Frederiksberg, Denmark	55.68774300000002	12.541342500000013
Aldenham, Hertfordshire, England, UK	51.671170000000075	-0.3542099999999664
Arcadia, Greece	41.14297000000005	25.357320000000072
Oostvorne, Zuid-Holland, Netherlands	51.93168664985202	4.102108517806542
Shea Stadium, 123-01 Roosevelt Ave., Flushing, Queens, New York City, New York, USA	NaN	NaN
Larchmont Village, Los Angeles, California, USA	34.073060000000055	-118.32388999999995
Nalchik, Russia	43.49830000000003	43.63006000000007
Free Software Foundation, 51 Franklin Street, Boston, Massachusetts, USA	42.3555505053957	-71.05865080350848
College America, Denver, Colorado, USA	39.69127000000003	-104.94078999999999
Looe Island, Cornwall, England, UK	50.36472821391541	-4.392118355661644
La Cartuja Olympic Stadium, Seville, Spain	37.41861999653853	-6.0023100496262245
Romsey, Victoria, Australia	-37.34776999999997	144.74261
Beacon Rock, Columbia River Gorge, Washington, USA	45.694240000000036	-121.88247999999999
Torquay, Victoria, Australia	-38.32989999999995	144.31811000000005
Miami Herald Newspaper Building - 1 Herald Plaza, Miami, Florida, USA	25.78832000389517	-80.18647999495097
Mag-Net - Orion Building 2F, 35 Motodera-machi, Hirosaki City, Aomori Prefecture, Japan	48.32274000000007	-1.7553699999999708
The Barn Upstreet, Kent, England, UK	51.323750000000075	1.1974700000000666
Melrose Hill Street, East Hollywood, Los Angeles, California, USA	34.08357633409519	-118.29166706534104
Northern Adriatic, Italy	41.90445992339438	12.462349948929619
Al Rashidiya, Dubai, United Arab Emirates	25.225420000000042	55.39011000000005
303 Westbourne Park Road, Notting Hill, London, England, UK	51.51672689667903	-0.2055437787920844
Colegio Lourdes, Madrid, Spain	40.46492008050089	-3.7118899888914307
La Brea Oil Fields, Los Angeles, California, USA	34.06951000000004	-118.34884999999997
Rawdon, Leeds, West Yorkshire, England, UK	53.85587000000004	-1.6820199999999659
Logan Square Shopping Center, 1800 Markley Street, Norristown, Pennsylvania, USA	40.13413995614299	-75.33275993392589
Centennial, Colorado, USA	39.57916000000006	-104.87691999999998
Sumba, Indonesia	-7.162499999999966	110.26194000000004
Kernkraftwerk Kahl, Growelzheim, Bavaria, Germany	48.947688534000065	11.419321640000021
Auschwitz, Poland	50.03437000000008	19.21037000000007
Iwamaki, Miyagi, Japan	38.445616940000036	141.02260452100006
5904 Floris Heights, Malibu, California, USA	34.02870102080337	-118.8274748872702
Shawville, Qubec, Canada	45.604250000000036	-76.49298999999996
Francuska Ulica, Belgrade, Serbia	44.816638128210194	20.46089805686442
Wooster, Ohio, USA	40.80565000000007	-81.93436999999994
Courtyard Marriott Marina del Rey - 13480 Maxella Ave., Marina del Rey, California, USA	33.986110450632594	-118.44246864181531
Halles-Chtelet, Place du Chtelet, Orlans, Loiret, France	47.89937994777574	1.9052100372206684
Denton, Maryland, USA	38.88659000000007	-75.83328999999998
Franziskuskeller, Purbach, Burgenland, Austria	47.91435000000007	16.693560000000048
Zeuthen, Brandenburg, Germany	52.35203000000007	13.631850000000043
Hunts Point Food Distribution Center, The Bronx, New York City, New York, USA	40.81242000000003	-73.88449999999995
Guru Dutt Studios, Mumbai, Maharashtra, India	19.143710000000056	72.82419000000004
Catonsville High School, Catonsville, Maryland, USA	39.25962000000004	-76.73170999999996
Balm Beach, Ontario, Canada	44.69041000000004	-79.99608999999998
Flipnotics Coffee Shop, 1601 Barton Springs Rd, Austin, Texas, USA	30.262119948929584	-97.76187007660565
Donaldson Correctional Facility, Bessemer, Alabama, USA	33.426886499999995	-87.03637649999999
Kerava Railway Station, Kerava, Finland	60.404169959461214	25.105170030007322
Ft. Meade, Florida, USA	27.751850000000047	-81.80181999999996
Gudhjem, Bornholm, Denmark	55.20694000000003	14.972930000000076
Estudios Macin, Spain	40.41782997446484	-3.696140069392286
Ventura Blvd, Encino, Los Angeles, California, USA	34.156753012302595	-118.48651184288458
920 Sacramento Street, Nob Hill, San Francisco, California, USA	37.79304141873498	-122.40944560422696
Presevo, Serbia	42.30917000000005	21.649170000000026
Mariembourg, Couvin, Wallonia, Belgium	50.09572000000003	4.522170000000074
Copenhagen Railway Tunnel, St. Pancras, London, England, UK	51.52811000000003	-0.1252399999999625
Charlie's Gallery, Toronto, Ontario, Canada	43.71768000000003	-79.59695999999997
Lechtalbad Aqua Vita, Kaufering, Bavaria, Germany	48.08841000000007	10.874250000000075
Krankenhaus Kaulsdorf, Kaulsdorf, Berlin, Germany	52.50302000000005	13.580790000000036
Kanteerava Studio, Banglore, Karnataka, India	13.018392750410303	77.54084159934351
Cregneash Village, Isle of Man	54.06929000000008	-4.768079999999941
Ruskeasuo, Helsinki, Finland	60.20393000000007	24.900360000000035
Betancuria, Fuerteventura, Canary Islands, Spain	28.425340000000062	-14.05657999999994
Tempest Freerunning Academy - 19821 Nordhoff Pl., Los Angeles, California, USA	34.23569876419284	-118.56508499991094
Camino, California, USA	38.738350000000025	-120.66609999999997
Familiar Foods, Loleta, California, USA	40.64170000000007	-124.22139999999996
1150 3rd Street SW, Winter Haven, Florida, USA	28.01009741909516	-81.73083989087688
San Miguel Island, Channel Islands, California, USA	32.816700000000026	-118.45090999999996
Ambr, Cantone Ticino, Switzerland	46.25000000000006	8.583330000000046
Mainstream, Filmbyen, Avedre, Sjlland, Denmark	55.28252654700003	11.702535947000058
Christiansborg Slotsplads, Copenhagen, Denmark	55.676380761287355	12.580843045927322
Castle Ahrensburg, Ahrensburg, Schleswig-Holstein, Germany	53.66957000000008	10.232170000000053
Lepikon Torppa, Pielavesi, Finland	63.22103001110854	26.78323000000006
Firestone Ranch, 35100 Anthony Rd, Santa Clarita, California, USA	34.51988143167508	-118.2819160683249
Trun, Bulgaria	42.83528000000007	22.651670000000024
Guggenheim Productions - 250 W. 54th Street, 4th Floor, New York City, New York, USA	40.71455000000003	-74.00713999999994
Brookville, Pennsylvania, USA	41.16050000000007	-79.08017999999998
Our Sweet Retreat - 11569 Bridges Lane, Nevada City, California, USA	39.25880102218836	-120.9920570601884
Leuchtturm Westerheversand, Eiderstedt, Schleswig-Holstein, Germany	54.37361998110129	8.640229937244175
Tidbinbilla Nature Reserve, Tidbinbilla, Australian Capital Territory, Australia	-35.44018999999997	148.94252000000006
Eagle River, Wisconsin, USA	45.917050000000074	-89.25283999999994
1056 N. Pinellas Ave., Tarpon Springs, Florida, USA	28.156849956922315	-82.75674188424044
Patrick Henry Pub, Richmond, Virginia, USA	37.53267000389517	-77.42045999610482
Hamm Plaza - St. Peter & 6th Streets, St. Paul, Minnesota, USA	45.104732999999996	-92.994015250837
Admiralty Arch, The Mall, St. James's, London, England, UK	51.506959999423145	-0.12835002611211718
Bodleian Library, Broad Street, Oxford, Oxfordshire, England, UK	51.75458994777574	-1.2550999427266594
Indigo Theatre, O2 Arena, London, England, UK	51.50078000000008	0.00488000000007105
Karjalohja, Finland	60.24427000000003	23.730620000000044
Vilanova i la Geltr, Barcelona, Catalonia, Spain	41.22112000000004	1.7270200000000386
Museu Machado de Castro, Coimbra, Portugal	40.20887001168545	-8.425000022216945
Woodland, Maine, USA	45.15492000000006	-67.40737999999993
Olvera Street, Downtown, Los Angeles, California, USA	34.04834000000005	-118.25563999999997
Millington, Tennessee, USA	35.34214000000003	-89.90247999999997
United Artists Midway Stadium - 10822 Queens Blvd., Forest Hills, Queens, New York City, New York, USA	40.72088689837871	-73.84328393660896
The Halfway House pub, The Causeway, Staines, Surrey, England, UK	51.24785556200004	-0.4205635809999535
Ostrava, Moravskoslezsk, Czech Republic	49.83937000000003	18.288770000000056
Karjat, Maharashtra, India	18.550430000000063	75.00908000000004
Creative Stages Youth Theatre - 19209 North 83rd Ave #106 Peoria, Arizona, USA	33.65823461080535	-112.23755307620284
The Pot Smoker BBQ	25.63118000000003	84.53477000000004
Lake Santillana, Spain	43.38903000000005	-4.108439999999973
4049 Cromwell Ave., Los Feliz, Los Angeles, California, USA	34.11520216654154	-118.28085241949918
12835 Sir Francis Drake Boulevard, Inverness, California, USA	38.101001633274294	-122.85638555156045
Plaza San Martn, Buenos Aires, Federal District, Argentina	-34.595279999999946	-58.37996999999996
Locomotive Rock, Moab, Utah, USA	38.573270000000036	-109.54965999999996
Belweder Palace, Aleje Ujazdowskie, Srdmiescie, Warsaw, Mazowieckie, Poland	52.22017298769235	21.025090612173898
Provaznick, Prague, Czech Republic	50.08490861450803	14.423605413204449
Botkins, Ohio, USA	40.46778000000006	-84.18001999999996
Mustang, Oklahoma, USA	35.39172000000008	-97.73263999999995
Zmek Rosice, Czech Republic	49.181580000000054	16.389130000000023
Port of Ancona, Molo Santa Maria, Ancona, Marche, Italy	43.620473465498584	13.50836169715104
Sicamous, British Columbia, Canada	50.837870000000066	-118.96953999999994
Bait Al Batha, Sur, Ash Sharqiyah, Oman	22.500000000000057	58.25000000000006
Werra, Hessen, Germany	51.321159340904465	9.882642916458975
Pender Harbour, British Columbia, Canada	49.738680000000045	-123.88732999999996
The Candy Bar, Soho, London, England, UK	51.51341000000008	-0.13059999999995853
Farnborough, Hampshire, England, UK	51.29379000000006	-0.7553899999999771
Monnickendam, Waterland, Noord-Holland, Netherlands	52.45921000000004	5.035950000000071
Le Milliardaire rue Pierre Charron, Paris, France	48.86999995614299	2.304320062179024
Seoul Station - 122 Bongnae-dong 2-ga, Jung-gu, Seoul, South Korea	37.568260000000066	126.97783000000004
11343 50th Street NE, Albertville, Minneapolis, USA	45.22440762513724	-93.6574425768262
Stocks Road, Aldbury, Hertfordshire, England, UK	51.80961930842529	-0.6014013810522523
The Muckleburgh Collection, Weybourne, Norfolk, England, UK	52.943260000000066	1.130670000000066
The Beehive House, 67 East South Temple, Salt Lake City, Utah, USA	40.76942001168548	-111.8885699233943
Windsor and Eton Central Station, Windsor, Berkshire, England, UK	51.48318000000006	-0.6082599999999729
Barleywood, Wrington, Somerset, England, UK	51.14695380000006	-2.886801441999978
Plac Katedralny, Lublin, Lubelskie, Poland	51.13003297146853	23.488931556150522
Kln, Germany	51.11063104900006	10.39227793200007
Salon Aronautique, Le Bourget, Seine-Saint-Denis, France	48.93346000000008	2.4232300000000464
Donetsk Oblast, Ukraine	48.047352121000074	37.67538711100008
Leadenhall Market, Lime Street, Broadgate, London, England, UK	51.512879996104935	-0.08440998499632407
Kirchheimbolanden, Rhineland-Palatinate, Germany	49.66538000000003	8.015260000000069
St. Hubert's Home Farm, Gerrards Cross, Buckinghamshire, England, UK	51.57073050434433	-0.5441297550683737
Alderman House, Winchester, Hampshire, England, UK	50.86785691892654	-0.9776087606536354
Corvin stny, Budapest, Hungary	47.48618000000005	19.070850000000064
Slide Mountain, Nevada, USA	39.31269000000003	-119.88379999999995
Foley, Alabama, USA	30.406070000000057	-87.68379999999996
Hop Pole Inn, Limpley Stoke, Somerset, England, UK	51.348130000000026	-2.3157299999999736
Gropiusstadt, Neuklln, Berlin, Germany	52.424720000000036	13.473700000000065
Midwood, Brooklyn, New York, USA	40.66004323033501	-73.95159893511828
Nevados de Chillan, Chile	-36.849999999999966	-71.39999999999998
Bingham, Nottingham, Nottinghamshire, England, UK	52.95061000000004	-0.9563899999999421
Restaurant "U Mamuta", Brno, Czech Republic	49.19051006607414	16.609269956142963
The High Street, Bow, London, England, UK	51.58287000000007	-0.029489999999952943
Murud Janjira, India	18.333250000000078	72.96273000000008
Otero de Herreros, Segovia, Castilla y Len, Spain	40.82137000000006	-4.206359999999961
Colline de Fourvires, Lyon, Rhne, Rhne-Alpes, France	46.55941704400004	2.5505399530000545
Upper Richmond Road West, Richmond, Surrey, England, UK	51.463972961713225	-0.27995275154093363
Baragiano, Basilicata, Italy	40.68031000000008	15.59346000000005
Harbord Street, Toronto, Ontario, Canada	43.66262396933141	-79.40402279985112
Bergkirchenviertel, Wiesbaden, Hessen, Germany	50.08466000000004	8.242140000000063
BBC Manchester, Dickenson Raod, Rusholme, Manchester, Lancashire, England, UK	53.452709332916506	-2.21688128889291
Mhle, Straupitz, Brandenburg, Germany	51.91282000000007	14.123030000000028
Heathfield Gardens, Wandsworth, London, England, UK	51.45398231835077	-0.18025027563878715
RAF Museum, Hendon, London, England, UK	51.58912000000004	-0.2280999999999267
Sapulpa, Oklahoma, USA	35.99879000000004	-96.10816999999997
Staraja Ladoka, Leningrad Oblast, Russia	60.004320000000064	32.292160000000024
Flamborough Head, East Riding of Yorkshire, England, UK	54.00000000000006	-1.4999999999999432
Medellin, Colombia	6.245890000000031	-75.57456999999994
Hotel Victoria, Plac Pilsudskiego, Srdmiescie, Warsaw, Mazowieckie, Poland	52.23042000000004	21.01111000000003
Martindale, South Australia, Australia	-34.625817	135.46185525
Judaean Desert, Israel	31.666670000000067	35.16667000000007
Isaba, Navarra, Spain	42.85976000000005	-0.926529999999957
Sherriff Muir, Stirling, Scotland, UK	56.022228	-3.819118499999993
Florence Gourmet, Inc., San Francisco, California, USA	37.777120000000025	-122.41963999999996
Niarbyl, Dalby, Isle of Man	54.16940000000005	-4.72909999999996
Parque Eduardo VII, Lisbon, Portugal	38.72612000000004	-9.150809999999979
Home of Daniel Massey, London, England, UK	51.61608	-0.14059163513309103
10 Rue la Vacquerie, Paris, France	48.858082187344905	2.385087343470429
Amphitheater of Thysdrus, El Djem, Tunisia	35.30000000000007	10.716670000000022
Hawaii Theatre, 1130 Bethel Street, Honolulu, Hawaii, USA	21.310830066074132	-157.861110022217
Novi Grad, Republic of Srpska, Bosnia-Herzegovina	45.04756000000003	16.380600000000072
Dayton, Indiana, USA	40.374040000000036	-86.76933999999994
Tripoli, Libya	32.89534000000003	13.181050000000027
Tottenham House, Wiltshire, England, UK	51.5960325	-1.7856044999999827
Nemi, Lazio, Italy	41.719520000000045	12.717010000000073
Adom Electricals, Teshie Road, Augustineborg, Ledzokuku-Krowor, Greater Accra, Ghana	5.600000000000023	-0.06666999999993095
Potrero, Malabon City, Metro Manila, Philippines	14.668360000000064	120.98306000000002
Cleveland Browns Stadium - 1085 W. 3rd Street, Cleveland, Ohio, USA	41.506350000000054	-81.69760999999994
The Mall, Sligo, Ireland	54.27487294900865	-8.462887071672657
Balbnova Crossing, Vinohrady, Prague, Czech Republic	50.07815729409825	14.434746804162987
Carson, Caliornia, USA	33.83161000000007	-118.26208999999994
Slavonski Brod, Croatia	45.15555000000006	18.01249000000007
Brioux-sur-Boutonne, Deux-Svres, France	46.14349000000004	-0.21822999999994863
Hpital Robert-Debr, 48 boulevard Srurier, Paris 19, Paris, France	48.88170000000008	2.3822000000000685
Listoke House and Gardens, Drogheda, County Louth, Ireland	53.74400000000003	-6.349079999999958
Jewel City Yoga, Crown Heights, Brooklyn, New York, USA	40.66509130822511	-73.94815794553284
Greene County, Indiana, USA	39.03631961700006	-86.96204887399995
Bugallon, Pangasinan, Philippines	15.954120000000046	120.21757000000002
Rochechouart, Haute-Vienne, France	45.82865000000004	0.8278300000000627
MFA Studios City College of New York, USA	40.71455000000003	-74.00713999999994
7711 Goodwood Blvd, Baton Rouge, Louisiana, USA	30.442459468837942	-91.10634188926076
Windsor Terrace & Bushwick, New York City, New York, USA	NaN	NaN
Molinos, Salta, Argentina	-25.438759999999945	-66.29346999999996
Amerivest Financial Services	25.356930000000034	83.00685000000004
Grimaldi's Pizzeria, Brooklyn, New York City, New York, USA	40.70247000389518	-73.99319001832184
Friedrich-Engels-Platz, Vienna, Austria	48.24434742638315	16.379119065957855
Magna Gallery, Oxford, Oxfordshire, England, UK	51.747722052604765	-1.239305210419044
Brigham City, Utah, USA	41.51255000000003	-112.01571999999999
Brouwersgracht, Amsterdam, Noord-Holland, Netherlands	52.38091416346844	4.88811924678187
Ledec nad Szavou, Czech Republic	49.694900000000075	15.277830000000051
Bayou, Louisiana, USA	30.439690026112203	-90.49022005107042
South Norwalk, Connecticut, USA	41.09460000000007	-73.41905999999994
New Start Autobody- South Holland, Illinois, USA	41.59991000000008	-87.61000999999999
Hotel Victor - 1144 Ocean Drive, Miami Beach, Florida, USA	25.782340043857165	-80.13024001889875
Seeschlo Pichelsberg, Berlin, Germany	52.51063000000005	13.223210000000051
Bali Adventure Rafting, Ubud, Gianyar, Bali, Indonesia	-8.519649999999956	115.25028000000009
Burlington, Illinois, USA	42.05165000000005	-88.54786999999999
MGM Grand Garden Arena - 3799 Las Vegas Boulevard South, Las Vegas, Nevada, USA	36.101710000000026	-115.16863999999998
Belgrade Theatre, Belgrade Square, Coventry, Warwickshire, England, UK	52.30063778200008	-1.5595544659999518
Stourbridge, West Midlands, England, UK	52.45425000000006	-2.147809999999936
Inverness, California, USA	38.09943000000004	-122.85413999999997
Main St & State St, Bridgeport, Connecticut, USA	41.17680899999999	-73.1887425
Garos, Pyrnes-Atlantiques, France	43.505310000000065	-0.4736399999999321
Spies Rejser, Gl. Kongevej, Frederiksberg, Denmark	55.67367780456337	12.555113425098527
1349 Loma Avenue, Long Beach, California, USA	33.78375031758723	-118.15031143857283
San Francisco Unified School District Building - 135 Van Ness Avenue, San Francisco, California, USA	NaN	NaN
Goto, Nagasaki, Japan	32.695539293000024	128.84084521500006
Shire Horse Farm & Carriage Museum, Lower Gryllis, Treskillard, Camborne, Cornwall, England, UK	50.21366000000006	-5.301169999999956
Marie-Mattfeld-Haus, Ettaler Strae, Oberammergau, Bavaria, Germany	47.591151131510074	11.065410088784134
Thelveton Hall, Diss, Norfolk, England, UK	52.386340000000075	1.1771100000000274
Calatagan, Batangas, Philippines	13.833180000000027	120.63231000000007
S.S. New York, Atlantic Ocean	40.58691400533341	-73.72901400233495
141st Street, Manhattan, New York City, New York, USA	NaN	NaN
Keratea, Attica, Greece	37.807330000000036	23.976920000000064
San Bernardino International Airport - 294 S. Leland Norton Way, San Bernardino, California, USA	NaN	NaN
Lutsk, Ukraine	50.74690000000004	25.326280000000054
Mazuko, Peru	-11.95345999999995	-77.05143999999996
Yates Center, Kansas, USA	37.879320000000064	-95.73446999999999
Strmsns, Sweden	64.71258554700006	17.260487956000077
The White Hart Pub, Whitechapel High Street, Whitechapel, London, England, UK	51.51568000000003	-0.07062999999993735
State Farm, Powhatan, Virginia, USA	37.54192000000006	-77.91897999999998
Japan	36.655226998000046	139.27149500000007
Maanzoni Lodge, Machakos County, Kenya	-1.5076399999999808	37.09421000000003
Rippavilla Plantation, Spring Hill, Tennessee, USA	35.734020000000044	-86.95316999999994
Giglio Campese, Isola del Giglio, Grosseto, Tuscany, Italy	42.36515000000003	10.88074000000006
Ciudad Blanca - Cementerio General, Guayaquil, Guayas, Ecuador	-2.1597699999999804	-79.92823999999996
St. Thomas the Apostle, Hollywood - 7501 Hollywood Boulevard, Hollywood, Los Angeles, California, USA	NaN	NaN
South Side, Chicago, Illinois, USA	40.62344000000007	-87.69768999999997
Misericrdia de Sesimbra, Sesimbra, Portugal	38.444060000000036	-9.100329999999929
402 East M Street, Wilmington, Los Angeles, California, USA	33.789069546742624	-118.25828938190317
Railway Station, Wolvercote, Oxford, Oxfordshire, England, UK	51.78394000000003	-1.2908699999999271
Jasliska, Podkarpackie, Poland	49.44088000000005	21.802100000000053
Superior, Arizona, USA	33.28906000000006	-111.10041999999999
20 Lilian Street - now demolished, Burley, Leeds, West Yorkshire, England, UK	53.777866132565265	-1.722588389804353
Loimaan Seurahuone, Loimaa, Finland	60.85319000000004	23.056560000000047
Sochaux, Doubs, France	47.51321000000007	6.829820000000041
Parque Natural de Muniellos, Asturias, Spain	43.3665600366438	-5.862700026112123
Viktor Wynd's Little Shop of Horrors, 11 Mare St, London, England, UK	51.53488367164569	-0.05727752289864324
Lyce Saint Louis - 44 Boulevard Saint-Michel, Paris 6, Paris, France	48.843079981678166	2.338520066074137
613 Cherokee Cir, Orlando, Florida, USA	28.534573296182668	-81.37041159293426
Gloucester Green Bus Station, Oxford, Oxfordshire, England, UK	51.75376000000006	-1.2628499999999576
Ukonkivi Island, Lake Inari, Inari, Finland	68.90618000000006	27.027510000000063
Shingle Creek Elementary School, Minneapolis, Minnesota, USA	45.04640000000006	-93.30799999999994
Mondello Park International Racing Circuit	53.039570000000026	-0.6572699999999259
Miami, Brickell, Florida, USA	25.763780000000054	-80.19001999999995
Republic of Cake - 2 Theatre Square, Orinda, California, USA	37.88363000000004	-122.18941999999998
Farmers Blvd, Queens, New York, New York City, USA	40.669711719280464	-73.7655817470864
Santa Clara del cobre, Michoacn, Mexico	19.40554000000003	-101.64005999999995
Rancho Santa Anita, Los Angeles County, California, USA	34.14560000000006	-118.04849999999999
The BIN - 507 Towne Ave, Los Angeles, California, USA	34.04275527756924	-118.24226492079725
Queen Elizabeth Hall, South Bank Centre, South Bank, Lambeth, London, England, UK	51.49085000000008	-0.11107999999995855
Rylstone, New South Wales, Australia	-32.799639999999954	149.97260000000006
Mount Etna, Catania, Sicily, Italy	37.79392000000007	15.038120000000049
Nortonville, Kansas, USA	39.41784000000007	-95.33438999999998
Donau Riveshore, Bratislava, Slovakia	48.14925000000005	17.106990000000053
White Rock Beach, Subic, Zambales, Philippines	14.90405000000004	120.23263000000009
Jalsindhi Village, India	14.995820000000037	74.92513000000008
LA Arts District- 900 E 1st Street, Los Angeles, California, USA	NaN	NaN
Stadthalle, Cloppenburg, Lower Saxony, Germany	52.84693997720612	8.042610044434062
Cinepool Studios, Montral, Qubec, Canada	45.53005997388789	-73.61185005886068
Bingham Road railway station, Addiscombe, Croydon, London, England, UK	51.50642000000005	-0.1272099999999341
Martinborough, Wairarapa, New Zealand	-40.95518999999996	175.65520000000004
Eureka Station, New South Wales, Australia	-35.150202	145.4497245
Ball Aerospace & Technologies Corp, Boulder, Colorado, USA	40.01574000000005	-105.27923999999996
Edward Kruse-p Atuarfia, Uummannaq, Kitaa, Greenland	68.00000000000006	-51.99999999999994
Smile Diner - 424 W Pender St, Vancouver, British Columbia, Canada	49.28307472993257	-123.11244019167273
Hongkou Football Stadium Station, Shanghai Metro, Hongkou District, Shanghai, China	31.250000000000057	121.48917000000006
Las Ramblas, Barcelona, Catalonia, Spain	41.385530000000074	2.1698800000000347
Gray Mountain, Arizona, USA	35.74354000000005	-111.47454999999997
Tykvgen 28, Liding, Stockholms ln, Sweden	59.34056849541238	18.18268351627307
Koh Poda, Krabi, Thailand	8.03087000000005	98.82246000000004
Disko Bugt, Greenland	69.00000000000006	-51.99999999999994
Cehegn, Murcia, Spain	38.09988539054835	-1.8003312425324405
Basiluzzo Island, Aeolian Islands, Messina, Sicily, Italy	38.23647300000001	15.468479999999992
George Inn, Southwark, London, England, UK	51.50541000000004	-0.08920999999998003
Laramie Wyoming, USA	41.31080000000003	-105.59034999999994
Waterloo, South Australia, Australia	-33.990669999999966	138.8787400000001
Calenzano, Italy	43.86487000000005	11.168540000000064
Portland Town, Islae of Portland, Dorset, England, UK	50.54794000000004	-2.435859999999934
Hrsey, Iceland	65.98315000000008	-18.37600999999995
Colorado River, Moab, Utah, USA	38.58612750000002	-109.56445425
Fort Manoel, Gzira, Malta	35.90389000000005	14.50278000000003
1257 Colton St, Los Angeles, California, USA	34.06281484237392	-118.25625955285946
Rothschild, Wisconsin, USA	44.88684000000006	-89.62726999999995
Balch Park, California, USA	36.25037000000003	-118.74331999999998
Caf de twee Zwaantjes, Amsterdam, Noord-Holland, Netherlands	52.37638000000004	4.884300000000053
124 Wayside Drive, Amarillo, Texas, USA	35.200988593917934	-101.8827060246985
Hastings, East Sussex, England, UK	50.85710000000006	0.5778700000000754
Prudential Studios, California, USA	33.94809207670318	-117.9805878164453
Museo de Cera, Madrid, Spain	40.42438005107049	-3.6913000294303258
Kredytowa, Srdmiescie, Warsaw, Mazowieckie, Poland	52.23802615068603	21.0109827691426
Fredericksburg, Salt Creek Township, Wayne County, Ohio, USA	40.69295000000005	-81.82040999999998
Birkenstein, Hoppegarten, Brandenburg, Germany	52.517840000000035	13.648640000000057
Rheingoldhalle, Mainz, Rhineland-Palatinate, Germany	50.00243996999276	8.27496003390247
Mutki, Turkey	38.40922000000006	41.92190000000005
GMT Studios - Culver City, California, USA	34.00391308766123	-118.39582891209737
Enfield, Middlesex, England, UK	51.65327000000008	-0.0878999999999337
F7 - Air Force Base, Stens, Vstra Gtalands ln, Sweden	64.71258554700006	17.260487956000077
Kursaal, Donostia-San Sebastin, Guipzcoa, Pas Vasco, Spain	43.32647000000003	-1.9721699999999487
CFR Club, Romania	45.72718000000003	21.218540000000075
Tohoku, Japan	38.04158020600005	140.64211825200005
185 Mechanic Street, Pawcatuck, Connecticut, USA	41.36567502637193	-71.83876925771816
Stress Factory - 90 Church St, New Brunswick, New Jersey, USA	40.49596066720538	-74.44356834901036
Coogee Lake, New South Wales, Australia	-31.502099999999984	142.18930000000012
26302 Y Avenue, Eldora, Iowa, USA	42.319287083819034	-93.02146687740338
Sala de Fiestas Fontoria, Madrid, Spain	40.42028000000005	-3.7057699999999727
Shropshire, England, UK	52.643346130000054	-2.7137349869999525
York Street, Wynyard, Sydney, New South Wales, Australia	-33.86579999999998	151.20569000000012
Our Lady of the Holy Souls Roman Catholic Church, 68 Hazlewood Crescent, London, England, UK	51.525280000000066	-0.20810999999997648
Drop Redoubt, Dover, England, UK	51.12066000000004	1.307200000000023
Martha, Kentucky USA	38.008080000000064	-82.90784999999994
Centro benfico para disminudos psquicos San Luis Gonzaga, Madrid, Spain	40.4896567159545	-3.967507784190523
Bridgeview, Illinois, USA	41.75488000000007	-87.80479999999994
Nuovo Centro Congressi, Rome, Lazio, Italy	41.831079937821094	12.469690070689506
East 53rd Street between 5th & Madison Avenues, Manhattan, New York, USA	40.714500000000044	-74.00600999999995
Rio Grande River, Port Antonio, Portland, Jamaica	18.177250000000072	-76.44943999999998
Cave Champignonnire des Roches Ville Souterraine, Route des Roches, Bourr, Loir-et-Cher, France	NaN	NaN
The Islands of Mahe, La Digue, Seychelles	-4.349999999999966	55.833330000000046
Etchojoa, Sonora, Mexico	26.91247000000004	-109.62656999999996
Klnbrein Dam, Austria	47.21921000000003	9.839400000000069
King Street, King's Lynn, Norfolk, England, UK	52.75470088235198	0.39363409625648105
Burger King - 535 North Victory Boulevard, Burbank, California, USA	34.17951000000005	-118.31970999999999
Estremoz, Portalegre, Portugal	38.94720362647801	-7.803862418443572
Waterford, California, USA	37.64109000000008	-120.76204999999999
Chepstow Road, Westminster, London, England, UK	51.50008000000008	-0.1280199999999354
Pison Avenue, Mandurriao, Iloilo City, Iloilo, Philippines	10.722300000000075	122.54871000000003
Mairie, 1 place Edmond de Rothschild, Tournan-en-Brie, Seine-et-Marne, France	48.74048304302036	2.764108226470133
Gothic Moon Sound Stages, Orange, California, USA	33.67134228419363	-117.97264678934273
Arturwek, Baluty, Ldz, Ldzkie, Poland	52.12379015400006	19.39876898600005
Havelstudios Film & TV Studios, Berlin, Germany	52.51104005107049	13.216849959461157
San Joaquin County, California, USA	37.93479558900003	-121.27131123299995
Ravenswood, Queensland, Australia	-20.09919999999994	146.89159000000006
AUS Tank, London, England, UK	51.50642000000005	-0.1272099999999341
Jothimonickam, Tamil Nadu, India	9.958750000000066	77.91078000000005
Sandals Negril Beach Resort & Spa, Negril, Jamaica	18.33752000000004	-78.33900999999997
Suttons Beach, Redcliffe, Queensland, Australia	-27.234549999999956	153.11453000000006
La Tuna Canyon Road, La Crescenta, California, USA	34.23665646397252	-118.31917888137214
Smithsonian Tropical Research Institute, Gamboa, Coln, Panama	-8.237789999999961	123.7872000000001
Hagi City, Yamaguchi, Japan	34.40811193600007	131.39909594800008
Wylye Valley, Wiltshire, England, UK	51.07816537537613	-1.8476962492477467
Stockton Arena - 248 W. Fremont Street, Stockton, California, USA	37.95667994330372	-121.29721997388782
A1020 Royal Albert Way, Beckon, London, England, USA	51.50890365220188	0.054716755964790864
Stahl Motor Cars - 2330 Del Monte Avenue, Monterey, California, USA	36.603581484535006	-121.86285071449625
Renwick Gym, Pomona College - 333 N. College Way, Claremont, California, USA	NaN	NaN
Starks Park, Kirkcaldy, Fife, Scotland, UK	56.099810036643795	-3.167490006202787
2146 N Front Street, Philadelphia, Pennsylvania, USA	39.98283837468983	-75.13268568042
The Firm - Private Lounge, Greensboro, North Carolina, USA	36.06899000000004	-79.79469999999998
Inotada, 1-3-10 Kitashoumachi, Sakai, Osaka Prefecture, Japan	34.558037999999996	135.4730985
Gouaix, France	48.48311000000007	3.29358000000002
Arcosanti Arizona, USA	34.34299000000004	-112.10017999999997
Under the railway bridge, Via Gregorio VII/Via Aurelia, Rome, Lazio, Italy	41.899778999999995	12.451234499999991
Spencerport, New York, USA	43.18622000000005	-77.80473999999998
Downtown, San Antonio, Texas, USA	29.426510000000064	-98.48857999999996
Champaign County, Illinois, USA	40.14008723200004	-88.19915745599997
Marine World, Redwood City, California, USA	37.531330000000025	-122.26496999999995
Tertulia Cinematogrfica Ramn Perdiguer, Zaragoza, Aragn, Spain	41.75157000000007	-0.6344299999999521
Enola, Pennsylvania, USA	40.28702000000004	-76.93276999999995
2 Mai, Constanta, Romania	43.78698000000003	28.57773000000003
Beacon Hill, Boston, Massachusetts, USA	42.35842000000008	-71.06859999999995
Antelope Valley College - 3041 W. Avenue K, Lancaster, California, USA	34.67489000000006	-118.18438999999995
Tamazirt, Kabylie, Algeria	36.49950000000007	5.542970000000025
Biri, Northern Samar, Philippines	12.681730000000073	124.36213000000009
La Ciotat, Bouches-du-Rhne, France	43.174180000000035	5.610390000000052
Barrhead, Alberta, Canada	54.12099000000006	-114.40600999999998
Eppendorfer Weg, Eppendorf, Hamburg, Germany	53.58525797684011	9.98151199508251
Cloisters Court, Cromwell Avenue, Highgate, London, England, UK	51.57131780681801	-0.14113300345851568
Sankusu Street, Shibuya-ku, Tokyo, Japan	35.66181034900006	139.7040407170001
Klinikum Schloss Winnenden, Winnenden, Baden-Wrttemberg, Germany	48.87290998441947	9.3976599189223
Cape Breton Highlands National Park, Nova Scotia, Canada	46.71583000000004	-60.352589999999964
Zephyr Ct, Venice, Los Angeles, California, USA	33.987721500000006	-118.47304575000001
Alder King, Fore Street, Trowbridge, Wiltshire, England, UK	51.321230110538025	-2.208468532129866
Vuosanka, Kuhmo, Finland	64.36103000000003	29.206530000000043
Playa Samil beach, Vigo, Pontevedra, Galicia, Spain	42.20844000000005	-8.775559999999928
Schinderbrcke, Munich, Bavaria, Germany	48.13641000000007	11.577540000000056
Serenity Clinic, 356 Military Rd. Cremorne, New South Wales, Australia	-33.82848	151.228881
Village Christian Fellowship, Empire, California, USA	37.638270000000034	-120.90275999999994
Santa Ponsa, Mallorca, Balearic Islands, Spain	39.613620000000026	3.0200400000000514
New York City Center, Avenida das Amricas, Barra da Tijuca, Rio de Janeiro, Rio de Janeiro, Brazil	-22.999459965520586	-43.360340003895125
Barcelona Hotel - 1454 Drexel Avenue, Miami Beach, Florida, USA	25.78707455292969	-80.13306566057248
Hoogezand-Sappemeer, Netherlands	53.15557000000007	6.7546500000000265
Towton Battlefield, England, UK	52.74974000000003	-2.7175399999999286
UCD, Belfield, Dn Laoghaire-Rathdown, County Dublin, Ireland	53.29389000000003	-6.134419999999977
Frank Lloyd Wright Studio, Chicago, Illinois, USA	41.89428996667453	-87.79981002553518
Cottonwood, Arizona, USA	34.73996000000005	-112.00973999999997
Kapelle-op-den-bos, Belgium	51.01239000000004	4.35964000000007
Veterans Memorial Stadium - 508 E. Lew Davis Street, Long Beach, California, USA	33.82993000000005	-118.13493999999997
Lillian, Alabama, USA	30.414090000000044	-87.44819999999999
Gainesville Raceway, Gainesville, Florida, USA	29.753130000000056	-82.27802999999994
Deer Lodge National Forest, Montana, USA	46.161050000000046	-113.16673999999995
Uslar, Lower Saxony, Germany	51.65948000000003	9.63486000000006
Hungarian Parliament Building, Budapest, Hungary	47.507119945034475	19.045650042846574
Rhinelander, Wisconsin, USA	45.63839000000007	-89.41130999999996
Argonne, Illinois, USA	39.772628999999995	-89.7020045437336
Nrsholmen, Gotlands ln, Sweden	58.00000000000006	19.233330000000024
Cainville, Utah, USA	38.31704000000008	-111.03596999999996
Taveuni, Fiji	-17.483329999999967	178.20000000000005
Todd Longshore Park - 28151 Whites Canyon Rd, Santa Clarita, California, USA	34.432420000000036	-118.47263999999996
Lofoten, Arctic Circle, Norway	68.1605499849964	14.216379923394364
7063 Lanewood Avenue, Hollywood, Los Angeles, California, USA	34.099230497114476	-118.343583
Rydebck, Skne ln, Sweden	55.97124000000008	12.771330000000034
24 Grand Avenue, Etobicoke, Ontario, Canada	43.62186103413357	-79.49196485876253
Newbridge, Co. Kildare, Ireland	53.17966000000007	-6.7989599999999655
Calvin Christian High School, Escondido, California, USA	33.1528500732875	-117.09155999596155
Reymert, Arizona, USA	33.23866000000004	-111.20306999999997
4460 Kingswell Ave., Hillhurst Ave., Los Angeles, California, USA	34.102622955232334	-118.28655975525623
Farmingdale, Long Island, New York, USA	40.734060000000056	-73.44603999999998
New York Botanical Garden, Bronx, New York City, New York, USA	40.86175000000003	-73.88060999999993
Kiveri, Argolis, Greece	37.568940000000055	22.806830000000048
Boxen, Herning, Jylland, Denmark	56.135479499999995	8.969402250000002
Kalkar, North Rhine-Westphalia, Germany	51.73837000000003	6.292130000000043
Osea Island, Essex, England, UK	51.72457000000003	0.769390000000044
Coyolles, Aisne, Picardie, France	49.215712499999995	3.0220132500000148
Callejn de las Tomasas, Granada, Andaluca, Spain	37.177992	-3.605026499999985
Godrevy Beach, Cornwall, England, UK	50.21454150000001	-5.48127225
Fairview Riverside State Park - 119 Fairview Drive, Madisonville, Louisiana, USA	30.408700000000067	-90.14036999999996
12420 Santa Monica Blvd. Los Angeles, California, USA	34.038787255871846	-118.4672007830805
1000 block, Figueroa Terrace, Los Angeles, California, USA	34.06832456152631	-118.2450324923541
Anchor Brewhouse, Shad Thames, London, England, UK	51.502826234372755	-0.0720843515591362
Bandstand, Clapham Common, Clapham, London, England, UK	51.46123000000006	-0.14492999999993117
W Kenneth Rd & Sonora Ave, Glendale, California, USA	34.17291900000001	-118.280934
Northbridge Centre, West Palm Beach, Florida, USA	26.484844645914237	-80.06921824189365
Tampa Florida, USA	27.946530000000052	-82.45926999999995
Trinity Western University, Langley, British Columbia, Canada	49.14115000000004	-122.60200999999995
Stomping Grounds Cafe - 10931 Barnston View Rd, Pitt Meadows, British Columbia, Canada	49.201622161809695	-122.6807355266604
Stefanie H. Weill Center for the Performing Arts, Sheboygan, Wisconsin, USA	43.753630000000044	-87.71297999999996
Santa Monica Boulevard, Hollywood, Los Angeles, California, USA	34.09080083969502	-118.35727485499153
Jacumba Resort & Spa	10.965988286534923	99.48918442737687
Jennecker Strae, Jennecken, Germany	50.94623444830672	7.4895416617861255
Le Cellet, Grardmer, Vosges, France	48.05947000000003	6.786860000000047
Vagen, Bavaria, Germany	47.87440000000004	11.88575000000003
Marco Island, Florida, USA	25.954090000000065	-81.72462999999993
Waterdown Rotary Club, Waterdown, Ontario, Canada	43.335750000000075	-79.89363999999995
4476 Strohm Ave., Los Angeles, California, USA	34.15189477990651	-118.35929029208287
Juliusz Slowacki Theatre, Krakw, Malopolskie, Poland	52.12379015400006	19.39876898600005
Milbridge, Maine, USA	44.53888000000006	-67.88159999999993
Bergisch-Gladbach, Northrhine-Westfalia, Germany	50.99168000000003	7.133640000000071
Morwell, Victoria, Australia	-38.23814999999996	146.40354000000002
Electric Railway, Laxey, Isle of Man	54.23111000000006	-4.406419999999969
Calero County Park, San Jose, California, USA	37.188180000000045	-121.77410999999995
Sprengend, Eurasburg, Bavaria, Germany	47.84793300000002	11.396461500000015
Semur-en-Auxois, Cte d'Or, France	47.49180000000007	4.336870000000033
3067 North Desert Flower Drive, Tucson, Arizona USA	32.40858297280082	-110.99916609083908
Poli's restaurant, 2607 Murray Ave, Pittsburgh, Pennsylvania, USA	40.42936895392121	-79.92354416276197
Monaro region, New South Wales, Australia	-34.653158999999995	147.37960800000002
Mogollon, New Mexico, USA	33.397740000000056	-108.79930999999999
Liberiana, Rome, Lazio, Italy	41.89752924645301	12.497630233718631
Ixtapa, Zihuatanejo, Guerrero, Mexico	17.660690000000045	-101.60013999999995
Utrecht, Netherlands	52.08965000000006	5.114350000000059
La Corredoria, Oviedo, Asturias, Spain	43.38404000000003	-5.825369999999964
Greenford Studios, London, England, UK	51.52670265222229	-0.3422082852444634
Kurhaus Cranz - Kurortnyy pr., 16, Zelenogradsk, Kaliningradskaya oblast', Russia	54.96135145017029	20.47776654039464
Odd Fellows Cemetery - 3640 Whittier Boulevard, Los Angeles, California, USA	34.024651644384626	-118.19401766947873
5361 Russell Ave Los Angeles, California, USA	34.104216497114464	-118.30708358381904
Mehtab Bagh, Agra, Uttar Pradesh, India	27.179040000000043	78.04060000000004
Charlie's Fixtures - 2251 Venice Boulevard, Los Angeles, California, USA	34.04363099681156	-118.30775549681154
101 E Park Ave, Pineville, Kentucky, USA	36.75951136480431	-83.69622789882537
Roxy Theatre; Coleman, Alberta, Canada	49.636330000000044	-114.49981999999994
Denslow-Morgan-Preston Mansion - 45200 Little Lake Street, Mendocino, California, USA	39.306876252870744	-123.8027052305095
Readington, New Jersey, USA	40.56846000000007	-74.73809999999997
Omihachiman, Shiga, Japan	35.12830598100004	136.097943202
Belmont Shore, California, USA	33.758320000000026	-118.13746999999995
Johnson Space Center - 2101 NASA Road, Houston, Texas, USA	29.55281000000008	-95.09378999999996
Smallwood Arena, Mount Pearl, NL	47.51265637829165	-52.80585819125598
Drumfin, County Sligo, Ireland	54.12596000000008	-8.44029999999998
Baie-Trinit, Qubec, Canada	49.41679000000005	-67.29886999999997
San Juan Pueblo, New Mexico, USA	36.05847000000006	-106.08355999999998
Isleta Pueblo, New Mexico, USA	34.90968000000004	-106.67873999999995
Devon County Show, Clyst St Mary, East Devon, England, UK	50.75296742100005	-3.8116321519999588
Simpson Desert, South Australia, Australia	-26.607899999999972	138.1012300000001
Marienkirche's Tower, Wismar, Germany	53.868100076605735	10.68414995946118
7703 Bankhead Highway, Winston, Georgia, USA	33.726407093513906	-84.82767425783373
Sulingen, Lower Saxony, Germany	52.681940000000054	8.800490000000025
Kelvin Grove, Toxteth, Liverpool, Merseyside, England, UK	53.38838000000004	-2.969199999999944
Grandison Inn Bed & Breakfast, Oklahoma City, Oklahoma, USA	35.43525000000005	-97.43615999999997
BP Gas Station - 916 US Highway 49 S, Richland, Mississippi, USA	32.22134880379696	-90.15592465883817
Bridger-Teton National Forest, Wyoming, USA	43.58328000000006	-110.12600999999995
Itinraire de Grande Randonne GR20, Corsica, France	42.151390742000046	9.10603304500006
Bernard St, Chinatown, Los Angeles, California, USA	34.067430437552765	-118.23769718903007
Watseka, Illinois, USA	40.77625000000006	-87.73665999999997
Dual Visions Stages, Canoga Park, California, USA	34.202210000000036	-118.60155999999995
West Bromwich, West Midlands, England, UK	52.518170000000055	-1.9893899999999576
Cortez' house - Av. Mcal. Lpez y 22 de Setiembre, Asuncin, Paraguay	-23.199179999999956	-57.26032999999995
18618 Oxnard St, Tarzana, Los Angeles, California, USA	34.17992449451833	-118.53898148167814
Toshimaen Amusement Park, Koyama, Nerima, Tokyo, Japan	35.744856276000064	139.64476713300007
Eastside Market, 1013 Alpine St., Los Angeles, California, USA	34.06508000000008	-118.24671999999998
Block Island, Rhode Island, USA	41.172450000000026	-71.55780999999996
Egbert-Gymnasium Mnsterschwarzach, Bavaria, Germany	49.804940054532	10.229680069678942
Varel, Lower Saxony, Germany	53.39406000000008	8.137860000000046
Arquata del Tronto, Marche, Italy	42.77194000000003	13.293330000000026
Blackstone Edge, West Yorkshire	53.684368690429565	-2.0120440750489332
Federal Plaza Central and market Street, Youngstown, Ohio, USA	41.099607000000006	-80.64958499999999
The John Roan School, Greenwich, London, England, UK	51.49368241383593	0.012258524878052795
Candid Cafe, Angel, London, England, UK	51.532080000000065	-0.10547999999994317
Amargosa Valley, Nevada, USA	36.643590000000074	-116.40033999999997
Lutsk, Kiev, Ukraine	50.74690000000004	25.326280000000054
Brownsville, Texas, USA	25.902090000000044	-97.49923999999999
31212 Broad Beach Rd, Malibu California, USA	34.03467331496371	-118.85227937956589
Elmswell House, Chalfont St. Giles, Buckinghamshire, England, UK	51.63184000000007	-0.570259999999962
Jericoacoara, Cear, Brazil	-2.793519999999944	-40.51903999999996
Rygge Airport, Norway	59.37893000000008	10.785390000000064
Gasworks, Port Melbourne, Victoria, Australia	-37.84140999999994	144.94720000000007
Phang Nga Bay, Thailand	9.290130000000033	98.36694000000006
Embarcadero Ranch, Goleta, California, USA	34.410132022964454	-119.85623819942589
City of Arts and Sciences, Valencia, Comunidad Valenciana, Spain	39.457300012839305	-0.35486006838172296
Lancashire County Cricket Club, Old Trafford Cricket Ground, Manchester, Greater Manchester, England, UK	53.47959000000003	-2.248739999999941
Rock City, 8 Talbot Street, Nottingham, Nottinghamshire, England, UK	52.955970000000036	-1.1553899999999544
Rua do Sol a Santana, Lisbon, Portugal	38.72083402769124	-9.13919992935847
Cortland Studio, San Francisco, California, USA	37.777120000000025	-122.41963999999996
Devonshire House, University of Toronto, Toronto, Ontario, Canada	43.66612643937542	-79.39762570402321
Kalvg, Norway	61.76667000000003	4.883330000000058
Altea, Alicante, Comunidad Valenciana, Spain	38.60080000000005	-0.05067999999994299
First Presbyterian Unitarian Church, Wayland, Massachusetts, USA	42.347980000000064	-71.35897999999997
Gatlinburg, Tennessee, USA	35.71245000000005	-83.51576999999997
Camarasa, Lleida, Catalonia, Spain	41.87360000000007	0.8753700000000322
Sby, Sjlland, Denmark	55.28252654700003	11.702535947000058
25 Mohamed Atef El Saeed St., Sidi Beshr, Alexandria, Egypt	31.25943439050151	29.983556801979297
Melgao, Portugal	42.11154000000005	-8.258049999999969
Lava Beds National Monument, California, USA	41.71447000000006	-121.51019999999994
 Plaza de San Diego, Cartagena, Bolvar, Colombia	10.428100000000029	-75.54738999999995
Kringn, Vstra Gtalands ln, Sweden	64.71258554700006	17.260487956000077
Garden Route National Park, Western Cape, South Africa	-33.990659999999934	22.60818000000006
Parking garage, ABC Entertainment Center - 2040 Avenue of the Stars, Century City, Los Angeles, California, USA	34.05798773997323	-118.41500774903385
Port Washington, Wisconsin, USA	43.38760000000008	-87.87114999999994
National Film Theatre, Belvedere Road, South Bank, Lambeth, London, England, UK	51.50547000000006	-0.11581999999992831
Willard, North Carolina, USA	34.689910000000054	-77.97969999999998
Ward Royal, Windsor, Berkshire, England, UK	51.48186304444233	-0.6125503201652217
Porvorim, Goa, India	15.545466490161644	73.80496838100252
East India station, London, England, UK	51.50393000000008	-0.09513999999995804
Rue de la Baue, Metz, Moselle, France	49.11603154182797	6.184107348973189
Sunrise Market - 300 Powell St, Vancouver, British Columbia, Canada	49.283107513994025	-123.0973904701656
Tec-Art Studio - Jackson Avenue, Bronx, New York City, New York, USA	NaN	NaN
Cenote Dos Ojos, Tulum, Quintana Roo, Mexico	20.31624000000005	-87.36701999999997
Vale do Javari, Amazonas, Brazil	-3.135254067299585	-59.998588449525315
Hammersmith Bridge Road, Hammersmith, London, England, UK	51.49144673589633	-0.22705624727017296
Towcester, Northamptonshire, England, UK	52.13059000000004	-0.9871099999999728
The Railway Engineer - 1 Sanders Lane, Mill Hill, London, England, UK	51.609410092628885	-0.21291751774531845
Covina, California, USA	34.08743000000004	-117.88990999999999
Kaprun, Salzburg, Austria	47.270830000000046	12.757550000000037
Ajax Filmcentre, Sydney, New South Wales, Australia	-34.05714745694909	151.01404654531677
Achladi, Fthiotida, Greece	38.886510000000044	22.80668000000003
Paderewskiego, Ldz, Ldzkie, Poland	51.81513733969311	19.29893432944474
Helsingin tuomiokirkko, Helsinki, Finland	60.1703799816782	24.952150076605726
Cathedral Grove, MacMillan Provincial Park, British Columbia, Canada	49.29149000000007	-124.65976999999998
Overijssel, Netherlands	52.44404497600004	6.444050540000035
U.S. Army National Guard Headquarters 1/101 Cavalry - 321 Manor Road, Staten Island, New York, USA	NaN	NaN
Magna Science Adventure Centre, Rotherham, South Yorkshire, England, UK	53.41992000000005	-1.3855099999999538
53 Granger Street, Newcastle upon Tyne, England, UK	54.97095654588577	-1.61556663956677
Richards Bay, KwaZulu-Natal, South Africa	-28.750459999999975	32.05266000000006
Harewood House, Harewood, West Yorkshire, England, UK	53.89979995253816	-1.5123600630349598
Bolton, Connecticut, USA	41.79088000000007	-72.44273999999996
Mansfield, Texas, USA	32.56508000000008	-97.14185999999995
U.S. Naval Academy - 121 Blake Road, Annapolis, Maryland, USA	38.98150000000004	-76.48542999999995
Los Angeles Adventist Academy - 846 East El Segundo Boulevard, Willowbrook, Los Angeles, California, USA	33.91633000000007	-118.26065999999997
Eddystone Lighthouse, Devon, England, UK	50.36286000000007	-4.148619999999937
Miraflores Locks, Panama Canal, Panama City, Panama	9.023960000000045	-79.51858999999996
Paulding County, Ohio, USA	41.11660033100003	-84.58020081599994
Castel Volturno, Caserta, Campania, Italy	41.03929000000005	13.935660000000041
11 Bloor Street West, Toronto, Ontario, Canada	43.67006681652159	-79.38735509602405
Tralee, County Kerry, Ireland	52.26936000000006	-9.704779999999971
1030 N. Pointsettia Place, Los Angeles, California, USA	34.08945271590397	-118.34859804768219
Margaret River, Western Australia, Australia	-33.95321999999993	115.07347000000004
Long Island Sound, New Rochelle, New York, USA	41.09665000000007	-72.88103999999998
Woodstock, Ontario, Canada	43.13011000000006	-80.75656999999995
IT Maka Kamps Mustafa Kemal Amfisi, Istanbul, Turkey	41.00421000000006	29.093660000000057
Pickwick Ice Arena, 1001 W Riverside Drive Burbank, California, USA	NaN	NaN
Quiche, Guatemala	15.45303781900003	-90.94953373299995
Little West 12th Street and Washington Street, New York City, New York, USA	40.7403	-74.007963
Auchtermuchty, Fife, Scotland, UK	56.29179000000005	-3.229919999999936
Courtauld Institute of Art, Somerset House-Strand, London, England, UK	51.51184000000006	-0.11767999999995027
Ilomantsi, Finland	62.667500000000075	30.938470000000052
Makerstoun House, Makerstoun, Scottish Borders, Scotland, UK	55.58603000000005	-2.5253399999999715
Erdinger Moos, Bavaria, Germany	48.462660054987545	11.952526500000005
Krucza, Srdmiescie, Warsaw, Mazowieckie, Poland	52.231930000000034	21.015940000000057
Dell Ave, Venice, Los Angeles, California, USA	33.98384758526736	-118.46598779263368
Folsom Field, University of Colorado, Boulder, Colorado, USA	40.006377382770125	-105.2730648920737
Valencia Televisin S.L, Ribarroja del Turia, Valencia, Comunidad Valenciana, Spain	39.561966632331455	-0.5346526616572701
Derbyshire, England, UK	53.132400336000046	-1.6147864469999718
Kirchenfeldbrcke, Bern, Kanton Bern, Switzerland	47.00000000000006	7.583330000000046
Galle, Southern Province, Sri Lanka	6.166670000000067	80.75000000000006
Neuenhagen, Brandenburg, Germany	52.52985000000007	13.689140000000066
METRO, Glostrup, Sjlland, Denmark	55.69604000000004	12.420190000000048
2157 W. Sunset Blvd., Los Angeles, California, USA	34.0774331579432	-118.26513540146578
Pacifica Archery - 2995 Junipero Serra Blvd, Daly City, California, USA	37.686707930249426	-122.47056226716535
Islas Perez, Yucatn, Mexico	22.49320000000006	-89.68606999999997
Stansted Airport - Bassingbourn Rd, Stansted CM24 1QW, London, England, UK	51.88759250000004	0.2475999330001173
Ontario Jockey Club, Etobicoke, Toronto, Ontario, Canada	43.659992033255115	-79.36901669560719
Mt. Washington, Los Angeles, California, USA	34.09904000000006	-118.21133999999995
Ar Mountains, Niger	9.185330000000022	7.178540000000055
Colegio de Seoritas, San Jos, Costa Rica	9.932040000000029	-84.07707999999997
La Mirada, California, USA	33.90853000000004	-118.01172999999994
Busu, Solomon Islands	-8.883329999999944	160.73333000000002
Largo de S. Pedro de Alcntara, Lisbon, Portugal	38.714346645596905	-9.144176511769661
Northbridge, Sydney, New South Wales, Australia	-33.81089999999995	151.21130000000005
Dubicze Cerkiewne, Podlaskie, Poland	52.65310000000005	23.434750000000065
Incesu, Turkey	38.625680000000045	35.18953000000005
Twyecross, Leicestershire, England, UK	52.63067835524258	-1.1137827125566733
Chapel of St Giles, Cosheston, Pembrokeshire, Wales, UK	51.853400531000034	-4.889116937999972
Creative Spirit Centre, Minchinbury, NSW 2770	-33.75339999999997	150.81532500000003
Clark's Fish Camp - 12903 Hood Landing Rd, Jacksonville, Florida, USA	30.135279981678206	-81.59626997720605
Sigtuna, Stockholms ln, Sweden	59.61742000000004	17.72422000000006
Boguszw-Gorce, Dolnoslaskie, Poland	50.75690000000003	16.20733000000007
East Walnut Hills, Ohio, USA	39.12666000000007	-84.47331999999994
Bandhavgarh National Park, India	23.57349000000005	80.44283000000007
Hafen Hamburg, Hamburg, Germany	53.54730994835268	9.968940043857161
Dornie, Highland, Scotland, UK	57.41262000000006	-6.193439999999953
The Royal Yacht Britannia, Ocean Terminal, Leith, Edinburgh, Scotland, UK	55.981190000000026	-3.1756999999999493
Volkstheater Frankfurt, Frankfurt am Main, Hessen, Germany	50.11122992671259	8.677749970569689
Beg Meil, Fouesnant, Finistre, France	47.86311000000006	-3.9886399999999753
Moshav Beit HaGadi, Israel	31.424210000000073	34.60773000000006
The Post Office, Horsforth, Leeds, West Yorkshire, England, UK	53.83205000000004	-1.6405999999999494
Mount Prospect, Illinois, USA	42.06642000000005	-87.93728999999996
Bank of Loleta, 358 Main Street, Loleta, California, USA	40.640417161809694	-124.2248402287205
Mankato, Minnesota, USA	44.16740000000004	-94.00240999999994
Dill, Hessen, Germany	50.56236000000007	8.491660000000024
Boyce's Avenue, Clifton, Bristol, England, UK	51.464518388329616	-2.619892903281354
Kanehsatake, Quebec, Canada	45.48318000000006	-74.11311999999998
5570 N Figueroa St, Los Angeles, California, USA	34.10892459114796	-118.19408930278735
Ganterie Samdam, 83 rue des Champs, Ghent, East Flanders, Flanders, Belgium	51.00000000000006	4.500000000000057
Studio D - 2170 Ave. Pierre-Dupuy, Montral, Qubec, Canada	45.49084504013076	-73.54448851917265
Ludwigsstadt, Bavaria, Germany	50.48490000000004	11.387920000000065
Solitude Mountain Resort, Utah, USA	40.623560000000055	-111.59719999999999
Metro Station - Vermont Avenue and Santa Monica Boulevard, Los Angeles, California, USA	NaN	NaN
Shedd Aquarium - 1200 S. Lake Shore Drive, Near South Side, Chicago, Illinois, USA	41.867540000000076	-87.61484999999999
Polishuset, Visby, Gotlands ln, Sweden	57.63844000000006	18.300040000000024
Des Moines, Washington, USA	47.40781000000004	-122.31988999999999
Fort Christian, Charlotte Amalie, St. Thomas, U.S. Virgin Islands	18.342280000000073	-64.92810999999995
Coal River Valley, West Virginia, USA	37.90347602940084	-81.28502770460832
Otara, Auckland, New Zealand	-36.96217999999993	174.87484000000006
756 W. 6th. Street, Reno, Nevada, USA	39.53056774712926	-119.82543585039534
Carmel, New York, USA	41.42798000000005	-73.67673999999994
Cachoeira Paulista, So Paulo, Brazil	-22.670049999999947	-45.006939999999986
Vagar, Faroe Islands	62.082670000000064	-7.161709999999971
Balatonalmdi, Hungary	47.02888000000007	18.015950000000032
Winona State University, Winona, Minnesota, USA	44.04559000000006	-91.64398999999997
Styrmansgatan, stermalm, Stockholm, Stockholms ln, Sweden	59.333700959179424	18.086163142555648
1906 Spring Hill Avenue, Mobile, Alabama, USA	30.691747456141982	-88.08640340328346
Market Square Museum, Market Square, Burra, South Australia, Australia	-33.68130999999994	138.93835
Shepperton, Middlesex, England, UK	51.394310000000075	-0.448509999999942
Gruta da Lapa, Torres Novas, Portugal	39.47956000000005	-8.54153999999994
Puente Nacional, Veracruz, Mexico	19.32346000000007	-96.48278999999997
Rolfe-Metro Studios, Los Angeles, California, USA	34.05349000000007	-118.24531999999999
Gleneagles Hotel, Perth and Kinross, Scotland, UK	56.28458000000006	-3.7557499999999777
Callendar, Ontario, Canada	45.10467900000002	-75.67725374999999
34560 Row River Rd., Cottage Grove, Oregon, USA	43.79311750166512	-122.97983135121622
Soho District, Lower Manhattan, Manhattan, New York City, New York, USA	40.718560030584264	-73.98790995556597
Ars Electronica Center, Linz, Austria	48.30963001110858	14.284010000576988
Canterbury University, Ilam, Christchurch, Canterbury, New Zealand	-43.523409999999956	172.5798400000001
Mszczonw, Mazowieckie, Poland	51.97398000000004	20.512190000000032
Capotillo, Santo Domingo, Dominican Republic	18.506860000000074	-69.90125999999998
The Whisky A Go Go, Los Angeles, California, USA	34.090690007790336	-118.38568999999995
Film i Vst, Nohab Industrial Estate, Trollhttan, Vstra Gtalands ln, Sweden	64.71258554700006	17.260487956000077
39 Rua Dona Elisa de Moraes Mendes, Alto de Pinheiros, So Paulo, So Paulo, Brasil	-0.3666699999999423	-52.14999999999998
Harbour Bridge, Sydney, New South Wales, Australia	-33.85871999999995	151.20677000000012
Dakota Badlands, North Dakota, USA	47.44627334000006	-100.46938736999999
Rue Aim Ramond, Carcassonne, Aude, France	43.211910000000046	2.3580400000000736
Niedersickte Estate, Lower Saxony, Germany	52.21234000000004	10.637000000000057
Isabel, South Dakota, USA	45.392630000000054	-101.42982999999998
New Ross, Ireland	52.39563000000004	-6.9455299999999625
Fun Extreme Canopy, Visegrd, Pest, Budapest, Hungary	47.49972000000008	19.055080000000032
Bolton Est, Qubec, Canada	45.201280000000054	-72.35585999999995
Schneberger Rathaus, Berlin, Germany	52.54597000000007	13.499990000000025
4130 Greenbush Ave, Sherman Oaks, Los Angeles, California, USA	34.14486558090485	-118.42607725933429
San Jose City, Nueva Ecija, Philippines	15.791680000000042	120.98987000000011
Luhacovice, Czech Republic	49.10104000000007	17.76016000000004
Riverfront Park, Cottonwood, Arizona, USA	34.746830000000045	-112.01454999999999
Walter Dodge House, Irving Gill, 1916, 950 N Kings Rd, West Hollywood, California, USA	34.08837024424374	-118.37174930203753
Texas State Highway 22 and Farm to Market Road 309, Hillsboro, Texas, USA	32.002866000000004	-97.1576955
Hotel Splendido, Portofino, Genoa, Liguria, Italy	44.30570006939239	9.209949988891553
Grand Palais, 21 avenue Franklin Delano Roosevelt, Paris 8, Paris, France	48.866580000000056	2.3100499961049312
Parque Nacional Ordesa y Monte Perdido, Pyrnes, Spain	42.650000000000034	0.08333000000004631
The Big Prawn, Ballina, New South Wales, Australia	-28.864309999999932	153.5312600000001
San Miguel, San Antonio, Zambales, Philippines	14.957820000000027	120.06586000000004
Gatesville, Texas, USA	31.43491000000006	-97.74368999999996
Naro Moru, Kenya	-0.16522999999995136	37.01737000000003
Ponte Galeria, Capranica, Viterbo, Lazio, Italy	42.267505698247284	12.183853415798225
Brookland, New York, USA	42.67038215868288	-73.82714499191337
Hallands Vder, Sweden	56.44306000000006	12.56167000000005
American Linen Supply, 900 N Highland Ave, Los Angeles, California, USA	34.087644	-118.33856779208287
Argenteuil, Qubec, Canada	45.727876077000076	-74.48018423299999
Old Trafford, Manchester, Greater Manchester, England, UK	53.45903000000004	-2.286749999999927
Chandannagore, India	22.862250000000074	88.36796000000004
Politika, Euboea, Greece	38.60000000000008	23.550000000000068
Union Pacific Railroad, Utah, USA	40.76944000000003	-111.90172999999999
The Trap Bar - 2822 E Avenue I, Lancaster, California, USA	34.70432489183818	-118.07877294872392
16744 Ventura Blvd, Los Angeles, California, USA	34.15851753302628	-118.49837288567302
Eibsee, Bavaria, Germany	47.457370000000026	10.99141000000003
Woburn Abbey Safari Park, Woburn, Bedfordshire, England, UK	52.006560000000036	-0.5854699999999298
St. Agnes Hospital, White Plains, New York, USA	41.03379000000007	-73.76343999999995
Chteau du Vert-Galant, 4 rue Pierre Brossolette, Asnires-sur-Oise, France	49.132310000000075	2.3560000000000514
The Colcot Arms, Colcot Road, Barry, Vale of Glamorgan, Wales, UK	51.41698000000008	-3.2830099999999334
Langley Court, Liss, Hampshire, England, UK	51.0482477711847	-0.8479386381050225
Lyce Clmenceau - 31 Avenue Georges Clmenceau, Montpellier, Hrault, France	43.601949956142974	3.869499977783026
Ile d'Yeu, Vende, France	46.82038791521916	-2.130685188638989
1999 Country Club Way, Victoria, BC	48.477090467943924	-123.53142199024782
Church of St John-at-Hackney, Lower Clapton Road, Hackney, London, England, UK	51.55075745434917	-0.05255555740818853
Woodland North Carolina, USA	36.332760000000064	-77.21115999999995
The West Country, England, UK	51.28036000000003	-2.7721899999999664
Birger Jarlspassagen, Stockholm, Stockholms ln, Sweden	59.33389995224784	18.07427993724419
Conservatoire Royal, 30A, rue de la Rgence, Bruxelles, Bruxelles-Capitale, Belgique	50.83946000000003	4.355580000000032
Primrose Hill, London, England, UK	51.53669000000008	-0.15791999999993322
Dolan Springs, Arizona, USA	35.592370000000074	-114.27107999999998
South Gate, Xi'an City Wall, Xi'an, Shaanxi, China	34.25833000000006	108.92861000000005
Cementerio de Torrero, Zaragoza, Aragn, Spain	41.62045000000006	-0.8864699999999743
Meucon, Morbihan, France	47.71721000000008	-2.7650299999999675
Ostfriesland, Lower Saxony, Germany	53.26224750000001	8.116035749999998
Independence, Oregon, USA	44.85116000000005	-123.18687999999997
Jinyun County, Lishui, Zhejiang, China	28.408060000000035	119.53333000000009
St. Alexander Nevski Temple, Sofia, Bulgaria	42.69583000000006	23.33295000000004
Ocean City, New Jersey, USA	39.27940000000007	-74.57554999999996
Grounds, Pinewood Studios, Iver Heath, Buckinghamshire, England, UK	51.54885000000007	-0.5322699999999259
Timote, Buenos Aires, Federal District, Argentina	19.404477	-99.14879925
Riverport, Nova Scotia, Canada	44.29501000000005	-64.32732999999996
Honaker, Virginia, USA	37.016710000000046	-81.97441999999995
Avellino, Campania, Italy	40.91217000000006	14.792880000000025
Elstree and Borehamwood railway station, Borehamwood, Hertfordshire, England, UK	51.65354000000008	-0.2792499999999336
HMS Caroline, Belfast, County Antrim, Northern Ireland, UK	54.60489373962661	-5.9531168767288865
North Shore High School - 13501 Hollypark Drive, Houston, Texas, USA	29.789150000000063	-95.18460999999996
Molesey Football Club, Walton Road, West Molesey, Surrey, England, UK	51.40294000000006	-0.367909999999938
Bridge of Sighs, Catte Street, Oxford, Oxfordshire, England, UK	51.75446004385712	-1.2538199633562117
New Berlin, Wisconsin, USA	42.975370000000055	-88.11855999999995
Lyce Louis Pasteur - Rue des Urbanistes, Lille, Nord, France	50.64156000000003	3.070380000000057
EaglePoint Church at 301 Henry Rd SW, Jacksonville, Alabama, USA	33.785767523803536	-85.7671335
Stazione Centrale, Prato, Tuscany, Italy	43.87838000000005	11.109060000000056
Cherry Lane, Laverton North, Victoria, Australia	-37.83712411286012	144.79656422787548
Restaurant routier-Station service, Nationale 4, Orcet, Puy-de-Dme, France	46.55941704400004	2.5505399530000545
Mont-Tremblant National Park, Qubec, Canada	46.26123000000007	-74.50956999999994
Espoo-Kilo, Finland	60.21662659918624	24.78370827127801
XEW y XEWT, Canal 2, Televicentro, Mexico City, Distrito Federal, Mexico	19.301098500000002	-99.23281425
Gansbaai Island, South Africa	-34.58216999999996	19.35161000000005
Circuit de Magny-Cours, Nevers, Nivre, France	46.85967000663278	3.162600081941276
Koldinghus, Kolding, Jylland, Denmark	55.491499941139345	9.47433007328751
