location	lat	long
Hesleyside, Bellingham, Hexham, Northumberland, England, UK	55.14487000000008	-2.253659999999968
Cotroceni National Museum, Bucharest, Romania	44.43532000000005	26.06281000000007
Kloster Au am Inn, Bavaria, Germany	48.167295703043315	12.32607992968194
Gwinnett County, Georgia, USA	33.961192779000044	-84.02358400099996
Burn's B-B-Q, Houston, Texas, USA	29.76058000000006	-95.36967999999996
Santiago de Chile, El Truco, Quirihue, Chile	-33.52273206268227	-70.77177649825883
Upper Nyack, New York, USA	41.10113000000007	-73.91716999999994
Lufra Hotel, Eagle Neck, Tasmania, Australia	-43.009659	147.9287835
Adelaide Riverbank Pedestrian Bridge, River Torrens, Adelaide, South Australia, Australia	NaN	NaN
Moena, Trento, Trentino-Alto Adige, Italy	46.37782000000004	11.662640000000067
Peachtree Summit Federal Building, Atlanta, Georgia, USA	33.76509000000004	-84.38746999999995
Steinfurt, Germany	52.150090000000034	7.338950000000068
Porsche Audi - 1921 St. Johns Avenue, Highland Park, Illinois, USA	42.18732290120599	-87.79952586118672
Boonville, Missouri, USA	38.972410000000025	-92.74286999999998
Ava Lounge - 210 West 55th Street, New York City, New York, USA	40.764545727999334	-73.98185429822837
Albion, Indiana, USA	41.39509000000004	-85.42397999999997
Menlo Bar, 900 W. Martin Luther King, Jr. Blvd., Los Angeles, California, USA	34.01089555395598	-118.29017141035258
800 W. Olympic Blvd, Suite 307 Los Angeles, California, USA	34.04492071741883	-118.26406694589461
Vauxhall Bridge, Westminster, London, England, UK	51.487930900894256	-0.12779540661852437
Zwolle, Netherlands	52.51621000000006	6.0924700000000485
Pevensey, Kent, England, UK	51.27558750000001	0.5157585000000036
Hudson River, New York, USA	40.69677000000007	-74.02819999999997
Franklin Street and Milton Street, Greenpoint, Brooklyn, New York, USA	40.729149000000014	-73.957482
Big Chico Creek, Chico Canyon, Bidwell Park - Manzanita Avenue, Chico, California, USA	39.745880037364	-121.80653008122097
Snape, Suffolk, England, UK	52.170300000000054	1.5005200000000514
Inter-Continental Hotel - 2151 Avenue of the Stars, Los Angeles, California, USA	34.05435741268987	-118.41190550170211
Pszczyna, Slaskie, Poland	49.97772000000003	18.949770000000058
Canada Lake and Lodge, Creigiau, Cardiff, Wales, UK	51.524590000000046	-3.324619999999925
Lamar Theater, 1716 Lamar Avenue, Memphis, Tennessee, USA	35.119107479629335	-90.00496865000869
Hotel Cala Rosa, Ovile del Mercante, Stintino, Italy	40.94363000000004	8.226410000000044
1177 Hillside Road, Pasadena, California, USA	34.12547958953185	-118.15963901018488
Colorado Public Television, 2900 Welton St, Denver, Colorado, USA	39.756829464597025	-104.97534492434662
Bora Bora Way, Marina del Rey, California, USA	33.97153478038019	-118.45373466547801
Ocean View Caf, Manhattan Beach, California, USA	33.89116529395664	-118.41505203266185
Passerelle Debilly, Seine River, Paris, France	48.86297873172336	2.296595600529365
Sa Conca Beach, S'Agar, Castell-Paltja d'Aro, Girona, Catalonia, Spain	41.791570000000036	3.053320000000042
Hanover, Germany	52.37227000000007	9.738150000000076
Langar Hall, Langar, Nottinghamshire, England, UK	52.90528000000006	-0.922589999999957
Chiloquin, Oregon, USA	42.576820000000055	-121.86374999999998
Jetty - 72nd Place, Long Beach, California, USA	33.74531116183644	-118.11722682715484
Apgar Village, Montana, USA	48.523750000000064	-113.99365999999998
Carrubbers Close, Edinburgh, Scotland, UK	55.95076200904737	-3.187135811752033
St Mary's Gate, Lace Market, Nottingham, Nottinghamshire, England, UK	52.95204231251527	-1.1442005353648523
West 62nd Street, Manhattan, New York City, New York, USA	40.77421199999999	-73.9908765
The Oval Tavern - 131 Oval Road, Croydon, London, England, UK	51.37825000000004	-0.08745999999996457
Gallecs, Barcelona, Catalonia, Spain	41.56389000000007	2.1957400000000575
San Remo, Imperia, Liguria, Italy	43.82214000000005	7.784420000000068
Spanjaardslaan, Leeuwarden, Friesland, The Netherlands	53.204148094151684	5.787370865906181
Hrsfjrden, Stockholms ln, Sweden	59.066670000000045	18.14972000000006
Nairobi National Park, Kenya	-1.3367499999999382	36.77985000000007
Newmartet, Ontario, Canada	44.04016000000007	-79.45852999999994
Langenberg, Velbert, North Rhine-Westphalia, Germany	51.352670000000046	7.121220000000051
Villa Calcare, Malibu, California, USA	34.03652000000005	-118.68795999999998
Putney's Brake & Alignment Service, Hamilton, Ontario, Canada	43.268820051647424	-79.84167995888417
Scandretts Regional Park, Rodney District, Auckland Region, New Zealand	-42.28723356399996	172.34343250000006
KBS Studios, Kyoto, Japan	35.011697050000066	135.76816161700003
Burnham Beeches, Buckinghamshire, England, UK	52.04652986391086	-0.7708346878774445
Lonorore Airport, Pentecost Island, Vanuatu	-15.865599999999972	168.17200000000003
Grevenmacher, Luxembourg	49.68923366100006	6.349975955000048
Parque Nacional Conguillo, IRegin de Los Lagos, Chile	-41.45653956911365	-72.90606011731498
Kimaya Bungalow, Pune, India	18.504750000000058	73.82196000000005
Cottage Street, Blackburn, Victoria, Australia	-37.819408499999994	145.15745625000002
Fujikawa Station, Fuji-shi, Shizuoka, Japan	35.16054455700004	138.6179369340001
Gare de Montpellier-Saint-Roch, place Auguste-Gibert, Montpellier, Hraut, France	43.60421000000008	3.877620000000036
124 Judge John Aiso St, Los Angeles, California, USA	34.05098251955923	-118.24035501755273
Amandi Bunglow, India	42.401590000000056	-7.506329999999934
Iztapa, Escuintla, Guatemala	13.930000000000064	-90.71506999999997
Ravensberger Spinnerei, Bielefeld, North Rhine-Westphalia, Germany	52.022170069969306	8.542190028419853
W 23rd St, Los Angeles, California, USA	34.03544995118558	-118.30302671964948
Caf Savanna, 216 norte, Distrito Federal, Brazil	NaN	NaN
Oakworth station, Keighley & Worth Valley Railway, West Yorkshire, England, UK	53.854070000000036	-1.9159699999999589
Champagne-sur-Oise, Val-d'Oise, France	49.13748000000004	2.239900000000034
Himanshu Pandya Financial Office, Elmsford, New York, USA	41.053720000000055	-73.81964999999997
Isle of Skye, Scotland, UK	57.42034000000007	-6.539179999999931
Caf-Htel Tout Va Bien, Paris, France	48.57254000000006	-3.3537999999999784
40 2nd Avenue and 2nd Street, Manhattan, New York, USA	40.72492799999999	-73.9903455
Halden, Norway	59.12150000000008	11.384510000000034
Clements, California, USA	38.19031000000007	-121.08947999999998
Plan, Tachov District, Czech Republic	49.906960000000026	13.07839000000007
Po river, Boretto, Reggio Emilia, Emilia-Romagna, Italy	44.68798771355935	10.601302143361183
Aaam Khas Bagh, Sirhind, Fatehgarh Sahib, Punjab	30.630280000000027	76.38971000000004
Aspley House, London, England, UK	51.455652955786874	-0.18795363478258317
Michaelstow, Cornwall, England, UK	50.578310000000045	-4.712489999999946
Beloostrov, Leningrad Oblast, Russia	60.17746050000002	29.960464500000008
Ugong Norte, Quezon City, Metro Manila, Philippines	14.598630000000071	121.07141000000001
Tap and Barrel NY, Smithtown, New York, USA	40.84516000000008	-73.27249999999998
Cerritos, California, USA	33.86854000000005	-118.06369999999998
Manastir Zica, Serbia	43.696000000000026	20.646310000000028
Monahans Sandhills State Park - Route 41, Monahans, Texas, USA	31.61886000000004	-102.81181999999995
Brasov, Brasov County, Romania	45.75000000000006	25.333330000000046
Grumman Studios, Bethpage, Long Island, New York, USA	40.741682243997786	-73.48571665938795
Hawaii Institute of Marine Biology, Honolulu, O'ahu, Hawaii, USA	21.439542579000033	-157.94363192999998
Latonia, Kentucky, USA	39.04768000000007	-84.50895999999995
Stribro, Czech Republic	49.753900000000044	13.000020000000063
Elifaz, Israel	29.794620000000066	35.012020000000064
10066 Cielo Drive, Beverly Hills, California, USA	34.09499365230717	-118.43313266030992
South Pacific Islands	-14.434679999999958	174.11133000000007
8787 Santa Monica Blvd., Los Angeles, California, USA	34.08624203110381	-118.38225923593386
Thtre Marigny, Paris 8, Paris, France	48.83099000000004	2.292410000000075
Dajbych Showroom, Prague, Czech Republic	50.07314003664377	14.353739968838925
Pole Dance Studio Penthouse - 1026 Davie St, Vancouver, British Columbia, Canada	49.27944878821638	-123.12982721720796
Konzerthaus, Berlin, Germany	52.51478000000003	13.391100000000051
Woodley Ave, Van Nuys, Los Angeles, California, USA	34.199998586291066	-118.48368149999999
Svit, Slovakia	49.05797000000007	20.208500000000072
Kelani River, Sri Lanka	6.978500000000054	79.86800000000005
Jasna Gra, Czestochowa, Slaskie, Poland	50.81220006217902	19.111359959461183
East India Marine Hall, Salem, Massachusetts, USA	42.523613999999995	-70.88188725
Haus fr Mozart, Salzburg, Salzburg, Austria	47.800080036643784	13.042659948929616
Karakum Desert, Mary, Turkmenistan, Soviet Union	39.00000000000006	60.00000000000006
Centerton, New Jersey, USA	39.996230000000025	-74.87185999999997
Gorga, Alacant, Comunitat Valenciana, Spain	38.720210000000066	-0.35627999999996973
The Runcible Spoon Bakery, 37 N. Broadway, Nyack, New York, USA	41.092050824311855	-73.91795529542975
Fosters' Bookshop, London, England, UK	51.59706512216808	0.03255509014428347
Klis, Croatia	43.55801000000008	16.52293000000003
Ro Azul, Costa Rica	9.911530000000027	-83.66519999999997
Tulum, Mexico	20.210870000000057	-87.46321999999998
The Pagoda, Skyline Drive, Mt. Penn, Reading, Pennsylvania, USA	40.374880074991005	-75.88184604577128
South Terrace, Adelaide, South Australia, Australia	-34.935501981970894	138.60337878846568
Thames footpath, Nr Twickenham, Middlesex, England, UK	51.44659000000007	-0.32816999999994323
le de Batz, Finistre, France	48.68617779558624	-3.988126758517242
Shidler, Oklahoma, USA	36.78145000000006	-96.66120999999998
Slough Trading Estate, Slough, Berkshire, England, UK	51.52100000000007	-0.6269999999999527
La grotte de l'Apothicaire, Belle-le-en-Mer, Morbihan, France	48.13537000000008	-2.8617499999999723
Cork Arts Theatre, Cork City, Ireland	51.90153000000004	-8.473189999999931
Galerie Vro-Dodat, 19 rue Jean-Jacques Rousseau, Paris 1, Paris, France	48.857210000000066	2.341440000000034
Medelln, Antioquia, Colombia	6.2426300000000765	-75.56326999999999
West San Fernando Valley, Los Angeles, California, USA	34.14524374109892	-118.27156487054945
Wharf Front, Port Adelaide, South Australia, Australia	-34.849999999999966	138.46667000000002
Liberty Research Inc, 1484 Talmadge Hill Road S, Waverly, NY 14892, New York, USA	42.04550716763808	-76.49996650190458
Dixon, Illinois, USA	41.84791000000007	-89.48455999999999
5464 Wilshire Blvd, Los Angeles, California, USA	34.06225952842077	-118.34768558534824
Interstate 210, La Crescenta, California, USA	34.22432834371169	-118.2503812553092
The Ropewalk Pub - Birmingham, West Midlands, England, UK	52.485600000000034	-1.9050999999999476
El Rancho Escondido, 1 El Rancho Escondido Road, Avalon, Santa Catalina Island, Channel Islands, California, USA	NaN	NaN
Gardner, Kansas, USA	38.81102000000004	-94.92726999999996
Labrador, Queensland, Australia	-27.94593999999995	153.4084600000001
Newcastle, KwaZulu-Natal, South Africa	-27.754849999999976	29.929080000000056
Campana, Pcia de Buenos Aires, Federal District, Argentina	-34.58529999999996	-58.489529999999945
Illinois, USA	40.11404657000003	-89.15865090199998
2261 West 21st Street, Los Angeles, California, USA	34.038139493219326	-118.31386427699232
Komrno, Slovakia	47.759070000000065	18.130930000000035
Pevensey Castle, Pevensey, Kent, England, UK	50.82015000000007	0.33481000000006134
Bouwhandelstraat, Borgerhout, Belgium	51.20252951702609	4.445910905995259
4177 Bakman Ave, Studio City, Los Angeles, California, USA	34.14454573022105	-118.37793567848676
Le Fu Flea Kansas city, Missouri, USA	39.103450000000066	-94.58310999999998
Doberdob, Italy	45.84591000000006	13.539610000000039
Dunstable Downs, Hertfordshire, England, UK	51.91805169146143	0.16888341016851754
Bankstown, Sydney, New South Wales, Australia	-33.91479999999996	151.03412000000003
All Saints' Episcopal Church - 504 N. Camden Drive, Beverly Hills, California, USA	34.07061615572151	-118.40604278209956
Gabbs, Nevada, USA	38.866010000000074	-117.92206999999996
Woodthorpe Road, Putney, London, England, UK	51.46157925094545	-0.23280214927737897
Tighza, Morocco	31.629670000000033	-6.514659999999935
St. Andrews Bungalow Court, Hollywood, Los Angeles, California, USA	34.10590949464991	-118.31155236876477
University of California, Santa Barbara, California, USA	34.416300000000035	-119.84735999999998
Gorky, Russia	56.328670000000045	44.002050000000054
Tucson Mountain Park, Tucson, Arizona, USA	32.20259000000004	-111.12294999999995
Columbia River, Oregon, USA	46.24427000000003	-124.05792999999994
Houffalize, Belgium	50.13228000000004	5.790200000000027
Svar, Sweden	64.71258554700006	17.260487956000077
Prenestino neighborhood, Rome, Lazio, Italy	41.88570000000004	12.535210000000063
Sepidan, Iran	30.260610000000042	51.98424000000006
University of Hartford, West Hartford, Connecticut, USA	41.793570000000045	-72.71640999999994
Brenstein, Saxony, Germany	50.49810000000008	13.027920000000051
Pongratz Palace, Zagreb, Croatia	45.80852992339437	15.977889926135708
Fort Steele, British Columbia, Canada	49.617650000000026	-115.62775999999997
Letchworth, Hertfordshire, England, UK	51.97255000000007	-0.22223999999994248
Oriental Institute of the University of Chicago, Chicago, Illinois, USA	41.79001001832193	-87.60126995989475
El Royale Motel - 11117 Ventura Boulevard, Studio City, Los Angeles, California, USA	34.14137308661765	-118.37243150040402
Isua, Greenland	60.333330000000046	-45.416669999999954
Meadowcrest, Lexington, Kentucky, USA	37.96414200000001	-84.52321425
Zimbabwe	-19.016205470999978	29.884276749000037
Artesia, New Mexico, USA	32.84326000000004	-104.39759999999995
Walnut Park, California, USA	33.96948000000003	-118.22028999999998
East Williston, New York, USA	40.75687000000005	-73.63846999999998
Downtown Saint Louis, Missouri, USA	38.62549000000007	-90.19029999999998
North Branch, Michigan, USA	43.229370000000074	-83.19514999999996
Ft. Greely, Alaska, USA	63.95555000000007	-145.73198999999997
Herrenhaus Grabau, Grabau, Kreis Stormarn, Schleswig-Holstein, Germany	53.80361000000005	10.277480000000025
Tlaxiaco, Oaxaca, Mexico	17.079657610706974	-96.76279646836576
Theater BIS, Den Bosch, Noord-Brabant, Netherlands	51.72965099999999	5.326269750000018
Fairmont, Oklahoma, USA	36.35628000000003	-97.70717999999994
A La Ronde, Exmouth, Devon, England, UK	50.64241000000004	-3.409279999999967
Museum of History and Industry, Seattle, Washington, USA	47.62758004385715	-122.33698991892223
Kivenlahti, Espoo, Finland	60.15239000000008	24.629910000000052
The Pram Factory, Carlton, Melbourne, Victoria, Australia	-37.80100999999996	144.9694800000001
Muntenia, Romania	44.00000000000006	26.000000000000057
Lenox Avenue between 141st & 142nd Streets, Harlem, Manhattan, New York City, New York, USA	40.82047214509395	-73.93630701759717
Lettonia, Latvia	56.85460987000005	24.926839006000023
Rue du Volga, Paris 20, Paris, France	48.86460000000005	2.398400000000038
The Roundhouse, Sheepcote Street, Birmingham, West Midlands, England, UK	52.476145074084315	-1.9136530813407324
Lake Corpus Christi, Texas, USA	28.043570000000045	-97.86466999999999
Salix, Iowa, USA	42.30850000000004	-96.28972999999996
Son Oleza, Mallorca, Balearic Islands, Spain	39.613620000000026	3.0200400000000514
N Franklin St and W Chicago Ave, Chicago, Illinois, USA	41.896575	-87.635673
National Chiang Kai-shek Memorial Hall, Chung Shan South Road, Zhongzheng District, Taipei City, Taiwan	25.036700000000053	121.5171600000001
Santa Tecla, El Salvador	13.676940000000059	-89.27971999999994
Heathfield, Devon, England, UK	50.56776000000008	-3.656699999999944
H`ena, Kaua'i, Hawaii, USA	21.943610000000035	-159.49388999999996
Glencoe, Oklahoma, USA	36.22770000000003	-96.92882999999995
Marikana, Transvaal, South Africa	-25.698069999999973	27.47497000000004
Eglise Saint-Martin, Herblay, Val-d'Oise, France	49.136370000000056	2.1446800000000508
Walmer Castle, Walmer, Kent, England, UK	51.20127000000008	1.4025000000000318
Smrum Kirke, Smrum, Sjlland, Denmark	54.86746836429086	11.131317529973195
Uuras, Finland	63.69667000000004	28.02870000000007
The Kimmel Center, Philadelphia, Pennsylvania, USA	39.94635000000005	-75.16492999999997
Kisa, stergtlands ln, Sweden	64.71258554700006	17.260487956000077
Rialto Fish Market, Venice, Italy	45.43782991949925	12.336079956142965
Bilal's House, 207 E Olive Ave, Monrovia, California, USA	34.14486350432784	-117.99834333527613
135 Brackenbury Road, Hammersmith, London, England, UK	51.49720796443892	-0.23144297350174675
Camden Fort, Crosshaven, Co. Cork, Ireland	51.80892300291653	-8.285408151327928
Boulevard "Tsar Liberator", Sofia, Bulgaria	42.71738000000005	23.252380000000073
Fort Langley Community Hall, Fort Langley, Langley Township, British Columbia, Canada	49.16918000000004	-122.58735999999999
Conchos River Valley, Chihuahua, Mexico	27.97530000000006	-105.28848999999997
Berne, Lower Saxony, Germany	53.184780000000046	8.477550000000065
Brdstrup, Jylland, Denmark	55.959300779000046	10.053934054000024
Columbus, Mississippi, USA	33.49503000000004	-88.42879999999997
Doug's Gym, 2010 Commerce St., Dallas Texas, USA	32.78096731314196	-96.79351223410602
Chillicothe, Illinois, USA	40.91668000000004	-89.48553999999996
Gaislachkogl Mountain, Slden, Austria	46.94222000000008	10.967220000000054
Jajalpa, Estado de Mxico, Mexico	18.019600000000025	-90.88069999999999
Wiener Wald, Austria	47.721610062179	16.08084003000736
96 Avenue des Ternes, Paris 17, Paris, France	48.88044092340744	2.2868791383901965
Lunapark, Berlin, Germany	52.51604000000003	13.376910000000066
Ottery, Cape Town, Western Cape, South Africa	-34.01724999999993	18.51416000000006
Close Youth Correctional Facility, 7650 South Newcastle Road, Stockton, California, USA	37.89372596099309	-121.20205281563169
Castellar del Valls, Barcelona, Catalonia, Spain	41.615320000000054	2.085960000000057
Chuwadi, India	31.425000000000068	76.70156000000003
Sturgeon Bay, Wisconsin, USA	44.83519000000007	-87.37042999999994
Federation of Damanhur, Italy	31.03917000000007	30.46914000000004
The Suez Canal, Egypt	29.93139000000008	32.56278000000003
600 North Palmera Avenue, Pacific Palisades, Los Angeles, California, USA	NaN	NaN
NYC, New York, USA	40.71455000000003	-74.00713999999994
The Improv Comedy Club, Los Angeles, California, USA	34.09527000000003	-118.12418999999994
Eastman Theater, New York City, New York, USA	40.613971500000005	-74.08007325
White Pocket, Vermilion Cliffs National Monument, Arizona, USA	36.833330000000046	-111.96666999999997
Bellevue, Idaho, USA	43.46231000000006	-114.25992999999994
524 Vernon Street, Nelson, British Columbia, Canada	49.49282133469259	-117.29428455639153
Colegio San Jos, Rio Piedras, Puerto Rico	18.396030000000053	-66.04702999999995
Colma, California, USA	37.67764000000005	-122.45947999999999
Pawling New York, USA	41.56257000000005	-73.60091999999997
Sant Joan Desp, Barcelona, Catalonia, Spain	41.42092000000008	1.8202000000000567
Chatham Strait, Alaska, USA	56.96500000000003	-134.62555999999995
Pebble Shore Ln, Southport, North Carolina, USA	33.928983393809276	-78.00234458003813
Spalding Surgical Center - 120 South Spalding Drive, Beverly Hills, California, USA	34.06623249708581	-118.40887780319137
Kabou, Bassar, Togo	9.259910000000048	0.7808000000000561
Square Jean Houdon, Versailles, Yvelines, France	48.81357000000003	2.136060000000043
Cabot Square, Canary Wharf, London, England, UK	51.50490095867602	-0.022389912397192627
Wembley Conference Centre, Empire Way, Wembley, London, England, UK	51.50642000000005	-0.1272099999999341
Darapur, Punjab, Pakistan	32.726530000000025	73.54077000000007
Villnykvesd, Hungary	45.88116000000008	18.428870000000074
Manastash Ridge, Washington, USA	46.85791000000006	-120.34783999999996
Lincoln, England, UK	53.22545000000008	-0.5423899999999549
Kratovo, Macedonia	42.08054000000004	22.182480000000055
Tyres, Stockholms ln, Sweden	59.31926002943041	18.06967995167091
Murphy Hall, UCLA - Los Angeles, California, USA	34.050780422051574	-118.78842301140976
Lenzburg, Kanton Aargau, Switzerland	47.333330000000046	8.166670000000067
Kent County Jail, Grand Rapids, Michigan, USA	42.96641000000005	-85.67117999999994
Place de Jaude, Clermont-Ferrand, Puy-de-Dme, France	45.77651994892961	3.0816799961048904
Hindmarsh, South Australia, Australia	-35.53332999999998	138.81667000000004
Chala Market, Thiruvananthapuram, Kerala, India	8.48440000000005	76.95553000000007
Gatehouse of Fleet, Dumfries & Galloway, Scotland, UK	55.07582436200005	-3.9575650199999473
Menuhin Music School, Stoke D'Abernon, Surrey, England, UK	51.31541000000004	-0.3797099999999318
Fort East Martello Museum and Gardens - 3501 S. Roosevelt Boulevard, Key West, Florida Keys, Florida, USA	NaN	NaN
Kofu, Yamanashi, Japan	35.662107915000036	138.56826991600008
Strehla, Saxony, Germany	51.35310000000004	13.22598000000005
Roe Green Primary School, London, England, UK	51.46089000000006	-0.07663999999994076
Artscape Theater, D F Malan Street, Cape Town, Western Cape, South Africa	-33.919470026689005	18.429210079490314
Artiance, Alkmaar, Noord-Holland, Netherlands	52.63259000000005	4.752350000000035
Mingan, Qubec, Canada	50.30326000000008	-64.03523999999999
Nykping, Sdermanlands ln, Sweden	58.75020996335635	17.011460062179005
Wildenbruch, Brandenburg, Germany	52.28502000000003	13.064160000000072
Luxor, Egypt	25.702380000000062	32.649290000000065
Gieterijstraat 8A, 4814 DA Breda, Netherlands	51.59216700000002	4.767817500000007
WBBM TV, Chicago, Illinois, USA	41.884250000000065	-87.63244999999995
Rialto Restaurant, Charles Hotel - One Bennett Street, Cambridge, Massachusetts, USA	42.372420000000034	-71.12233999999995
Botofago Bay, Rio de Janeiro, Brazil	NaN	NaN
Rue Baudricourt, Paris 13, Paris, France	48.82623016921952	2.3633386438366153
S.S.P.M.S., India	19.097530000000063	72.84807000000006
The Colony Apartments, Fort Lee, New Jersey, USA	40.85339000000005	-73.97427999999996
Strasburg, Pennsylvania, USA	39.98255000000006	-76.18721999999997
Naperville Park District, Naperville, Illinois, USA	41.70530000000008	-88.19784999999996
5360 Topanga Canyon Blvd, Woodland Hills, Los Angeles, California, USA	34.167716999999996	-118.60574875933429
Vaaren, Switzerland	46.317660000000046	7.605930000000058
Betania, Georgia	41.67753000000005	44.636600000000044
Mairie, Boulevard Henri IV, Ambert, Puy-de-Dme, France	46.55941704400004	2.5505399530000545
Danville, Kentucky, USA	37.645970000000034	-84.77496999999994
Porthluney Cove, Cornwall, England, UK	50.29186000000004	-4.7821199999999635
Dafniya, Libya	32.41423000000003	14.793350000000032
New Road, Fratton, Portsmouth, Hampshire, England, UK	50.800740000000076	-1.076029999999946
CBC Studios, Vancouver, British Columbia, Canada	49.260380000000055	-123.11335999999994
D & D Executive Transportation, Garden City, Michigan, USA	44.29862002611219	-84.70652999999999
The Iron Horse Regional Trail, Danville, California, USA	37.83162000000004	-122.00476999999995
Santa Susana Pass Rd., Los Angeles, California, USA	34.274040239788185	-118.62071066962932
Rogaska Slatina,Slovenia	46.23031000000003	15.638270000000034
Targu Jiu, Romania	45.03782000000007	23.26878000000005
Keystone Heights, Florida, USA	29.78558000000004	-82.03128999999996
Ultimo, Sydney, New South Wales, Australia	-33.88006999999993	151.19878000000006
Sant Adri del Bess, Catalonia, Spain	42.05152000000004	2.7387500000000387
Plynrn 1096/23, 170 00 Praha 7-Holesovice, Czechia	50.111061648396934	14.438713876422424
Tuckahoe Plantation - 12601 River Road, Richmond, Virginia, USA	37.58236991834913	-77.654729989902
Quimper Sound, Port Townsend, Washington, USA	48.08259000000004	-122.76210999999995
San Felipe desert, Baja California, Mexico	31.02144000000004	-114.84032999999994
The Space Project, Vaughan Street, West Gorton, Manchester, England, UK	53.461110000000076	-2.173059999999964
Rome Marriott Grand Hotel Flora, Via Vittorio Veneto, Rome, Lazio, Italy	41.90904004385713	12.488630029430428
The Hamptons, Long Island, New York, USA	40.80716000000007	-73.29446999999993
Ancaster, Ontario, Canada	43.225910000000056	-79.97684999999996
Charbonnires-les-Bains, Rhne, France	45.78237000000007	4.736760000000061
Castaic Lake, California, USA	34.519990000000064	-118.60647999999998
Mona Boulevard, Watts, Los Angeles, California, USA	33.931063930810794	-118.23081714103458
UA Studios, Dallas, Texas, USA	32.891895	-96.93904500000001
608 Lincoln Boulevard, Venice, California, USA	33.99998450253942	-118.46489063111252
Dallas, Pennsylvania, USA	41.33218000000005	-75.95475999999996
Cloverleaf Pension House, Baguio City, Benguet, Philippines	16.413020000000074	120.59076000000005
South Ealing, London, England, UK	51.49741550120228	-0.30423774338752024
United States National Bank, Portland, Oregon, USA	45.58881000000008	-122.59006999999997
70 Broad St, Schuylerville, NY, USA	43.09837521703507	-73.58191089713794
Wah Yeung - 81 Mulberry Street, New York City, New York, USA	40.71648153649951	-73.99900897391652
Silt, Colorado, USA	39.54702000000003	-107.65417999999994
Frankfurt Airport, Frankfurt am Main, Hessen, Germany	50.05055992382798	8.564420056835939
Rowy, Pomorskie, Poland	54.25000000000006	18.000000000000057
Szczecin, Zachodniopomorskie, Poland	53.42521000000005	14.555490000000077
Georgetown Drive-In - 8200 State Road 64, Georgetown, Indiana USA	38.29551005785025	-85.96089992339427
Oude Raadhuis, Hoofddorp, Noord-Holland, Netherlands	52.3011474694863	4.694950127022465
Ghost Town of Bannack, Montana, USA	46.85057549999999	-113.98590899999999
Veierland, Norway	59.15389000000005	10.351390000000038
Kavik River Camp, Alaska, USA	70.04528000000005	-147.32971999999998
Landmark 97 Atkinson-Escher House - 1032 Broadway Between Jones and Taylor, Russian Hill, San Francisco, California, USA	NaN	NaN
Mark Hellinger Theater - 237 West 51st Street, Manhattan, New York City, New York, USA	40.76233218818162	-73.98420253413356
Vienne, France	45.52174000000008	4.872450000000072
Tysvr, Rogaland, Norway	59.11214040400006	6.212941412000021
Vitte, Kloster, Insel Hiddensee, Germany	54.568400000000054	13.106020000000058
Heritage Hall, Cape Girardeau, Missouri, USA	37.26334280112233	-89.64974987846568
Beaumont, Texas, USA	30.086150000000032	-94.10134999999997
Booskerdoo Coffee & Bakery Shop, 793 River Rd, Fair Haven, New Jersey, USA	40.36511000389519	-74.03415006607408
White Rock Lake, Dallas, Texas, USA	32.82611252917819	-96.71605369844613
Teatr Lalek, Wroclaw, Dolnoslaskie, Poland	51.115590000000054	17.06239000000005
South Devon Railway, Devon, England, UK	50.43602000000004	-3.689139999999952
Roadkill Cafe - 502 W. Highway 66, Seligman, Arizona, USA	35.328520000000026	-112.88386999999994
Mid-America Center, Council Bluffs, Iowa, USA	41.23739003000734	-95.89162997273398
Imagoateljerna, Folkan, stermalmstorg, stermalm, Stockholm, Stockholms ln, Sweden	59.33605322556517	18.07982388282633
Queen Creek Golf Course	33.243760000000066	-111.61785999999995
Teatro Greco, Taormina, Messina, Sicily, Italy	37.85261991949923	15.290760036787077
Saracinesco, Lazio, Italy	42.00316000000004	12.952820000000031
Knokke, Knokke-Heist, East Flanders, Belgium	51.34604000000007	3.2888300000000754
Gackle, North Dakota, USA	46.629320000000064	-99.14262999999994
Scotland Island, NSW, AUS	-33.63969999999995	151.2873800000001
Divadlo Komedie, Prague	50.07938004385714	14.422139988891574
San Diego, California, USA	32.71568000000008	-117.16170999999997
Bannockburn, Illinois, USA	42.19420000000008	-87.86725999999999
The Movement Gym	17.399517037248074	102.77379727639254
Durbar Square, Nepal	27.673490000000072	85.32519000000008
Humboldt State University - 1 Harpst Street, Arcata, California, USA	40.87411000000003	-124.08152999999999
1751 E Olympic Blvd, Los Angeles, California, USA	34.02846049099763	-118.24001082887082
Molinaire Studios, London, England, UK	51.459817201315026	-0.13948550109587132
Rocky Mountains, Alberta, Canada	52.00000000000006	-117.25228999999996
A1A Scenic and Historic Coastal Byway Bridge, St. Augustine, Florida, USA	29.862262026573344	-81.2715599432173
Powderly, Kentucky, USA	37.23442000000006	-87.16080999999997
Grotte des Demoiselles, Hrault, France	43.90728000000007	3.7448000000000548
Stax Museum of America Soul Music - 926 East McLemore Avenue, Memphis, Tennessee, USA	35.115510027266005	-90.03128002337078
Dante Road, London, England, UK	51.49257286049461	-0.10351068555079154
Partco Autoparts, 231 The Vale, South Acton, London, England, UK	51.50633383490559	-0.26071528769507474
22 Parkside Avenue, Wimbledon, London, England, UK	51.42949039351308	-0.21977710648691898
Carswell Air Force Base, Fort Worth, Texas, USA	32.76902000000007	-97.44168999999994
Woodbury, Long Island, New York, USA	40.81483996941588	-73.47474993392585
Club Naturiste Richard Brunet - 400 Concession 2, St-Eugne, East Hawkesbury, Prescott-Russell, Ontario, Canada	45.49963000000008	-74.46666999999997
GM Building - 59th Street & 5th Avenue, Manhattan, New York City, New York, USA	40.76454599999999	-73.9736505
Ruppert Hall, Loyola High School - 1901 Venice Boulevard, Los Angeles, California, USA	34.04471004443405	-118.29663992887691
Resende, Viseu, Portugal	41.105380000000025	-7.961869999999976
West Coast Martial Arts, El Dorado Hills, California, USA	38.677040000000034	-121.07780999999994
6 Sutton Square, New York City, New York, USA	40.757795979456446	-73.95973216195391
Burkeville, British Columbia, Canada	49.17991000000006	-123.15002999999996
Malibu Rocky Oaks Vineyard - 340 Kanan Rd, Malibu, California, USA	34.03652000000005	-118.68795999999998
Henry Schein Dental, Calgary, Alberta, Canada	51.04532000000006	-114.06300999999996
Shorncliffe Redoubt, Folkestone, Kent, England, UK	51.081230965691155	1.1730303430884321
Caf De Prins, Prinsengracht 124, Amsterdam, Noord-Holland, Netherlands	52.37611469083804	4.884007362570461
St James's Church, Sussex Gardens, Bayswater, Paddington, London, England, UK	51.51326000000006	-0.17594999999994343
Moraas, Mecklenburg-Western Pomerania, Germany	54.25000000000006	18.000000000000057
Benowa, Queensland, Australia	-28.00992999999994	153.3922500000001
Lukuga, Democratic Republic Of Congo	-5.710859999999968	26.953400000000045
Chicora, Pennsylvania, USA	40.94798000000003	-79.74331999999998
Fit & Fearless, 2800 IH 35 South #100 Austin, Texas, USA	31.12523992206667	-97.34117062559864
Padua, Italy	45.409440000000075	11.871710000000064
Said Halim Pasha Manor, Turkey	40.46730000000008	41.04291000000006
Dunham Massey, Cheshire, England, UK	53.385740000000055	-2.4063599999999497
Clumber Park, Nottinghamshire, England, UK	53.27991000000003	-1.0613199999999665
Plaza de Toros la Monumental, Muro, Mallorca, Balearic Islands, Spain	39.613620000000026	3.0200400000000514
Asanka Local, Accra, Ghana	5.581070000000068	-0.19896999999997433
Dberitz, Havelland, Brandenburg, Germany	52.52216000000004	12.364750000000072
Kanasn, Yucatn, Mexico	20.93500000000006	-89.55825999999996
Mack Sennett Studios - 1712 Glendale Blvd., Silver Lake, Los Angeles, California, USA	34.085978826176714	-118.25982694468023
Lugones, Oviedo, Asturias, Spain	43.40098000000006	-5.810599999999965
Congress Centrum Hamburg, Hamburg, Germany	53.562119972734074	9.985690001297197
Luiss, Roma, Italy	43.74241000000006	12.879800000000046
Wattens, Tirol, Austria	47.29129000000006	11.592810000000043
Oxford, Michigan, USA	42.824730000000045	-83.26592999999997
Lone Hill Studios, Johannesburg, Gauteng, South Africa	-26.01147999999995	28.02371000000005
Saint-Leu-d'Esserent, Oise, France	49.216000000000065	2.418980000000033
Back Bay, Boston, Massachusetts, USA	42.34999000000005	-71.08764999999994
WDR 1LIVE Saal 1, Cologne, North Rhine-Westphalia, Germany	50.913853112428704	7.030453155379763
Beicon - 2-6-3, Togoshi, Shinagawa, Tokyo, Japan	35.61453900000001	139.72008599999998
Avinguda Maria Cristina, Barcelona, Catalonia, Spain	41.38690554685665	1.9267233926850822
Oriental Theatre 4335 W 44th Ave Denver, Colorado, USA	39.77662343825373	-105.0435155954758
Grey Gardens, Dunes Beach, USA	46.91931000000005	-104.00611999999995
Hormel Stadium - 97 Locust Street, Medford, Massachusetts, USA	42.408308566991295	-71.09290780228554
Bonogin, Queensland, Australia	-28.113429999999937	153.36381000000006
Bahelievler, Ankara, Turkey	39.92884000000004	32.82580000000007
Villa Esche, Chemnitz, Saxony, Germany	50.81520000000006	12.900050000000022
Bacolor, Pampanga, Philippines	15.003220000000056	120.65390000000002
Alaska Chilkat Bald Eagle Preserve - Mile Marker 21 Haines Highway, Haines, Alaska, USA	59.23113016940239	-135.44552210090285
Mount Druitt, Sydney, New South Wales, Australia	-33.76463999999993	150.81739000000005
Evangeline's Costume Mansion, 113 K Street, Sacramento, California, USA	38.58235530849949	-121.50547280345958
2420 McKinley Ave, Venice, Los Angeles, California, USA	33.98559376464306	-118.46268065678936
Kalibo, Philippines	11.696720000000028	122.36703000000011
Jean Dry Lake, Nevada, USA	39.452332659024975	-116.06710350530882
18528 Shetland Place, Granada Hills, California, USA	34.29535156561274	-118.53603928446547
Ras Al-Khaimah, United Arab Emirates	25.810070000000053	55.97232000000008
Gamla Enskede, Stockholm, Stockholms ln, Sweden	59.28323951714332	18.08696511326547
Keysborough, Melbourne, Victoria, Australia	-37.99235999999996	145.17541000000006
East Earl, Pennsylvania, USA	40.110100000000045	-76.03269999999998
Oy Suomen Filmiteollisuus, Helsinki, Finland	60.17116000000004	24.932650000000024
Bremervrde, Lower Saxony, Germany	53.483100000000036	9.15808000000004
B.R. Films, Mumbai, Maharashtra, India	18.958720000000028	72.81810000000007
Remembrance and Renewal Statue, Juno Beach Centre, Courseulles-sur-Mer, Calvados, France	49.334340000000054	-0.45778999999993175
Filmcity, Film City Road, Aarey Colony, Goregaon East, Mumbai, Maharashtra, India	19.136630000000025	72.88903000000005
Beach of Rueta, Cervo, Lugo, Galicia, Spain	43.68041679282022	-7.402839548615735
Lakefront Airport - 5901 Walter Beech Boulevard, New Orleans, Louisiana, USA	30.034164014412397	-90.02706178198909
Town House Motel, Guthrie, Oklahoma, USA	35.87801999552797	-97.42304005107042
Kasarmikatu, Kaartinkaupunki, Helsinki, Finland	60.16501956547316	24.947846721061655
Strokkur, Reykjavk, Iceland	64.12869000000006	-21.91784999999993
Monument Valley, Arizona, USA	36.94917000000004	-109.92400999999995
Heidal, Norway	60.091770000000054	5.747750000000053
Bellevueplatz, Zrich, Kanton Zrich, Switzerland	47.36645867478519	8.545229337392607
South Burlington, Vermont, USA	44.455490000000054	-73.17912999999999
Milan, Italy	45.46796000000006	9.18178000000006
Novato, California, USA	38.10609000000005	-122.56789999999995
Toora, Victoria, Australia	-38.66170999999997	146.32580000000007
France, Morocco, Israel, Palestinian Territories, China	31.92157000000003	35.20329000000004
Radzanw, Mazowieckie, Poland	51.56800646057557	20.821281169403267
Humboldt Park, Chicago, Illinois, USA	41.89907000000005	-87.71946999999994
Mansion House Place, London, England, UK	51.51307883635663	-0.08914705668944398
Jaunpur, India	25.74508000000003	82.68237000000005
Hradcanske Nmest, Hradcany, Prague, Czech Republic	50.08934000000005	14.398180000000025
Parco delle Rimembranze, Isola di Sant'Elena, Venice, Veneto, Italy	45.54431000000005	12.133450000000039
Iztapalapa, Mexico City, Distrito Federal, Mexico	19.351230000000044	-99.07505999999995
Golden Gate Harbor, San Francisco, California, USA	37.80819957238631	-122.47656724339295
Dr. Eddie Warrior Correctional Center, Tulsa, Oklahoma, USA	36.149740000000065	-95.99332999999996
Trogir, Croatia	43.518620000000055	16.25120000000004
Carp, Ontario, Canada	45.35048000000006	-76.04314999999997
Sargodha, Pakistan	32.08361000000008	72.67111000000006
tztal Glacier Road, Rettenbach, Austria	47.283250000000066	12.446900000000028
South Sydney Junior Rugby League Club, Kingsford, NSW, Australia	-33.92294999999996	151.22719000000006
Rue Mascoinat, Nice, Alpes-Maritimes, France	43.69761270012196	7.276421918288989
Azpeitia, Guipzcoa, Pas Vasco, Spain	43.18581000000006	-2.263909999999953
Gefngnis Rummelsburg, Lichtenberg, Berlin, Germany	52.510470000000055	13.50144000000006
Praia Grande, So Paulo, Brazil	-20.038255732450345	-40.18681881499909
Hydra, Greece	37.34908000000007	23.46676000000008
Puerto de Mogan, Gran Canaria, Canary Islands, Spain	28.091638646904343	-15.45996058086305
2366 Fox Hills Dr., Los Angeles, California, USA	34.04911698946842	-118.4135387078598
Corniolo, Forl, Emilia-Romagna, Italy	43.90835000000004	11.793060000000025
Bear Lake Valley, California, USA	41.24849645488034	-121.69887488980972
Drew School, 2901 California St., San Francisco, California, USA	37.78777993003082	-122.44241998889147
Winter skating place "Marienhof", Munich, Bavaria, Germany	48.13875000000007	11.575510000000065
Maybod, Yazd, Iran	32.250140000000044	54.01658000000003
Adelaide Festival Theatre, Adelaide, South Australia, Australia	-34.92014999999998	138.5981700000001
Newliston House Estate, Edinburgh, Scotland, UK	55.954300000000046	-3.201889999999935
Blockbuster Pavillion - 707 Pavilion Boulevard, Charlotte, North Carolina, USA	35.327026847163104	-80.71306791808648
Murray, Utah, USA	40.66211000000004	-111.88831999999996
Huntington Beach, California, USA	33.678890000000024	-118.00156999999996
St Swithun's School, Winchester, Hampshire, England, UK	51.06203000000005	-1.2893699999999626
M.T.M. Ardmore Studios, Dublin, County Dublin, Ireland	53.4246472018003	-6.348230381354894
Andira River, Brazil	-3.0499999999999545	-55.183329999999955
Dock Street Oyster Bar, 12 Dock St, Wilmington, North Carolina, USA	34.23413992671258	-77.94903994892951
East Somerset Railway, Shepton Mallet, Somerset, England, UK	51.189760000000035	-2.5469199999999432
Venetia de Jos, Fagaras, Romania	45.866670000000056	25.200000000000045
Spring Street Station, Soho, Manhattan, New York City, New York, USA	40.72582980190564	-74.00743327943763
Abbaye de Cadouin, Dordogne, France	44.81192000000004	0.8735800000000609
Fray Bentos, Uruguay	-33.12117999999998	-58.30557999999996
Allphones Arena - Sydney, Australia	-33.877659999999935	151.20582000000002
Sonoma Mountain Road, Glen Ellen, California, USA	38.36350301895688	-122.55160360260508
Great Bear Rainforest, British Columbia, Canada	53.84676599999999	-122.82319575
Pho Cao Van, Ho Chi Minh City, Vietnam	10.784710000000075	106.69955000000004
Downtown Phoenix, Arizona, USA	33.44102000000004	-112.04776999999996
South Pointe Park, Miami Beach, Florida, USA	25.767160000000047	-80.13569999999999
Big Water, Utah, USA	37.07835000000006	-111.66185999999999
Mount Kirishima, Kagoshima, Japan	31.740808800000025	130.76331044800008
Dizengoff Square, Tel Aviv, Israel	32.07756820189278	34.77427588012585
Banjul, Gambia	13.45357000000007	-16.574739999999963
Segovia surroundings, Segovia, Castilla y Len, Spain	40.94847000000004	-4.116479999999967
Fillgraderstiege, Vienna, Austria	48.200062500000016	16.359252750000003
Celer, Huesca, Aragn, Spain	42.59420000000006	0.5382000000000744
Danny's Hide-A-Way - 151 East 45th Street, New York City, New York, USA	NaN	NaN
Dingwall's Discotheque, Camden Lock, Chalk Farm Road, Camden, London, England, UK	51.53236000000004	-0.1279599999999732
Morningside Hospital - 8711 S. Harvard Blvd., Los Angeles, California, USA	NaN	NaN
The Asbury Apartments 2505 West 6th, Los Angeles, California, USA	34.06150789344437	-118.27917133706514
Stroobosch, Friesland, Netherlands	53.23835000000008	6.213480000000061
Priestfield Stadium, Gillingham, Kent, England, UK	51.384409966674575	0.5621799526814389
Fox Talbot Photography Museum, Lacock, Wiltshire, England, UK	51.41458000000006	-2.12045999999998
Hourtin, Gironde, France	45.18554000000006	-1.0579499999999484
Floating Market, The Klongs, Bangkok, Thailand	13.753360000000043	100.50483000000008
Apartment in Setbal	11.263300000000072	75.80112000000008
Winona Motel, 5131 Hollywood Boulevard, Los Angeles, California, USA	34.101773453257394	-118.30167352553522
Groer Plessower See, Werder, Brandenburg, Germany	52.372459535423786	12.908264695396985
Cirkus Arena, Denmark	56.28041995614298	9.434079984996384
Die Ritze, St. Pauli, Hamburg-Mitte, Hamburg, Germany	53.55000000000007	10.016670000000033
Emory University, Atlanta, Georgia, USA	33.78968000000003	-84.32554999999996
Denver International Airport - 8500 Pea Boulevard, Denver, Colorado, USA	39.851710000000026	-104.67343999999997
Quindio, Colombia	4.455262990000051	-75.69039864799998
Villa la Rondinaia, Ravello, Italy	43.81387992339439	11.276990018321888
Stadium Australia - Sydney, New South Wales, Australia	-33.87781999999993	151.20398000000012
Jean d'Estrees St, Montreal, Qubec, Canada	45.495220490303815	-73.56575641689558
E. 5th Street & N. Minnesota Street, St. Paul, Minnesota, USA	NaN	NaN
Nationals Park - 1500 South Capitol Street SE, Washington, District of Columbia, USA	38.8711900701126	-77.00890993825462
Urubamba Mountains, Peru	-13.286389999999926	-72.08638999999994
Brothers Collateral Loans - 5901 Melrose Avenue, Hollywood, Los Angeles, California, USA	34.08349951485941	-118.329111
St. Eugene Mission, Cranbrook, British Columbia, Canada	49.58426000000003	-115.75332999999995
Agency for the Performing Arts - 405 South Beverly Drive, Beverly Hills, California, USA	34.05910879294826	-118.3982478659759
Slapske Lake, Czech Republic	49.57644000000005	14.762540000000058
Hinderstorp, Jakobsberg, Stockholms ln, Sweden	59.424259745089294	17.78326463722103
Laney College - 900 Fallon Street, Oakland, California, USA	37.797159993797216	-122.26380995369193
BBC Wales, Broadcasting House, Cardiff, Glamorgan, Wales, UK	51.48127000000005	-3.180719999999951
12th Avenue, Manhattan, New York City, New York, USA	NaN	NaN
Muoveros, Segovia, Castilla y Len, Spain	41.173190000000034	-3.9509899999999334
Historic Navajo Bridge - Highway 89A, Marble Canyon, Arizona, USA	36.81644000000006	-111.63713999999999
Norwich, Vermont, USA	43.71561000000003	-72.30869999999999
Portoroz, Slovenia	45.51589000000007	13.594620000000077
Nick's on Broadway - 500 Broadway, Providence, Rhode Island, USA	41.818520000000035	-71.43478999999996
South Bohemia, Czech Republic	50.44292005107052	15.346429969992778
Alert Bay, British Columbia, Canada	50.58191000000005	-126.92247999999995
Ingram Street, Glasgow, Strathclyde, Scotland, UK	55.862970000000075	-4.244959999999935
Anta do Zambujeiro, vora, Alentejo, Portugal	38.538400000000024	-8.013679999999965
Tom Barron Limited, Square Lane, Catforth, Preston, England, UK	53.814775566085586	-2.7964461307075954
Sigigen, Ruswil, Kanton Luzern, Switzerland	47.06420000000003	8.133490000000052
Tadla-Azilal, Morocco	31.963100000000054	-6.567589999999939
Kvarntorp, rebro ln, Sweden	59.23700592677022	15.158758766287667
Music Hall, Tucson Community Center, Tucson, Arizona, USA	32.21980000000008	-110.97425999999996
Festhalle am Funkturm, West-Berlin, Germany	52.51604000000003	13.376910000000066
Kearny Mesa, San Diego, California, USA	32.82181000000003	-117.14961999999997
The 519 Community Centre, Toronto, Ontario, Canada	43.76754000000001	-79.43994674999999
2720 Winona Avenue, Burbank, California, USA	34.19918241925922	-118.34028857244701
Lord Errol Restaurant, Nairobi, Kenya	-1.311939999999936	36.742200000000025
Christie's Auction House, St James's, London, England, UK	51.50634000000008	-0.13796999999993886
1 El Portal Way, Daly City, California, USA	37.70707135469451	-122.48318499293087
vicinity of Vic, Vic, Barcelona, Catalonia, Spain	41.93105000000003	2.248990000000049
Villa of Prince Niscemi, Palermo, Sicily, Italy	38.16222311043958	13.33254420549448
Los Angeles Police Museum - 6045 York Blvd., Los Angeles, California, USA	34.08209995325836	-118.2420599421535
Sabiote, Jan, Andaluca, Spain	38.067090000000064	-3.311359999999979
3469 N Verdugo Rd Glendale, California, USA	34.202211631427026	-118.2272470653816
Stanley Hotel - 333 Wonderview Avenue, Estes Park, Colorado, USA	40.37842000000006	-105.51728999999995
Goodwood Museum & Plantation, Leon County, Florida, USA	30.494904417045223	-84.26305744873459
Filmmuseum, Breite Strasse 1, Potsdam, Brandenburg, Germany	52.39517146378896	13.055781787264115
Avoca, New York, USA	42.43258000000003	-77.45565999999997
Grace Cathedral Episcopal Church - 1100 California Street, San Francisco, California, USA	37.791530026689095	-122.41333004385704
Cary, Illinois, USA	42.20431000000008	-88.25486999999998
Hadassah Ein Kerem Hospital, Jerusalem, Israel	31.76639996494377	35.14887006390977
Koyama, Shizuoka, Japan	35.12552961800003	138.95105433300012
Manchester Connecticut, USA	41.76857000000007	-72.52065999999996
Walikale, Democratic Republic Of Congo	-1.4155599999999708	28.05722000000003
Hudson River, Nyack, New York, USA	41.08883242580755	-73.92139544904116
The Wiener Hofburg, Vienna, Austria	48.20774000000006	16.366540000000043
Rue Cardinal Dubois, Paris 18, Paris, France	48.885885	2.343207160105902
7716 Beverly Blvd., Los Angeles, California, USA	34.076096534480286	-118.35787097155058
Masaryk's Railway Station, New Town, Prague, Czech Republic	50.07913000000008	14.433020000000056
Grup Filatlic i del Colleccionisme, Palma, Mallorca, Balearic Islands, Spain	39.571480000000065	2.646940000000029
Campbell's Tavern, Headford, County Galway, Ireland	53.469430000000045	-9.106699999999933
Sdpfalz, Rhineland-Palatinate, Germany	49.151969981678185	8.298349923394376
Tak's Hardware & Garden Supply - 3318 W Jefferson Blvd, Los Angeles, California, USA	34.025559922817486	-118.33245
Weston Favell Shopping Centre, Northampton, Northamptonshire, England, UK	52.255560050636895	-0.8348300383744257
Kujima, Baja California Sur, Mexico	25.920545170000025	-112.04812054199999
St. Mary's Hospital - 1050 Linden Avenue, Long Beach, California, USA	33.77945000115387	-118.18755992325102
Tiemcen, Algeria	34.87833000000006	-1.3149999999999409
Sint-Joost-Ten-Node, Brussels, Brussels-Capital, Belgium	50.85098000000005	4.369530000000054
Deutz-Mlheimer Strae, Cologne, Germany	50.95876346052658	6.9953132568355025
Irkutsk-Passazhirsky Railway Station, Irkutsk, Russia	52.28302000000008	104.25910000000005
Whitehorse Tavern, New York City, New York, USA	40.70358001110854	-74.01239999999996
Vrmlands ln, Sweden	59.92492000000004	12.229850000000056
Casablanca, Morocco	33.596610000000055	-7.618889999999965
Triangle Park, Dayton, Ohio, USA	39.78522000000004	-84.20147999999995
Prfecture de la Loire, 15 rue Bernard Palissy, Tours, Indre-et-Loire, France	47.39348113266777	0.6931034059092047
Moonstruck Diner - 449 3rd Ave, New York City, New York, USA	40.743719930607725	-73.97954997778297
St. Paul's Bloor Street Anglican Church, Toronto, Ontario	43.648690000000045	-79.38543999999996
Selkirk, Scottish Borders, Scotland, UK	55.61991000000006	-2.8738299999999413
Naenae College, Lower Hutt, Wellington, New Zealand	-41.243654743393755	174.9443536493563
Ashingdon, Essex, England, UK	51.59862000000004	0.696200000000033
Urmia, Iran	37.55274000000003	45.076050000000066
La Grande Station, Downtown, Los Angeles, California, USA	34.051877718327	-118.25225528376734
Cahir, Tipperary, Ireland	52.375330000000076	-7.927669999999978
503 East 6th Street, New York City, New York, USA	40.72532418818163	-73.98354995031454
Occidental Tower Apartments - 336 S Occidental Blvd, Los Angeles, California, USA	34.066528272260456	-118.2827442018872
Technisonic Studios, St. Louis, Missouri, USA	38.62775000000005	-90.19955999999996
Altar, Sonora, Mexico	30.71333000000004	-111.83358999999996
Nrre Uttrup, Jylland, Denmark	55.959300779000046	10.053934054000024
Round House, Flag Fen, Cambridgeshire, England, UK	52.210253473523714	-0.020288473523711617
The Palladium, New York, USA	42.671672205920025	-73.61986103190151
Historic Brandywine Valley, Philadelphia, Pennsylvania, USA	39.963187662620406	-75.19410049955454
30 MeadowlarkHouse, 3 Moorhen Drive, England, UK	51.42664692370206	-0.926078970349201
Port Valdez, Alaska, USA	61.10556000000008	-146.50193999999996
San Xavier, Arizona, USA	31.976860000000045	-111.09462999999994
Muse des Tapisseries, 28 Place des Martyrs de la Rsistance, Aix-en-Provence, Bouches-du-Rhne, France	NaN	NaN
Azur Window, Gozo Island, Malta	52.072640000000035	-8.57400999999993
Ajmer, Rajhastan, India	26.46560000000005	74.63166000000007
Hermosa Beach Aquarium, Hermosa Beach, California, USA	33.864040000000045	-118.39534999999995
Everlange, Luxembourg	49.77550000000008	5.952830000000063
Axel-Springer-Publishing House, Hamburg, Germany	53.552149060681415	9.985520312264462
Murchison Nile River, Uganda	2.283330000000035	31.700000000000045
Dartington Hall, Totnes, Devon, England, UK	50.45262000000008	-3.694279999999935
Remmet Studios Canoga Park, California, USA	34.25173390671621	-118.64588314200648
Baltimore School of the Arts, Baltimore, Maryland, USA	39.331009959461184	-76.63428997446476
Blue Meadow Lane & Foxfield Drive, Westlake Village, California, USA	34.13930400000001	-118.813662
Bl Hallen, Stockholm Stadshus, Norrmalm, Stockholm, Stockholms ln, Sweden	59.340040000000045	18.061890018898843
Fire Island National Seashore, New York, USA	40.73540000000003	-72.86667999999997
855 Stillwater Road, West Sacramento, 95691, California, USA	38.58848155865918	-121.5576959588269
Nilai, Malaysia	2.8176600000000462	101.78768000000008
Windmhlenstrae, Cologne, Germany	50.95885874759	6.997524210847631
Haileybury College, Keysborough, Melbourne, Victoria, Australia	-37.9953	145.14415200000002
Dunkirk, France	51.03705000000008	2.376790000000028
Marriott Hotel - Two Stamford Way, Stamford, Connecticut, USA	41.051450000000045	-73.53617999999994
Cheddar Caves, Cheddar, Somerset, England, UK	51.28192000000007	-2.767069999999933
GPME Studios	45.521060000000034	9.263790000000029
Callan 201, Balmian Road, Rozelle, Australia	-33.875512956312846	151.1610642652093
Lipson Cove, South Australia, Australia	-34.266669999999976	136.2666700000001
Bagno Vignoni, San Quirico d'Orcia, Siena, Tuscany, Italy	43.028050000000064	11.619180000000028
Cave Lakes, Utah, USA	37.07420289897729	-112.6179034126786
652 Columbia St., New Westminster, British Columbia, Canada	49.20249204105848	-122.90916009267717
Perris Valley Paracenter - Perris, California, USA	33.857303458990394	-117.22605868561297
Solano, Nueva Vizcaya, Philippines	16.517850000000067	121.18037000000004
Politickych Veznu, Prague, Czech Republic	50.08222012077495	14.430219269679817
Crystal Blue - Atlanta, Georgia, USA	33.74831000000006	-84.39110999999997
Jewish Press Building - 338 Third Ave., Brooklyn, New York City, New York, USA	NaN	NaN
Twyford House, Chisley Road, South Tottenham, London, England, UK	51.57853979561716	-0.07947607265407729
Pratt Institute, Clinton Hill, Brooklyn, New York City, New York, USA	40.69204000000008	-73.96366999999998
600 W College Ave, Tallahassee, Florida 32306, USA	30.440793325144913	-84.28968214823085
DisneyToon Studios - 833 Sonora Avenue, Glendale, California, USA	34.16472874360857	-118.28963031926195
Slammer Club - 8688 Beverly Boulevard, Los Angeles, California, USA	34.076765976220365	-118.38050324999999
Xochimilco, Mexico City, Distrito Federal, Mexico	19.26212000000004	-99.10173999999995
Kroegers Bowling, Kastrup, Amager, Denmark	55.614040000000045	12.590330000000051
Arcadia High School - 4703 East Indian School Road, Phoenix, Arizona, USA	33.49428998543004	-111.98047006116839
Brooklyn Underground Station, 462 Fulton Street, Brooklyn, New York City, New York, USA	40.690390000000036	-73.98473999999999
Empire State Building - 350 Fifth Avenue, Manhattan, New York City, New York, USA	40.74837000000008	-73.98463999999996
SOU Obchodn, Belgick Street, Vinohrady, Prague, Czech Republic	50.07528000000008	14.454330000000027
Lee Hall Plantation - 163 Yorktown Road, Newport News, Virginia, USA	37.2006433842987	-76.57350113933194
Barra do Sahy, So Paulo, Brazil	-23.77330999999998	-45.69271999999995
Sobo - 311 Neill St, Tofino, British Columbia, Canada	49.151949941139314	-125.90763998499635
Interstate 5, Bakersfield, California, USA	35.327537866269516	-119.29706714839067
Northwest African American Museum - 2300 S Massachusetts Street, Seattle, Washington, USA	47.58883007328753	-122.30187994503436
House of Fans - 894 Post Street, San Francisco, California, USA	37.78733455593772	-122.41649954246762
Dhle, Lower Saxony, Germany	52.765532663000045	9.159166927000058
23 De Enero, Caracas, Venezuela	10.503240000000062	-66.93850999999995
Carnegie Hill Mansion - 2 East 91st Street, Central Park, Manhattan, New York City, New York, USA	40.784520793496505	-73.95770445865307
Netanya, Israel	32.308100000000024	34.85480000000007
Tef, Amazonas, Brazil	-4.1749582949999535	-64.67440225499996
300 North Los Angeles Street, Los Angeles, California, USA	34.053718853425096	-118.24058788934768
Turangi, New Zealand	-38.98748130699994	175.8594444470001
1 Redcliffe Street, Bristol, England, UK	51.4776101035412	-2.8063144576661085
Pettorano sul gizio, L'Aquila, Italy	41.97255000000007	13.96171000000004
Stithians, Truro, Cornwall, England, UK	50.18664000000007	-5.173489999999958
Observatoire Camille Flammarion, Juvisy-sur-Orge, Essonne, France	48.693152434965995	2.3731598434965933
Abrolhos, Bahia, Brazil	-17.91253999999998	-39.39109999999994
State Hwy 118 and American Legion Road, Brewster County, Texas, USA	29.812252011000055	-103.25180859799997
Waterside Forge, The Slipway, Bristol, England, UK	51.476234238349114	-2.811691880825453
Bucharest Telephone Palace, Bucharest, Romania	44.43429000000003	26.10298000000006
Ramn C. Cortines School of Visual and Performing Arts - 450 N Grand Avenue, Los Angeles, California, USA	NaN	NaN
Mansfield, Pennsylvania, USA	41.808100000000024	-77.07847999999996
Zushi, Kanagawa, Japan	35.295560640000076	139.5804301060001
220 Jackson Street, San Francisco, California, USA	37.79696273145365	-122.39978459068426
Kunglv, Vstra Gtalands ln, Sweden	57.87033000000008	11.980890000000045
Bonner, Montana, USA	46.86975000000007	-113.87249999999995
Dress Up Cleaners - 13636 Vanowen St, Van Nuys, California, USA	34.19386488095669	-118.43063261904331
Fair Haven, New Jersey, USA	40.36427000000003	-74.03588999999994
Klosterwall, Altstadt, Hamburg-Mitte, Hamburg, Germany	53.54917511316082	10.005946528290208
Beyrouth, Lebanon	33.896070000000066	35.50678000000005
Central Museum & Art Gallery, Northampton, Northamptonshire, England, UK	52.236860000000036	-0.8944699999999557
Carpentersville, Illinois, USA	42.11823000000004	-88.26451999999995
Torrey Pines High School, San Diego, California, USA	32.95861000000008	-117.22697999999997
Puerto de Santander, Santander, Cantabria, Spain	43.46231000000006	-3.798559999999952
Chadbourn, North Carolina, USA	34.31932000000006	-78.82643999999993
L'Affaire est Ketchup - 46 rue Saint-Joseph Est, Qubec, Qubec, Canada	60.108670000000075	-113.64257999999995
Spemannstrae 38-44, Tbingen, Germany	48.53645805805266	9.058508022793916
Silver Restaurant - 737 Washington Street, Chinatown, San Francisco, California, USA	37.795121254371985	-122.40615225679053
Stellendam, Netherlands	51.80556000000007	4.029800000000023
Chteau Brocliande, Paimpont, Ille-et-Vilaine, France	48.019536916278504	-2.1717917701029865
Dienstl Gut, St. Veit, Carinthia, Austria	46.767599963356325	14.49040991949923
Atlantic, Iowa, USA	41.40400000000005	-95.01373999999998
Balboa Park - 1549 El Prado, San Diego, California, USA	32.73140999610492	-117.14996999999994
Royal Alexandra Theatre, Toronto, Ontario, Canada	43.64711003000733	-79.3874500477522
Mine Trepca, Kosovska Mitrovica, Kosovo, Serbia, Yugoslavia	42.88576000000006	20.86910000000006
Adriatic Coast, Yugoslavia	8.195830000000058	-64.50379999999996
Crissey Field State Park, Oregon, USA	42.00178000000005	-124.21091999999999
Broadway Station, New York City, New York, USA	40.86870589246666	-73.91799865705428
Vila Marim, Portugal	41.305720000000065	-7.779459999999972
Southland Greyhound Park - 1550 North Ingram Boulevard, West Memphis, Arkansas, USA	35.16142002553528	-90.15815002221697
31 Fortune Drive, Irvine, California, USA	33.65275329280403	-117.74666826865378
Sacheon, South Korea	37.02070000000003	127.50870000000009
Internationales Handelszentrum, Friedrichstrae 95, Mitte, Berlin, Germany	52.51946998110129	13.389889984996426
Spioenkop Nature Reserve, KwaZulu-Natal, South Africa	-28.69584999999995	29.49717000000004
Santuario della Madonna di Quintiliolo, Tivoli, Rome, Lazio, Italy	41.978613641498185	12.79352574106548
Tracton, Co.Cork, Ireland	51.761100000000056	-8.39298999999994
Langlaagte Police Station, Langlaagte, South Africa	-30.226939999999956	26.016030000000057
Pinch, West Virginia, USA	38.409380000000056	-81.48187999999999
Tipi, Berlin, Germany	52.51870000000008	13.367780000000039
812 North Kenmore Avenue, Los Angeles, California, USA	34.086240000000004	-118.29698828876465
58 Baby Point Road, Toronto, Ontario, Canada	43.657398647815654	-79.49376123509712
The Bonavista Peninsula, Newfoundland, Newfoundland and Labrador, Canada	48.64764000000008	-53.10622999999998
505 N Upper Broadway, Corpus Christi, Texas, USA	27.794448586733225	-97.39643158301097
234 Canyonside Road, Salt Lake City, Utah, USA	40.77499105023373	-111.88530144656362
Bergamo, Lombardia, Italy	45.69523000000004	9.66951000000006
Byron Hot Springs, Byron, California, USA	37.8406706021038	-121.62323124316137
TV-Byen, Gladsaxe, Sjlland, Denmark	55.72672067555759	12.476594874645569
Folkan, stermalmstorg, stermalm, Stockholm, Stockholms ln, Sweden	59.33605322556517	18.07982388282633
Kualoa Ranch - 49560 Kamehameha Highway, Ka'a'awa, O'ahu, Hawaii, USA	21.520230000000026	-157.83559999999997
Poblet, Spain	41.38094000000007	1.0794400000000337
Jardn Botnico-Histrico La Concepcin, Mlaga, Spain	10.305880000000059	-70.18398999999994
Macas, Ecuador	-2.30568999999997	-78.11348999999996
Mas de la Casa Nova, Girona, Catalonia, Spain	41.78671000000003	2.998070000000041
Museo Soumaya, Plaza Carso, Miguel Hidalgo, Mexico City, Distrito Federal, Mexico	19.44029000000006	-99.20467999999994
Jackson Avenue and 50th Avenue, Queens, New York City, New York, USA	40.742459999999994	-73.95280199999999
Wayne NJ Toy & Collectibles, Parish Drive, Wayne, New Jersey, USA	40.9161730432148	-74.25439183400728
Corky's Restaurant and Bar - 5043 Van Nuys Blvd, Sherman Oaks, Los Angeles, California, USA	34.162645000576916	-118.44874421513049
Elsenbrcke, Berlin, Germany	52.51604000000003	13.376910000000066
Cicalengka, Bandung, West Java, Indonesia	-6.993999999999971	107.84455000000008
Oristano, Sardinia, Italy	39.906030000000044	8.591320000000053
Berliner 'Hebbel-Theater', Berlin, Germany	52.517069923394395	13.477639999423157
675 Burleigh Dr., Pasadena, California, USA	34.13108731363605	-118.17185076995183
Orpheum Theatre, San Francisco, California, USA	37.77903007718265	-122.41438003332549
Frenchman's Cove, Newfoundland, Newfoundland and Labrador, Canada	47.21568000000008	-55.40273999999994
Ohio Mansion, Akron, Ohio, USA	41.08421000000004	-81.51404999999994
Glynliffon Agricultural College, Glynllifon, Gwynedd, Wales, UK	52.89187924300006	-4.02203663399996
Hotel Meli - Rua Joo Cachoeira 107, So Paulo, So Paulo, Brazil	-0.3666699999999423	-52.14999999999998
Ensenada Airport, Ensenada, Baja California, Mexico	31.864070000000027	-116.61453999999998
Lou Costello Bldg, 8533 Sunset Blvd, West Hollywood, California, USA	34.09388946462569	-118.37726563517793
Grant Way, Isleworth, London, England, UK	51.48753696621356	-0.3287868787663437
Burnaby Hospital, Burnaby, British Columbia, Canada	49.24933000000004	-123.01625999999999
Cabbell Street, Marylebone, London, England, UK	51.519198013928026	-0.16783279714228108
AZ Diest, Statiestraat 65, Diest, Belgium	50.98851157751577	5.050874552933522
Hemnes, Norway	66.07670000000007	13.818790000000035
Laurentian University, Sudbury, Ontario, Canada	46.470890000000054	-80.97224999999997
St James's Street, Mayfair, London, England, UK	51.50383000000005	-0.14989999999994552
PSV Stadion, Eindhoven, Noord-Brabant, Netherlands	51.4417099516709	5.465760042846597
Hotel Del Sol - 200 East 3rd Street, Yuma, Arizona, USA	32.72278138046252	-114.61692378342467
Jos Mara Collantes's residence, Granada, Andaluca, Spain	37.17053000000004	-3.6051799999999616
West End Historic District, Dallas, Texas, USA	32.78300000000007	-96.80720999999994
Yuzawa, Niigata, Japan	37.39285988200004	138.8529643910001
Goumenissa, Kilkis, Greece	40.94717000000003	22.45583000000005
Nordkirchen, North Rhine-Westphalia, Germany	51.736950000000036	7.522150000000067
Nordvest Nrrebro	68.95882000000006	33.10969000000006
Braila, Braila, Romania	45.26411000000007	27.968810000000076
W 4th St & S Cloverdale Ave, Los Angeles, California, USA	34.066872000000004	-118.346193
Eishausen, Straufhain, Thuringia, Germany	50.37422000000004	10.738120000000038
South Gate, California, USA	33.956300000000056	-118.20576999999997
7th Street/Metro Center station, Los Angeles, California, USA	NaN	NaN
Missenden Road, Little Hampden, Buckinghamshire, England, UK	51.725490000000036	-0.7562299999999595
Wirilda Creek Winery, Lot 32, McMurtrie Road, McLaren Vale, South Australia, Australia	-35.229087	138.57736950000003
1201 West 5th Street, Los Angeles, California, U.S.A.	34.05396300604538	-118.25899807079232
Ascari Circuit, Ronda, Mlaga, Andaluca, Spain	36.69966432842704	-4.500121749778911
Beechenhurst, Forest of Dean, Gloucestershire, UK	51.789100000000076	-2.543199999999956
Immaculate Conception Cathedral, Plaza Rizal, Malinao, Pasig City, Metro Manila, Philippines	14.560750000000041	121.07693000000006
Contra Costa Juvenile Detention Facility, Martinez, California, USA	38.01393000000007	-122.13493999999997
Wimereux, Pas-de-Calais, France	50.769990000000064	1.6116400000000226
Tundergarth Mains, Dumfries & Galloway, Scotland, UK	55.07582436200005	-3.9575650199999473
9038 Sunset Blvd, West Hollywood, California, USA	34.09054384981725	-118.38913268265682
Sanjenjo, Pontevedra, Galicia, Spain	42.416629057637316	-8.785117319610153
Indian Valley, Idaho, USA	44.55995000000007	-116.43312999999995
Ametlla del Valls, Barcelona, Catalonia, Spain	41.6645296147637	2.266375549525907
Vama Veche Beach, Romania	43.75179000000003	28.575740000000053
Little Mount Sion, Royal Tunbridge Wells, Kent, England, UK	51.12741926391167	0.26252162745521695
Pontesford Hill, Shropshire, England, UK	52.64698000000004	-2.8740499999999543
Htel particulier, 56 avenue Foch, Paris 16, Paris, France	48.86370000000005	2.2769000000000688
Kennington studios, London, England, UK	51.487010000000055	-0.11317999999994299
Clinton St, Cobble Hill, Brooklyn, New York, USA	40.68518480073179	-73.99680136280575
Devonport, Auckland, New Zealand	-36.82422492699993	174.7987278810001
Eaves Movie Ranch - 105 Rancho Alegre Road, Santa Fe, New Mexico, USA	35.47963000000004	-106.08540999999997
Prussia Cove, Rosudgeon, Cornwall, England, UK	50.103620000000035	-5.420319999999947
Fiuli Venezia, Giulia, Italy	46.15095020500007	13.055977778000056
Orange Bowl - 1501 N.W. 3rd Street, Miami, Florida, USA	25.776282513271948	-80.21976083097697
Bhakra Beas Link Location, India	17.399890000000028	78.47495000000004
West 6th Street and Alvarado Street, Los Angeles, California, USA	NaN	NaN
517 N. Canon Drive, Beverly Hills, California, USA	34.07428035302107	-118.40445326620093
Horan Ermeni Kilisesi, Istanbul, Turkey	41.05353000000008	28.981960000000072
Riddersalen, Frederiksberg, Denmark	55.67886000000004	12.529750000000035
Schloss Strehla, Strehla, Saxony, Germany	51.354424550180106	13.225420709406725
Ladek-Zdrj, Dolnoslaskie, Poland	51.014742221512165	16.465992713941624
Dyersburg, Tennessee, USA	36.034050000000036	-89.38548999999995
Vrams-Gunnarstorp Castle, Skne ln, Sweden	56.099770000000035	12.923930000000041
Villa El Salvador, Lima, Peru	-12.215209999999956	-76.94216999999998
Thonburi Hospital, Bangkok, Thailand	13.752570000000048	100.47958000000006
Zig's Restaurant - 21300 Ventura Blvd., Woodland Hills, Los Angeles, California, USA	34.167509761556	-118.59582820497427
Hong Kong	22.351958323000076	114.1193859870001
4116 Morsay Dr Rockford, IL, USA	42.26681551933147	-89.03308241756594
Port Republic, New Jersey, USA	39.53476000000006	-74.48739999999998
A Mother's Milk, Unley, South Australia, Australia	-34.947790003895115	138.6072800372207
Redondo Beach Unified School District - 1401 S Inglewood Ave, Redondo Beach, California, USA	33.84445000000005	-118.38793999999996
La Vecilla, Len, Castilla y Len, Spain	42.84901000000008	-5.405979999999943
Vicolo del Cedro, Trastevere, Rome, Lazio, Italy	41.8899238508117	12.467923657305368
Holy Trinity Anglican Church, Toronto, Ontario, Canada	43.65167490513213	-79.36017393643631
Edmonds, Washington, USA	47.81116000000003	-122.37688999999995
Villa Hammerschmidt, Bonn, North Rhine-Westphalia, Germany	50.721870038374554	7.1144600507801945
Toland Ave & Benjamin Ave, Los Angeles, California, USA	33.966702	-118.3754115
Port of Liverpool, Liverpool, Merseyside, England, UK	53.46769241992673	-3.020260871882749
23rd & Iowa Sts., The Dogpatch, San Francisco, California, USA	37.75518000000001	-122.39201249999999
Cook Island	-21.234657996999942	-159.77802087599997
le de Brhat, Ctes-d'Armor, France	44.85683000000006	-0.0022299999999404463
Avedre Stationsby, Avedre, Sjlland, Denmark	54.69685418531782	11.397580286613309
Piazza Fontana, Milan, Lombardia, Italy	45.46375000000006	9.194000000000074
Cedartown, Georgia, USA	34.01455000000004	-85.25661999999994
Mly, Norway	62.00000000000006	10.000000000000057
Fat Eye Studios, 230 N. Avenue 25, Los Angeles, California, USA	NaN	NaN
Mar del Plata, General Pueyrredn, Buenos Aires, Federal District, Argentina	-37.997409999999945	-57.54845999999998
South Triangle, Quezon City, Metro Manila, Philippines	14.638360000000034	121.03618000000006
Tanegashima, Japan	33.545531192000055	134.31873225900006
Liberation Yoga 124 S La Brea Ave, Los Angeles, California, USA	34.072676276992325	-118.34400783593996
Aeropuerto de Buenos Aires, Buenos Aires, Argentina	-34.81374999999997	-58.469799999999964
Nissequogue River State Park, Kings Park, Long Island, New York, USA	40.90012000000007	-73.23724999999996
3896 Main Street, Culver City, California, USA	34.025025520912564	-118.39469060554653
Mount Kilimanjaro, Tanzania	-3.0758299999999394	37.35333000000003
Beco do Almotac, Alfama, Lisbon, Portugal	38.71185257155226	-9.128677499999986
Orgeval, Yvelines, France	48.91957000000008	1.9758800000000747
Mhlberg, Thuringia, Germany	50.444300000000055	11.708420000000046
Cileungsi, West Java, Indonesia	-6.841669999999965	107.09722000000005
Sandia National Atomic Museum - 1905 Mountain Road NW, Albuquerque, New Mexico, USA	35.098313089127814	-106.66742744281271
Union Square, Bucharest, Romania	44.43429000000003	26.10298000000006
Laurel Valley, Thibodaux, Louisiana, USA	29.82088655733877	-90.7629132623286
Mobberley Old Hall, Mobberley, Knutsford, Cheshire, England, UK	53.314500000000066	-2.331649999999968
Groux-les-Bains, Alpes-de-Haute-Provence, France	43.75818000000004	5.880730000000028
Goodwood Estate, West Sussex, England, UK	50.794252028832226	-0.6534812344977557
Scottow - Formerly RAF Coltishall, Norfolk, UK	52.75922000000003	1.3406500000000392
Kastell Zugmantel, Orlen, Taunusstein, Hessen, Germany	50.17897366531369	8.182285956743584
Tamboerskloof, Cape Town, Western Cape, South Africa	-33.92948999999993	18.404030000000034
Warngau, Bavaria, Germany	47.831060000000036	11.72258000000005
Faro, Algarve, Portugal	37.16667000000007	-8.249999999999943
Williamstown Town Hall - 104 Ferguson Street, Williamstown, Melbourne, Victoria, Australia	-37.85861999999997	144.89611000000002
Lugo, Lugo, Galicia, Spain	43.009510000000034	-7.569399999999973
Adelaide Botanic Garden, Adelaide, South Australia, Australia	-34.92086999999998	138.61041000000012
Chatsworth, New Jersey, USA	39.817660000000046	-74.53402999999997
Alii'olani Hale, Honolulu, Hawaii, USA	21.319148719604684	-157.80822792059297
Shelswell Park, Oxfordshire, England, UK	51.76571741300006	-1.3222575369999277
Sunderland Aquatic Centre, Sunderland, Tyne & Wear, England, UK	54.88645000000008	-1.3686699999999519
Concord, Ontario, Canada	43.79935000000006	-79.50299999999999
Lake Lagunitas, California, USA	37.94687000000005	-122.59473999999994
Waterman, Illinois, USA	41.76947000000007	-88.77263999999997
Smithfield Motor Tax Office, Dublin, Ireland	53.34930000000003	-6.275949999999966
Sascha Brastoff Esplanade, 246 26th Street, Santa Monica, California, USA	34.047327689133915	-118.49075194659228
Surfers Paradise Esplanade, Gold Coast, Australia	-27.99775999999997	153.43068000000005
Robotana, Bulgaria	42.75500839100005	25.23641224000005
Brighton-le-Sands, New South Wales, Australia	-33.96061999999995	151.15566
Hawaii International/Neil Blaisdell Center, 777 Ward Avenue, Honolulu, O'ahu, Hawaii, USA	21.299700054965655	-157.85191999653844
La Turbie, Alpes-Maritimes, France	43.74553000000003	7.4002700000000345
O'ahu, Hawaii, USA	21.43333000000007	-157.96666999999997
Breukelen, Utrecht, Netherlands	52.17303000000004	5.001660000000072
Laugh Factory - 8001 Sunset Blvd., Hollywood, Los Angeles, California, USA	34.09805541661366	-118.36442455842804
Archaia Olympia, Greece	37.64788000000004	21.62710000000004
First Church Cemetery, Town Street, East Haddam, Connecticut, USA	41.449855953901064	-72.43082153450518
Satsop, Washington, USA	47.00236000000007	-123.48161999999996
Emerald Park, Telangana	17.445040000000063	78.47089000000005
UNHCR refugee camp - Geneva, Switzerland	46.167065636187814	6.125547544490739
Silets village, Ukraine	50.31436000000008	24.190150000000074
Rome, Lazio, Italy	41.90322000000003	12.495650000000069
Woolmer Forest, Hampshire, England, UK	50.86046133986319	-1.7855870097947473
Parc Zoologique du Reynou, Limousin, France	43.47271000000006	6.733590000000049
Tri-State Church of God - 3519 West Street, Weirton, West Virginia, USA	40.40080203150597	-80.5911695640087
Churu, India	28.30415000000005	74.96718000000004
The Globe pub, Bow Street, Covent Garden, London, England, UK	51.51279000000005	-0.12136999999995624
Glacier Bear Lodge - 812 Glacier Bear Ave, Yakutat, Alaska, USA	59.53908968874009	-139.69992062488484
Livadia, Crimea, Ukraine	44.46739000000008	34.141410000000064
1616 Butler Ave, Los Angeles, California, USA	34.04497489454089	-118.45141862793591
Lake Worth, Texas, USA	32.811330000000055	-97.43614999999994
Morrisville, Pennsylvania, USA	40.21070000000003	-74.77572999999995
Romagnano al Monte, Italy	40.62878000000006	15.454830000000072
Burnaby Mountain, Burnaby, British Columbia, Canada	49.280850000000044	-122.91443999999996
Conestoga Lake, Ontario, Canada	43.14786970579146	-80.73832278190868
8 Crescent Lane, Bath, Somerset, England, UK	51.38760244858194	-2.36667004778164
Franklin County, Idaho, USA	42.18107329500003	-111.81320503699999
Worcester, Massachusetts, USA	42.26341000000008	-71.80218999999994
Plaza Frontenac, 1701 S Lindbergh Blvd, St Louis, Missouri, USA	38.63046000000003	-90.40680004890604
Viseu, Portugal	40.65695000000005	-7.914629999999931
Port-Sainte-Marie, Lot-et-Garonne, France	44.25221000000005	0.38430000000005293
Warncliffe Apartments - 145 S. Bunker Hill, Bunker Hill, Downtown, Los Angeles, California, USA	34.05349000000007	-118.24531999999999
Green Close, Cheshunt, England, UK	51.69575733539433	-0.029219115755662498
Las Olas Cafe, 644 6th St, Miami Beach, Florida, USA	25.775819996104897	-80.13483999999994
Baarn, Utrecht, Netherlands	52.21100000000007	5.292120000000068
Larkhall, South Lanarkshire, Scotland, UK	55.73866000000004	-3.973139999999944
Castle Street, Warwick, Warwickshire, England, UK	52.28077039347813	-1.5869797793477172
621 17th Street, Denver, Colorado, USA	39.74566269250946	-104.9903458356515
Sabine Street Lofts, Houston, Texas, USA	29.760894084473847	-95.37529197749143
Parc National du Banc d'Arguin, Mauritania	20.174290000000042	-16.57704999999993
1300 Main Street, Los Angeles, California, USA	33.990058507965664	-118.47253672046557
Murqquab, Dubai, United Arab emirates	24.820520000000045	55.58431000000007
near, Madrid, Spain	40.42028000000005	-3.7057699999999727
Lake Joseph, Ontario, Canada	45.19461000000007	-79.78924999999998
North Middlesex University Hospital, Edmonton, London, England, UK	51.61310000000003	-0.07535999999993237
College Historical Society, Graduates' Memorial Building, Trinity College, Dublin, County Dublin, Ireland	53.348070000000064	-6.248269999999934
Torget, Rjukan, Telemark, Norway	59.878422	8.593429500000013
Ogrodzieniec Castle, Podzamcze, Slaskie, Poland	50.453670000000045	19.552310000000034
North Greenwich underground station, London, England, UK	51.49967000000004	0.0024000000000228283
Kastl, Bavaria, Germany	49.36861000000005	11.67978000000005
Mount Ararat, Turkey	39.702240000000074	44.29800000000006
Hohenzollern Bridge, Cologne, North Rhine-Westphalia, Germany	50.9412603613993	6.9683228388096285
Atlntida, Canelones, Uruguay	-34.698837844143306	-55.88666255278377
Heerlen, Limburg, Netherlands	50.88578000000007	5.98061000000007
Palazzo Vecchio, Piazza della Signoria, Florence, Tuscany, Italy	43.76947000000007	11.255710000000022
Cobea, Madrid, Spain	40.566910000000064	-3.50718999999998
Native Legend Trail, Castle Rock, Colorado, USA	39.37591000000003	-104.85995999999994
Ben Slimane, Morocco	33.612970000000075	-7.120789999999943
Bahnhof Friedrichstrae, Mitte, Berlin, Germany	52.52013000000005	13.388270000000034
Nuestra Seora de los Infantes School, Toledo, Castilla-La Mancha, Spain	39.86973000000006	-4.026559999999961
Pathescope Studios, New York City, New York, USA	40.71455000000003	-74.00713999999994
500 East 10th Street, New York City, New York, USA	40.72412372444154	-73.9736045825035
333 Georgia Street, Vallejo, California, USA	38.10104322597505	-122.25771211355823
Southern Oregon, Oregon, USA	42.186439998269286	-122.69399005554246
Truman Courthouse, Jackson County, Missouri, USA	39.09350260502791	-94.4924397899442
UK Centre for Carnival Arts, Luton, Bedfordshire, England, UK	51.881590000000074	-0.41610999999994647
202 East 13th Street, Manhattan, New York City, New York, USA	40.73244183735358	-73.98740313350449
Montigny-le-Tilleul, Hainaut, Belgium	50.38012000000003	4.3803400000000465
Gulgong, New South Wales, Australia	-32.362559999999974	149.53263000000004
Okanagan Lake, Okanagan Valley, British Columbia, Canada	50.363860000000045	-119.34996999999998
Hassan, India	13.00287000000003	76.10245000000003
Urge Taquito, Tulum, Quintana Roo, Mexico	20.210870000000057	-87.46321999999998
Nanuya Levu Island, Fiji	-16.966669999999965	177.38333000000011
Bill Richardson Transport World, Invercargill, New Zealand	-46.40175017701202	168.34077900000003
Moonlight Rollerway, Glendale, California, USA	34.1445200477523	-118.27063995888419
Tibro, Sweden	58.423460000000034	14.162730000000067
Villa Cabrini Academy, 7500 Glenoaks Boulevard, Burbank, California, USA	34.20696966515563	-118.34208868725894
Mahabalipuram, Tamil Nadu, India	12.627770000000055	80.19415000000004
13949 Ventura Blvd, Sherman Oaks, Los Angeles, California, USA	34.1490022351258	-118.43705911197999
Shiraz, Sepidana, Iran	29.610310000000027	52.53114000000005
The Burlington Hotel, Ballsbridge, Dublin, County Dublin, Ireland	53.32992000000007	-6.24950999999993
Bernwe, Brandenburg, Germany	52.81436000000008	13.337200000000053
Restaurante Trbol, Cales Fonts, Menorca, Balearic Islands, Spain	40.00040000000007	3.9999700000000757
Llewellyn Park, West Orange, New Jersey, USA	40.78093050000001	-74.23787475
Harlech, Gwynedd, Wales, UK	52.86099000000007	-4.110459999999932
Phelpston, Ontario, Canada	44.51782000000003	-79.84771999999998
Horgen, Kanton Zrich, Switzerland	47.32691400000001	8.529574500000013
819 A Street, San Rafael, California, USA	37.971723499307515	-122.52848462213619
Midway Islands	28.228000000000065	-177.39199999999997
Long Beach Veterans Stadium - 4901 East Conant Street, Long Beach, California, USA	NaN	NaN
Earlville, Illinois, USA	41.59008000000006	-88.92356999999998
York Boulevard and North Avenue 50, Highland Park, Los Angeles, California, USA	NaN	NaN
Steiner Ranch - 896 Sayers Road, Bastrop, Texas, USA	30.180962604969114	-97.36755030483428
Mutters, Tirol, Austria	47.227550000000065	11.376990000000035
Ponte do Saber, Rio de Janeiro, Rio de Janeiro, Brazil	-22.866965070047375	-43.23277350000001
KGO-TV, San Francisco, California, USA	37.777120000000025	-122.41963999999996
Hardangerfjord, Hordaland, Norway	60.16667000000007	6.000000000000057
Flat 3, 12 Kelso Road, Woodhouse, Leeds, West Yorkshire, England, UK	53.80600098447583	-1.5618363982115702
Nicolet College - County Highway G, Rhinelander, Wisconsin, USA	45.60900711715013	-89.42451882364121
Alhama de Granada, Granada, Andaluca, Spain	37.00564000000003	-3.990989999999954
371 7th Avenue, Manhattan, New York, USA	40.74889098750652	-73.99209380070987
St. James Club - 8358 Sunset Blvd., West Hollywood, California, USA	34.09533662389656	-118.37230775893026
Ferme du Garet, Le Villaret, Lozre, France	44.49160000000006	3.39581000000004
Hermanuv Mestec, Czech Republic	49.946650000000034	15.666390000000035
Valledupar, Cesar, Colombia	10.464780000000076	-73.26060999999999
La Havane, Cuba	23.13211000000007	-82.36748999999998
Faj da Caldeira de Santo Cristo, S. Jorge, Azores, Portugal	37.833330000000046	-25.149999999999977
Steve's Famous Clam Bar - 515 Atlantic Avenue, Brooklyn, New York City, New York, USA	40.68529534139296	-73.98054312808014
Santa Catalina de Alexandria Chapel, Balagtas, Bulacan, Philippines	14.816320000000076	120.9093600000001
Santa Ana, Cagayan, Philippines	18.460410000000024	122.14247000000012
Place des Neufs Jets, Cret, Pyrnes-Orientales, France	46.55941704400004	2.5505399530000545
University of Michigan Central Campus, Ann Arbor, Michigan, USA	42.28345000000007	-83.72684999999996
Leo's Bar, Albuquerque, New Mexico, USA	35.05533890344272	-106.70129625418113
Forteresse de Salses, Salses-le-Chteau, Pyrnes-Orientales, France	42.80383350000001	2.9427165000000084
Miastko, Pomorskie, Poland	53.99801323053294	16.97281895336563
Pulheim, North Rhine-Westphalia, Germany	50.997880000000066	6.802460000000053
Woody's Express - 175-179 Stroud Green Road, Stroud Green, London, England, UK	51.570486235397766	-0.11493775237470304
Westview Elementary, North Vancouver, British Columbia, Canada	49.324310000000025	-123.08944999999994
Brighton Baths, 251 Esplanade, Brighton, Melbourne, Victoria, Australia	-37.910269952247724	144.98615992887704
City Hall, Charters Towers, Queensland, Australia	-20.07546999999994	146.2572100000001
BBC, Edinburgh, Scotland, UK	55.95998170478031	-3.195094280754931
Schlohof von Hohenems, Vorarlberg, Austria	47.362250000000074	9.688920000000053
Edna, Texas, USA	28.97813000000008	-96.64617999999996
15 West 81st Street, Manhattan, New York City, New York, USA	40.78255323925207	-73.9728231762364
Wyre Forest, West Midlands, England, UK	52.46299734245861	-2.158553003421971
Cuervo Quintana Redonda river source, Soria, Castilla y Len, Spain	41.640480000000025	-2.615549999999928
Paramatta Riverside Theatre, Sydney, New South Wales, Australia	-33.81022999999993	151.0048200000001
Tinos, Greece	37.53753000000006	25.163430000000062
RAF Honington, Honington, Suffolk, England, UK	52.335650000000044	0.8049900000000321
The Groundhog Pub, Toronto, Ontario, Canada	45.31842	-79.82546217353318
Bay Studios, Swansea Gate Business Park, Fabian Way, Swansea, Wales, UK	51.621980000000065	-3.8716099999999756
Via del Teatro Marcello, Rome, Lazio, Italy	41.89305261235291	12.48118282667643
New Roads, Louisiana, USA	30.69321000000008	-91.43433999999996
Turkdean, Gloucestershire, England, UK	51.855170000000044	-1.8464699999999539
Le Chalet des Iles, Porte de la Muette, Chemin de ceinture du Lac Infrieur, Bois de Boulogne, Paris 16, Paris, Ile-de-France, France	NaN	NaN
5901 N. Sheridan Rd., Edgewater, Chicago, Illinois, USA	41.98935695337295	-87.65530514458433
Morialta Gorge, South Australia, Australia	-34.86636286851567	138.75752192829427
Nmest nad Oslavou, Czech Republic	49.208210000000065	16.15823000000006
Muse des Arts Forains, 53 avenue des terroirs de France, Paris 12, Paris, France	48.83263575076461	2.3893327039933263
Balai Bomba dan Penyelamat Chow Kit, Jalan Haji Hussein, Chow Kit, Kuala Lumpur, Malaysia	3.1664922635390496	101.69922315794237
Leonilda Apartments - 719 S Bixel St, Los Angeles, California, USA	34.05066478036512	-118.26444890449433
Calles, Mexico City, Distrito Federal, Mexico	19.336719650227487	-99.02232016887193
Mindo, Ecuador	-0.055299999999931515	-78.77298999999994
Best Foods, Hounslow, London, England, UK	51.47369000000003	-0.38925999999997885
Bloomingdale, Georgia, USA	32.132150000000024	-81.29864999999995
Hitra, Sr-Trndelag, Norway	63.602190000000064	8.975570000000062
European Taste Restaurant, London, England, UK	51.47369000000003	-0.11925999999994019
Sogakope, Ghana	6.001130000000046	0.5998000000000729
Kings Hotel, Baton Rouge, Louisiana, USA	30.443340000000035	-91.18698999999998
MTA Subway Station, MacArthur Park, Los Angeles, California, USA	34.05492000000004	-118.28424999999999
Clandon Hall, Guildford, Surrey, England, UK	51.26379000000003	-0.5033599999999296
Lady Bay Bridge, Nottingham, Nottinghamshire, England, UK	52.94361901122117	-1.132254586849501
1 E Washington St, Phoenix, Arizona, USA	33.44815854674262	-112.0734832939292
Party Cove, Lake of the Ozarks State Park, Missouri, USA	38.203370000000064	-92.62351999999998
Demelza Boutique, Rochester, Kent, England, UK	51.37638505001483	0.4460442675511473
Ashokan Reservoir, Ulster County, New York, USA	41.96963000000005	-74.18594999999993
Chteau de Ratilly, Treigny, Yonne, France	47.55247944218959	3.167142021985621
Hires Big H - 425 S 700 E, Salt Lake City, Utah, USA	40.76009000000005	-111.87104993003074
Treadgold Street, Notting Hill, London, England, UK	51.512387383180894	-0.21520507546122905
Venice Blvd. and Interstate 110, Los Angeles, California, USA	34.03808900191111	-118.37302899661684
Leonardo da Vinci-zaal, Rogiercentrum, Brussels, Brussels-Capital, Belgium	50.802910076605706	4.3396300732875
Ville de Lorraine, Qubec, Canada	46.873112738575784	-71.27438943247853
9 West 31st Street, Manhattan, New York City, New York, USA	40.74693820650348	-73.98684148306312
Interurban Railway Museum, Plano, Texas, USA	33.01969000779031	-96.7017699489295
La Crescenta Motel - 2413 Foothill Boulevard, La Crescenta, California, USA	34.21928007718264	-118.23177996667447
Casa Fuster, Barcelona, Catalonia, Spain	41.39809991949923	2.158089963356322
Hiroshima Peace Memorial Museum - 2 Nakajima-cho, Naka Ward, Hiroshima City, Hiroshima Prefecture, Japan	34.39161744300003	132.45202582100012
Sterling, Virginia, USA	39.033070000000066	-77.40655999999996
Merchants Wine Bar, Warwick, Warwickshire, England, UK	52.281220000000076	-1.5891099999999483
Hopflauenen, Kanton Bern, Switzerland	46.71467000000007	8.27887000000004
Window of the World, Nanshan, Shenzhen, Guangdong, China	22.545540000000074	114.06830000000002
Caf Buenos Aires, Lisbon, Portugal	38.710617529610744	-9.161710149957807
549 Darling St, Rozelle, NSW, Australia	-33.858747	151.17174
Obelisk of Queen Hatshepsut, Karnak Temple, Luxor, Egypt	25.719399998269285	32.655710059004086
656 Lincoln Avenue, Winnetka, Illinois, USA	42.10931627863712	-87.73366915225905
Randalls store, Uxbridge, England, UK	51.544620000000066	-0.47829999999993333
Camp White Pine, Haliburton, Ontario, Canada	45.07503404646345	-78.58795636132179
Pasaia, Guipzcoa, Pas Vasco, Spain	43.325960000000066	-1.9217899999999304
JK Pools & Toys, 23425 Van Dyke Avenue, Warren, Michigan, USA	42.46654413044607	-83.02684119458692
Side, Turkey	36.78382000000005	31.396040000000028
Grand Sirenis, Riviera Maya, Mexico	20.508070000000032	-87.22869999999995
Tatton Hall, Tatton Park, Knutsford, Cheshire, England, UK	53.32532000000003	-2.3904999999999745
Sipokni West, Reagon, Oklahoma, USA	34.31765741695541	-96.67969431462186
The Upper Deck, Halifax, Nova Scotia, Canada	44.64548000000008	-63.57654999999994
Route 66, El Reno, Oklahoma, USA	35.50800600000001	-97.92755063736638
East 1st Street, Sanford, Florida, USA	28.811763458956122	-81.26136053736744
Saint Francisville, Louisiana, USA	30.779900000000055	-91.37649999999996
Sderhamn, Gvleborgs ln, Sweden	61.301720000000046	17.05230000000006
Four Seasons Hotel, 791 West Georgia Street, Vancouver, British Columbia, Canada	49.283300000000054	-123.11883999999998
KEYT - 730 Miramonte Dr - Santa Barbara, California, USA	34.409733556235004	-119.70885270682153
Castlegate, Melbourne Street, Newcastle upon Tyne, England, UK	54.97221506059882	-1.6038124682155137
Sun 'n Fun, Lakeland, Florida, USA	27.983533481841334	-82.02430255183197
Nrpi, Finland	64.52251280100006	26.158834376000073
Lancefield, Victoria, Australia	-37.27914999999996	144.72540000000004
350 S Grand Ave, Los Angeles, California, USA	34.05190236161941	-118.25219059928496
Ecola State Park - Highway 101, Cannon Beach, Oregon, USA	45.915860000000066	-123.96644999999995
San Rafael, Veracruz, Mexico	20.18870000000004	-96.86611999999997
Kathputli Colony, Shadipur Depot., New Delhi, India	NaN	NaN
Quintanar de la Orden, Toledo, Castilla-La Mancha, Spain	39.59699000000006	-3.0478199999999447
Puerta de los Nietos, Queretaro, Mexico	20.808409499999996	-100.42809975
6110 Van Nuys Blvd, Van Nuys, Los Angeles, California, USA	34.18098905496559	-118.44870077592539
Bradford City Football Club, Valley Parade, Bradford, West Yorkshire, England, UK	53.803850041115844	-1.7597599399853598
Little Wind River, Lander, Wyoming, USA	42.83122198408635	-108.72645678560234
Bacon Lane, Sheffield, South Yorkshire, England, UK	53.38907440715258	-1.4394790968877276
Jamnagar, Gujarat, India	22.469190000000026	70.07095000000004
Kapan, Armenia	39.20891000000006	46.401740000000075
Avenue Gabriel, Paris 8, Paris, France	48.86832878958518	2.3160537082963595
Millington, New Jersey, USA	40.665950000000066	-74.51399999999995
Oita Stadium, Oita, Japan	33.18520089700007	131.6019245540001
Hot Springs, Virginia, USA	37.99875000000003	-79.83208999999994
Altenburg, Lower Austria, Austria	48.64731000000006	15.594460000000026
Pauwela, Maui, Hawaii, USA	20.933820000000026	-156.31770999999998
Nerondes, France	46.99781000000007	2.818550000000073
Chu Lai, Vietnam	15.400000000000034	108.70000000000005
Velke Losiny, Czech Republic	50.03167000000008	17.040560000000028
1 Place de l'Htel de ville, Asnires-sur-Seine, France	48.91033614351647	2.2891822241042026
Charlemont, Massachusetts, USA	42.62761000000006	-72.87662999999998
Dustin, Oklahoma, USA	35.272530000000074	-96.03087999999997
Goudse schouwburg, Gouda, Netherlands	52.02409000000006	4.690590000000043
Samoa Cookhouse - 908 Vance Avenue, Samoa, California, USA	40.820970000000045	-124.18207999999998
Militrflugplatz, Mietraching, Bad Aibling, Bavaria, Germany	47.87904000000003	11.994300000000067
Batoka Gorge, Southern Province, Zambia	-16.499999999999943	27.000000000000057
Langemarckhalle, Olympiapark, Berlin, Germany	48.17526000000004	11.548050000000046
242 W 36th St, Manhattan, New York City, New York, USA	40.75338315836726	-73.9923017886382
Agra Fort, Agra, Uttar Pradesh, India	27.175800000000038	78.02161000000007
Tabriz, Iran	38.08000000000004	46.291900000000055
Cottage Farm, Cackets Lane, Cudham, Sevenoaks, England, UK	51.31735884521187	0.08086545100555304
Filmoteca de Andaluca, Crdoba, Spain	37.88002000000006	-4.781739999999957
16948 Vasquez Canyon Road, Canyon Country, California, USA	34.47068594030255	-118.43093817805408
Hickey Elementary School, Plano, Texas, USA	33.05155000000008	-96.64629999999994
Lijiang East Station, Gucheng District, Lijiang, Yunnan, China	26.868790000000047	100.22072000000009
Campbell County, Kentucky, USA	38.943560830000024	-84.38125203299995
Sundarban Bali Jungle Camp, 24 Parganas South, Sundarbans National Park, India	31.359880000000032	75.54165000000006
Copenhagen City, Denmark	55.67567000000008	12.567560000000071
Futtsu, Chiba, Japan	35.30409413700005	139.85712855500003
White Waltham Airfield, Westacott Way, White Waltham, Maidenhead, Berkshire, England, UK	51.48478000000006	-0.7775699999999688
Cranford Country Park, Cranford, Middlesex, England, UK	51.48165000000006	-0.4122799999999529
Alto Paraso, Brazil	-9.718029999999942	-63.318809999999985
Great Eastern Hotel, Quezon Avenue, Quezon City, Metro Manila, Philippines	14.639340051070514	121.02937994892966
134 Davidson Avenue, Woodland, Washington, USA	45.90094949321932	-122.747661
Portobello Road, Kensington, London, England, UK	51.49014000000005	-0.16247999999995955
Old Washington, Arkansas, USA	35.114244748209394	-92.44783212430364
Miller and Herriott Tract House - 1163 West 27th Street, Los Angeles, California, USA	34.03033551875456	-118.28629256258297
Vernazza, Liguria, Italy	44.13566000000003	9.684870000000046
Bekasi, Indonesia	-6.256689999999935	106.99132000000009
Nottingham University, University Park, Nottingham, Nottinghamshire, England, UK	52.95751000000007	-1.1501799999999776
2375 Fox Hills Dr, Los Angeles, California, USA	34.049008970569645	-118.41352480656691
Aartselaar, Flanders, Belgium	51.13420000000008	4.387680000000046
South Perth, Western Australia, Australia	-31.975209999999947	115.85576000000003
Sevilla, Sevilla, Andaluca, Spain	37.38789000000003	-6.001979999999946
Milford Mill Park & Swim Club - 3900 Milford Mill Rd, Windsor Mill, Maryland, USA	39.358921297910314	-76.74953502951634
Hamwood Farm, Daws Green, Trull, Taunton, Somerset, England, UK	51.016036500000006	-3.1324072499999884
Stora Ekeberg, Vstra Gtalands Ln, Sweden	58.40411000000006	13.539550000000077
1117 N Western Ave, Los Angeles, California, USA	34.09152856429881	-118.30923793570119
Cypress Street, Lomita, California, USA	33.79463437159576	-118.32273
S.S. United States, Pier 86, Manhattan, New York City, New York, USA	NaN	NaN
Edward O. Buckbee Hangar, U.S. Space & Rocket Center - One Tranquility Base, Huntsville, Alabama, USA	34.72929000000005	-86.58509999999995
Kamp-Lintfort, Northrhine-Westfalia, Germany	51.50474000000003	6.547400000000039
Tilbury, Essex, England, UK	51.46390000000008	0.3501700000000483
Wollaton Industrial Museum, Nottingham, Nottinghamshire, England, UK	52.95500000000004	-1.2238799999999515
Lincoln Park, Lincoln Park, Chicago, Illinois, USA	41.92184000000003	-87.64743999999996
Kawah Ijen, Java, Indonesia	-8.057499999999948	114.24150000000009
Read Books, Los Angeles, California, USA	37.858964316856486	-122.09386044061176
Perkasie, Pennsylvania, USA	40.37390000000005	-75.30068999999997
Bauer Martinez Studios, 3151 Cahuenga Boulevard West, Los Angeles, California, USA	34.12771368774894	-118.34652343701298
Woodvale Cemetery, Lewes Road, Brighton, East Sussex, England, UK	50.83678000000003	-0.12485999999995556
Zamkowa, Przemysl, Podkarpackie, Poland	49.7806298585824	22.767880507557596
3 Monroe st, Elgin, Illinois, USA	42.034770251457104	-88.29993300579972
Frankie & Benny's, Woodside Leisure Park, North Orbital Road, Garston, Hertfordshire, England, UK	51.69165000000004	-0.3953799999999319
Samuel de Champlain Statue, Qubec City, Qubec, Canada	46.86060001832191	-71.21136991949916
Ukranian Cultural Center, Fifth Avenue, Manhattan, New York City, New York, USA	40.71455000000003	-74.00713999999994
Masonic Memorial Temple - 1850 Sherbrooke Street West, Montral, Qubec, Canada	60.108670000000075	-113.64257999999995
Fair Grounds Field, Shreveport, Louisiana, USA	32.51487000000003	-93.74688999999995
Eugene Hotel - 560 Stanford Ave, Los Angeles, California, USA	34.041127726325904	-118.2424585614578
Tepatitln de Morelos, Jalisco, Mexico	20.81570000000005	-102.75946999999996
Windsock Bar & Grill, Lindbergh Field, San Diego, California, USA	32.73007000000007	-117.19513999999998
Boca Chica Beach, Santo Domingo, Dominican Republic	18.454320000000052	-69.60556999999994
Svedala, Skne ln, Sweden	55.508560000000045	13.233720000000062
Crane Beach, Ipswich, Massachusetts, USA	42.68392000000006	-70.76717999999994
Chteau, Sane-et-Loire, France	46.59721015670392	5.1774521970917
Landquart, klosters, Kanton Graubnden, Switzerland	46.96266463000006	9.56267654900006
Ramillies Street, Soho, London, England, UK	51.51531910075266	-0.13916295571871806
Mattison Boyd Jones House - 727 West Kenneth Road, Glendale, California, USA	34.17096706416951	-118.27142629251556
St. Luke's Anglican Church, Shore Road, Hubbards, Nova Scotia, Canada	44.369222256231794	-64.29719188687835
Restaurant Ban Tha - 34 Rue Ferrandires, Lyon, Rhne, Rhne-Alpes, France	17.030560000000037	99.75250000000005
Maison "Ty garde", Clder, Finistre, France	48.66233946388225	-4.105553002738752
1318 West Ave, San Antonio, Texas , USA	29.474208000000004	-98.52600040686148
Cercedilla, Madrid, Spain	40.73702000000003	-4.064109999999971
Kinna, Vstra Gtalands ln, Sweden	57.50733000000008	12.694170000000042
Auditel - 12 avenue du Maine, Paris 14, Paris, France	NaN	NaN
Higashikawa, Japan	35.25227754800005	136.91030286700004
Deutsche Post, berseering 30, Hamburg, Germany	53.60408186900566	10.017473283138754
Fai Della Paganella, Trento, Trentino - Alto Adige, Italy	46.17560000000003	11.068730000000073
Kungliga Operan, Norrmalm, Stockholm, Stockholms ln, Sweden	59.32974993392598	18.070499932195197
Munsey park, New York, USA	40.79540000000003	-73.67761999999993
Longridge Ave, Los Angeles, California, USA	34.21846577026828	-118.42172339104725
Josefstal, Bavaria, Germany	47.68975000000006	11.884910000000048
JVA Blockland, Bremen, Germany	53.16389000000004	8.740390000000048
Hotell Union ye, Geiranger, Stranda, Mre og Romsdal, Norway	62.09675000000004	7.209830000000068
Orere Point, New Zealand	-36.997543537999945	175.22819061300004
Frohna, Missouri, USA	37.63862000000006	-89.62173999999999
Challans, Vende, France	46.84588000000008	-1.8793499999999312
Evropa Park Hotel, Haskovo, Bulgaria	41.94556000000006	25.541960000000074
Gillingham, Dorset, England, UK	51.038680000000056	-2.278229999999951
Coleridge Chambers, 175 - 177 Corporation Street, Birmingham, England, UK	52.48310314116646	-1.8935810996223348
J'Myle Salon, Atlanta, Georgia, USA	33.719080000000076	-84.38498999999996
Roscommon, County Roscommon, Ireland	53.725504296000054	-8.25043777899998
Colgate Palmolive Factory, Ordsall Lane, Salford, Greater Manchester, England, UK	53.47959000000003	-2.248739999999941
Stonehenge Monument, Columbia River Gorge, Washington, USA	45.6951609607163	-120.80559263489313
Hecho en Mexico Restaurant, 4976 Huntington Dr S, Los Angeles, California, USA	34.087782135409086	-118.17418926045947
California Palace of the Legion of Honor - 34th Avenue & Clement Street, San Francisco, California, USA	37.777120000000025	-122.41963999999996
North Brunswick, New Jersey, USA	40.467820000000074	-74.47186999999997
Erbil, Iraq	36.191050000000075	44.012140000000045
nalan Mah, skdar, Istanbul, Turkey	40.97437390705106	28.6235379383383
Bognsgaard, Bogns, Sjlland, Denmark	55.69180029383408	11.995054616492471
Huntington Central Park, Huntington Beach, California, USA	33.69749995946118	-118.00623992498177
Archbishop's Temple school, Lambeth Road, Lambeth, London, England, UK	51.49085000000008	-0.11107999999995855
Quartier de Ben J'Dia, Casablanca, Morocco	33.596610000000055	-7.618889999999965
Kalahari Desert, South Africa	-28.44602999999995	21.21616000000006
Silvares, Fundo, Portugal	40.13789000000003	-7.6690699999999765
3010 Montrose Avenue, Glendale, California, USA	34.218882494835455	-118.24470751529209
10730 Riverside Drive, Los Angeles, California, USA	34.152219484563666	-118.36468366763806
Gilman Street, Berkeley, California, USA	37.87909540745113	-122.30272456339229
El Nayar, Nayarit, Mexico	21.839222430735155	-105.06687218851965
Well Vale, Alford, Lincolnshire, England, UK	53.26158000000004	0.17982000000006337
Mammoth Lakes, California, USA	37.648780000000045	-118.97792999999996
Sgur, Paris Metro, Paris 7, Paris, France	48.857210000000066	2.341440000000034
Woodforde, South Australia, Australia	-34.90375999999998	138.68752000000006
Walton High School - 1590 Bill Murdock Road, Marietta, Georgia, USA	33.98936000000003	-84.44007999999997
Institut de France, 23 quai de Conti, Paris 16, Paris, France	48.857399919499215	2.3373199699927563
Beurs van Berlage, Amsterdam, Netherlands	52.375079995528004	4.896279987160773
Antelope Springs, Presidio County, Texas, USA	30.208500000000072	-103.92545999999999
Channelview, Texas, USA	29.777630000000045	-95.11246999999997
Century Theater - 21 Central Park West, Manhattan, New York City, New York, USA	NaN	NaN
Ye Olde Bell Hotel, Hurley, Berkshire, England, UK	51.54447000000005	-0.8094099999999571
WOR-TV - 1481 Broadway, New York City, New York, USA	40.806667796145014	-73.96466649054817
Tors Cove, Newfoundland, Newfoundland and Labrador, Canada	NaN	NaN
Fort-Mahon-Plage, Somme, France	50.340100000000064	1.5698700000000372
Sidney Myer Music Bowl, Kings Domain, Melbourne, Victoria, Australia	-37.82404999999994	144.97161000000006
Blue Sky, Rue des Trois-Frres, Paris 18, Paris, France	48.89250000000004	2.344400000000064
Queen Street, Newcastle upon Tyne, England, UK	54.96911570425223	-1.6067536437280316
Planette J, Kisangani, Democratic Republic of the Congo	0.5152800000000752	25.190990000000056
New Smyrna Beach, Florida, USA	29.027160000000038	-80.92302999999998
Beaumaris Gaol, Beaumaris, Anglesey, Wales, UK	53.263370000000066	-4.091809999999953
Hardwick Township, New Jersey, USA	41.009240000000034	-74.94939999999997
San Vicente, Palawan, Philippines	10.531790000000058	119.25800000000004
Theater an der Wien, Vienna, Austria	48.19932003664375	16.364359970569662
Talland Church, Talland Bay, Polperro, Cornwall, England, UK	50.333424550336844	-4.515004730702656
Fortun, Norway	61.495130000000074	7.689040000000034
Liverpool Innovation Park, Liverpool, Merseyside, England, UK	53.40745000000004	-2.9362199999999348
Shell bensinstation, Lule, Norrbottens ln, Sweden	65.60307993724417	22.135269976629186
Estacin de invierno de Nuria, Girona, Catalonia, Spain	41.980810000000076	2.8187300000000732
San Luis, Tolima, Colombia	4.132930000000044	-75.09459999999996
Barcelona, Spain	41.38561000000004	2.1687200000000644
Telegraph Hill Boulevard, Telegraph Hill, San Francisco, California, USA	37.80183782379652	-122.40595184968207
Druid Hills, Atlanta, Georgia, USA	33.83089833227748	-84.34094483544506
Hopfenohe, Grafenwhr, Bavaria, Germany	49.71665190729831	11.893761817475067
1973 Palmerston Pl, Los Angeles, California, USA	34.10733978431998	-118.29827503772384
Lutwyche Road, Church Stretton, Shropshire, England, UK	52.53953519417363	-2.8055947475674334
Mayport, Florida, USA	30.392990000000054	-81.43080999999995
Sskt, Hungary	47.16708877000008	19.424531700000045
Rooty Hill RSL, Rooty Hill, New South Wales, Australia	-33.77057996609754	150.83448994994015
East Georgia Street, Vancouver, British Columbia, Canada	49.278555000000004	-123.07565475
Coquimbo, Chile	-29.954099999999983	-71.33809999999994
Michigan Motion Picture Studios, 1999 Centerpoint Parkway, Pontiac, Michigan, USA	42.618192607593905	-83.25758269360784
40-41 Wimpole Street, Marylebone, London, England, UK	51.520108095182685	-0.1490437789983083
Moabi Regional Park, Needles, California, USA	34.719970000000046	-114.51012999999995
Kingston Prison for Women, Kingston, Ontario, Canada	44.23154000000005	-76.47932999999995
Bulwell, Nottingham, England, UK	53.00121000000007	-1.1981699999999478
Uptown Theatre, 764 Yonge Street, Toronto, Ontario, Canada	43.6695491529229	-79.38655394673651
Entrance, Alberta, Canada	53.37626000000006	-117.68070999999998
Gernsbach, Baden-Wrttemberg, Germany	48.76290000000006	8.33585000000005
Wittenberger Platz, Schneberg, Berlin, Germany	52.502485934418225	13.343366731855145
Marine Group Boat Works, San Diego, California, USA	32.77486994503445	-117.15597994113926
Helsingin rautatieasema, Kaivokatu, Helsinki, Finland	60.17053000000004	24.940690000000075
Krabi Beach, Bangkok, Thailand	13.70366000000007	100.50419000000005
Aiud, Romania	46.31022000000007	23.71723000000003
La Calera, Colombia	4.721750000000043	-73.96788999999995
Palais Bulles Bubble Palace, Theoule-sur-Mer, France	43.50598000000008	6.939790000000073
